[
  {
    "Teams": "ncaabiowa;ncaafiowa",
    "Name": "Cortland's Garage Arlington Heights",
    "Address": "1 N Vail Ave, Arlington Heights, IL 60005",
    "City": "CHI",
    "State": "IL",
    "latitude": 42.0829947,
    "longitude": -87.9839065,
    "Phone": "847-577-2525",
    "Website": "http://www.cortlandsgarage.com/"
  },
  {
    "Teams": "nbachi;ncaabpur;ncaafpur",
    "Name": "Features Bar & Grill",
    "Address": "10 Chicago Ave, Naperville, IL 60540",
    "City": "CHI",
    "State": "IL",
    "latitude": 41.7713484,
    "longitude": -88.1484435,
    "Phone": "630-416-3310",
    "Website": "http://www.featuresbarandgrill.net/"
  },
  {
    "Teams": "mlschi;ncaabucla;ncaafucla",
    "Name": "Fado Irish Pub",
    "Address": "100 W Grand Ave, Chicago, IL 60654",
    "City": "CHI",
    "State": "IL",
    "latitude": 41.8917457,
    "longitude": -87.6312998,
    "Phone": "312-836-0066",
    "Website": "http://www.fadoirishpub.com/chicago"
  },
  {
    "Teams": "ncaabmich;ncaafmich",
    "Name": "Norman's Bistro",
    "Address": "1001 E 43rd St, Chicago, IL 60653",
    "City": "CHI",
    "State": "IL",
    "latitude": 41.8167196,
    "longitude": -87.6015888,
    "Phone": "773-966-5821",
    "Website": "http://www.normansbistro.com/"
  },
  {
    "Teams": "nbachi",
    "Name": "Spartan House",
    "Address": "1032 Prairie St, Aurora, IL 60506",
    "City": "CHI",
    "State": "IL",
    "latitude": 41.75191,
    "longitude": -88.341925,
    "Phone": "630-340-4546",
    "Website": "http://www.spartanhouse.com/"
  },
  {
    "Teams": "nflari;ncaabasu;ncaafasu;mlbchc",
    "Name": "Cubby Bear",
    "Address": "1059 W Addison St, Chicago, IL 60613",
    "City": "CHI",
    "State": "IL",
    "latitude": 41.9469512,
    "longitude": -87.6567149,
    "Phone": "773-327-1662",
    "Website": "http://www.cubbybear.com/"
  },
  {
    "Teams": "mlbchw",
    "Name": "Cork & Kerry",
    "Address": "10614 S Western Ave, Chicago, IL 60643",
    "City": "CHI",
    "State": "IL",
    "latitude": 41.7004501,
    "longitude": -87.6816198,
    "Phone": "773-445-2675",
    "Website": "http://www.corkandkerry.com/"
  },
  {
    "Teams": "nflno",
    "Name": "Frontier",
    "Address": "1072 N Milwaukee Ave, Chicago, IL 60642",
    "City": "CHI",
    "State": "IL",
    "latitude": 41.9012771,
    "longitude": -87.6634546,
    "Phone": "773-772-4322",
    "Website": "http://www.thefrontierchicago.com/"
  },
  {
    "Teams": "mlschi",
    "Name": "Elephant & Castle",
    "Address": "111 W Adams St, Chicago, IL 60603",
    "City": "CHI",
    "State": "IL",
    "latitude": 41.8792499,
    "longitude": -87.6313018,
    "Phone": "312-236-6656",
    "Website": ""
  },
  {
    "Teams": "ncaabmiss;ncaafmiss;ncaabmich;ncaafmich;ncaabwis;ncaafwis",
    "Name": "Joy District Chicago",
    "Address": "112 W Hubbard St, Chicago, IL 60654",
    "City": "CHI",
    "State": "IL",
    "latitude": 41.8902564,
    "longitude": -87.6317577,
    "Phone": "312-955-0339",
    "Website": "http://joychicago.com/"
  },
  {
    "Teams": "nflne",
    "Name": "Tripoli Tavern",
    "Address": "1147 W Armitage Ave, Chicago, IL 60614",
    "City": "CHI",
    "State": "IL",
    "latitude": 41.9179354,
    "longitude": -87.6572007,
    "Phone": "773-477-4400",
    "Website": "http://www.tripolitap.com/"
  },
  {
    "Teams": "mlbchc",
    "Name": "Hawthorne's Backyard",
    "Address": "1200 W Hawthorne Ln, West Chicago, IL 60185",
    "City": "CHI",
    "State": "IL",
    "latitude": 41.8993509,
    "longitude": -88.2252718,
    "Phone": "630-293-6700",
    "Website": "http://hawthornesbackyard.com/"
  },
  {
    "Teams": "ncaabnd;ncaafnd",
    "Name": "Declan's Irish Pub",
    "Address": "1240 N Wells St, Chicago, IL 60610",
    "City": "CHI",
    "State": "IL",
    "latitude": 41.9050552,
    "longitude": -87.6347211,
    "Phone": "312-642-5522",
    "Website": "http://declansirishpub.com/"
  },
  {
    "Teams": "mlbchc",
    "Name": "Ph.D Pub",
    "Address": "1257 S Halsted St, Chicago, IL 60607",
    "City": "CHI",
    "State": "IL",
    "latitude": 41.8655383,
    "longitude": -87.6466076,
    "Phone": "312-226-1010",
    "Website": "http://phdpubchicago.com/"
  },
  {
    "Teams": "mlbchc",
    "Name": "Buffalo Wings & Rings",
    "Address": "1279 Rickert Dr, Naperville, IL 60540",
    "City": "CHI",
    "State": "IL",
    "latitude": 41.7483629,
    "longitude": -88.169703,
    "Phone": "630-548-5021",
    "Website": "http://www.buffalowingsandrings.com/#/locations/il/naperville-greater-chicago"
  },
  {
    "Teams": "mlbchc",
    "Name": "Guthrie's Tavern",
    "Address": "1300 W Addison St, Chicago, IL 60613",
    "City": "CHI",
    "State": "IL",
    "latitude": 41.94721,
    "longitude": -87.661703,
    "Phone": "773-477-2900",
    "Website": "http://www.guthriestavern.com/"
  },
  {
    "Teams": "nflchi;mlbchc",
    "Name": "The Scout Waterhouse + Kitchen",
    "Address": "1301 S Wabash Ave, Chicago, IL 60605",
    "City": "CHI",
    "State": "IL",
    "latitude": 41.8656814,
    "longitude": -87.6255798,
    "Phone": "312-705-0595",
    "Website": "http://www.thescoutchicago.com/"
  },
  {
    "Teams": "ncaabnd;ncaafnd",
    "Name": "Flo & Santos",
    "Address": "1310 S Wabash Ave, Chicago, IL 60605",
    "City": "CHI",
    "State": "IL",
    "latitude": 41.8653945,
    "longitude": -87.6260773,
    "Phone": "312-566-9817",
    "Website": "http://www.floandsantos.com/"
  },
  {
    "Teams": "nbachi;mlschi;ncaablsu;ncaaflsu;nflno",
    "Name": "Standard Bar and Grill",
    "Address": "1332 N Milwaukee Ave, Chicago, IL 60622",
    "City": "CHI",
    "State": "IL",
    "latitude": 41.9057341,
    "longitude": -87.6706539,
    "Phone": "773-904-8615",
    "Website": "http://www.standardbarandgrill.com/"
  },
  {
    "Teams": "ncaabmu",
    "Name": "Old Town Pub",
    "Address": "1339 N Wells St # 1, Chicago, IL 60610",
    "City": "CHI",
    "State": "IL",
    "latitude": 41.9069005,
    "longitude": -87.6343281,
    "Phone": "312-266-6789",
    "Website": "http://www.otpchicago.com/"
  },
  {
    "Teams": "nbachi;ncaabmsu;ncaafmsu",
    "Name": "Whiskey Business",
    "Address": "1367 N Milwaukee Ave, Chicago, IL 60622",
    "City": "CHI",
    "State": "IL",
    "latitude": 41.9068373,
    "longitude": -87.6714462,
    "Phone": "773-698-7362",
    "Website": "http://whiskeybusinesschicago.com/"
  },
  {
    "Teams": "nhlchi;ncaabshu",
    "Name": "Westwood Tavern",
    "Address": "1385 N Meacham Rd, Schaumburg, IL 60173",
    "City": "CHI",
    "State": "IL",
    "latitude": 42.05599,
    "longitude": -88.0443193,
    "Phone": "847-969-9500",
    "Website": "http://www.westwoodtavern.com/"
  },
  {
    "Teams": "ncaabokst;ncaafokst",
    "Name": "Broken English",
    "Address": "1400 N Wells St, Chicago, IL 60610",
    "City": "CHI",
    "State": "IL",
    "latitude": 41.9077562,
    "longitude": -87.6349024,
    "Phone": "312-951-7667",
    "Website": "http://brokenenglisholdtown.com/"
  },
  {
    "Teams": "nhlchi;mlschi;ncaabpur;ncaafpur",
    "Name": "The Warehouse Bar & Pizzeria",
    "Address": "1419 W Fullerton Ave, Chicago, IL 60614",
    "City": "CHI",
    "State": "IL",
    "latitude": 41.925121,
    "longitude": -87.664117,
    "Phone": "773-661-6454",
    "Website": "https://www.thewarehousechicago.com/"
  },
  {
    "Teams": "ncaabpit;ncaafpit",
    "Name": "Burton Place",
    "Address": "1447 N Wells St, Chicago, IL 60610",
    "City": "CHI",
    "State": "IL",
    "latitude": 41.9090333,
    "longitude": -87.6342977,
    "Phone": "312-664-4699",
    "Website": ""
  },
  {
    "Teams": "ncaabpur;ncaafpur",
    "Name": "The Fireplace Inn",
    "Address": "1448 N Wells St, Chicago, IL 60610",
    "City": "CHI",
    "State": "IL",
    "latitude": 41.9091541,
    "longitude": -87.63496,
    "Phone": "312-664-5264",
    "Website": "http://www.fireplaceinn.com/"
  },
  {
    "Teams": "ncaabpur;ncaafpur",
    "Name": "Distilled Chicago",
    "Address": "1480 W Webster Ave, Chicago, IL 60614",
    "City": "CHI",
    "State": "IL",
    "latitude": 41.9216864,
    "longitude": -87.6662666,
    "Phone": "773-770-3703",
    "Website": "http://distilledchicago.com/"
  },
  {
    "Teams": "ncaabmsu;ncaafmsu;nflpit",
    "Name": "Old Crow Smokehouse River North",
    "Address": "149 W Kinzie St, Chicago, IL 60654",
    "City": "CHI",
    "State": "IL",
    "latitude": 41.8888527,
    "longitude": -87.6330353,
    "Phone": "773-348-8899",
    "Website": "http://www.oldcrowsmokehouse.com/river-north/"
  },
  {
    "Teams": "ncaabmsu;ncaafmsu",
    "Name": "El Hefe Chicago",
    "Address": "15 W Hubbard St, Chicago, IL 60654",
    "City": "CHI",
    "State": "IL",
    "latitude": 41.8898941,
    "longitude": -87.6286166,
    "Phone": "312-548-6841",
    "Website": "http://www.elhefe.com/chicago-il"
  },
  {
    "Teams": "ncaabcu;ncaabuf;ncaafuf",
    "Name": "Sully's House",
    "Address": "1501 N Dayton St, Chicago, IL 60642",
    "City": "CHI",
    "State": "IL",
    "latitude": 41.908668,
    "longitude": -87.649115,
    "Phone": "773-244-1234",
    "Website": "http://sullyshouse.com/"
  },
  {
    "Teams": "ncaabnd;ncaafnd",
    "Name": "LG's Bar",
    "Address": "1525 N Wells St, Chicago, IL 60610",
    "City": "CHI",
    "State": "IL",
    "latitude": 41.9098526,
    "longitude": -87.6342214,
    "Phone": "312-888-9368",
    "Website": "http://ladygregorysoldtown.com/"
  },
  {
    "Teams": "ncaabosu;ncaafosu;ncaabvu",
    "Name": "Woodie's Flat",
    "Address": "1535 N Wells St, Chicago, IL 60610",
    "City": "CHI",
    "State": "IL",
    "latitude": 41.9102027,
    "longitude": -87.6344715,
    "Phone": "312-643-0093",
    "Website": "http://www.woodieschicago.com/"
  },
  {
    "Teams": "ncaabnw;ncaafnw;ncaabtlsa;ncaaftlsa",
    "Name": "World of Beer",
    "Address": "1601 Sherman Ave, Evanston, IL 60201",
    "City": "CHI",
    "State": "IL",
    "latitude": 42.0472072,
    "longitude": -87.6816327,
    "Phone": "847-328-3688",
    "Website": "http://worldofbeer.com/Locations/Evanston"
  },
  {
    "Teams": "mlbchc",
    "Name": "The Sedgwick Stop",
    "Address": "1612 N Sedgwick St, Chicago, IL 60614",
    "City": "CHI",
    "State": "IL",
    "latitude": 41.9114874,
    "longitude": -87.638775,
    "Phone": "312-265-1907",
    "Website": "http://www.thesedgwickstop.com/"
  },
  {
    "Teams": "nflchi;ncaabmsu;ncaafmsu;ncaabpit;ncaafpit",
    "Name": "Corcoran's Grill & Pub",
    "Address": "1615 N Wells St, Chicago, IL 60614",
    "City": "CHI",
    "State": "IL",
    "latitude": 41.9115981,
    "longitude": -87.634594,
    "Phone": "312-440-0885",
    "Website": "http://www.corcoransoldtown.com/"
  },
  {
    "Teams": "ncaabtuln;ncaaftuln",
    "Name": "Wells On Wells",
    "Address": "1617 N Wells St, Chicago, IL 60614",
    "City": "CHI",
    "State": "IL",
    "latitude": 41.9116683,
    "longitude": -87.634461,
    "Phone": "312-944-1617",
    "Website": "http://www.wellsonwells.com/"
  },
  {
    "Teams": "ncaabmia;ncaafmia;ncaabtol;ncaaftol",
    "Name": "Flagship Tavern & Grill",
    "Address": "1622 W Belmont Ave, Chicago, IL 60657",
    "City": "CHI",
    "State": "IL",
    "latitude": 41.9398843,
    "longitude": -87.6696349,
    "Phone": "773-281-3805",
    "Website": "http://www.flagshipchicago.com/"
  },
  {
    "Teams": "nhlchi;ncaabniu;ncaafniu",
    "Name": "The Piggery",
    "Address": "1625 W Irving Park Rd, Chicago, IL 60613",
    "City": "CHI",
    "State": "IL",
    "latitude": 41.954116,
    "longitude": -87.6701319,
    "Phone": "773-281-7447",
    "Website": "http://thepiggerychicago.com/"
  },
  {
    "Teams": "mlbchc",
    "Name": "Cemeno's Pizza",
    "Address": "1630 Essington Rd, Joliet, IL 60435",
    "City": "CHI",
    "State": "IL",
    "latitude": 41.552124,
    "longitude": -88.1599058,
    "Phone": "815-254-2500",
    "Website": "http://www.cemenospizza.com/"
  },
  {
    "Teams": "ncaabbay;ncaafbay;nflsf;ncaabneb;ncaafneb",
    "Name": "Gracie O' Malley's- Wicker Park",
    "Address": "1635 N Milwaukee Ave, Chicago, IL 60647",
    "City": "CHI",
    "State": "IL",
    "latitude": 41.911238,
    "longitude": -87.6784739,
    "Phone": "773-292-2765",
    "Website": "https://www.gracieomalleys.com/"
  },
  {
    "Teams": "nhlchi;ncaabfiu;ncaaffiu;ncaabuk;ncaafuk;ncaabsmu;ncaafsmu;ncaabstan;ncaafstan;ncaabtamu;ncaaftamu;ncaabucf;ncaafucf",
    "Name": "The Pony Inn",
    "Address": "1638 W Belmont Ave, Chicago, IL 60657",
    "City": "CHI",
    "State": "IL",
    "latitude": 41.9398446,
    "longitude": -87.6701971,
    "Phone": "773-472-5139",
    "Website": "http://www.theponychicago.com/"
  },
  {
    "Teams": "nflchi;ncaabiowa;ncaafiowa;ncaabpit;ncaafpit",
    "Name": "Cortland's Garage Chicago",
    "Address": "1645 W Cortland St, Chicago, IL 60622",
    "City": "CHI",
    "State": "IL",
    "latitude": 41.9158313,
    "longitude": -87.6695797,
    "Phone": "773-862-7877",
    "Website": "https://www.cortlandsgarage.com/"
  },
  {
    "Teams": "nflchi;nhlchi;nbachi;ncaabnd;ncaafnd",
    "Name": "The Ogden Chicago",
    "Address": "1659 Ogden Ave, Chicago, IL 60612",
    "City": "CHI",
    "State": "IL",
    "latitude": 41.8795504,
    "longitude": -87.668008,
    "Phone": "312-226-1888",
    "Website": "http://www.theogdenchicago.com/"
  },
  {
    "Teams": "ncaabuga;ncaafuga",
    "Name": "Highline Bar + Lounge",
    "Address": "169 W Kinzie St, Chicago, IL 60654",
    "City": "CHI",
    "State": "IL",
    "latitude": 41.8890441,
    "longitude": -87.6338062,
    "Phone": "312-533-2742",
    "Website": "http://highlinebarchicago.com/"
  },
  {
    "Teams": "ncaabniu;ncaafniu;ncaabou;ncaafou",
    "Name": "Trophy Room",
    "Address": "170 W Ontario St, Chicago, IL 60654",
    "City": "CHI",
    "State": "IL",
    "latitude": 41.8933289,
    "longitude": -87.6333451,
    "Phone": "312-600-6920",
    "Website": "http://www.trophyroombar.com/"
  },
  {
    "Teams": "ncaabnw;ncaafnw",
    "Name": "Bat 17",
    "Address": "1709 Benson Ave, Evanston, IL 60201",
    "City": "CHI",
    "State": "IL",
    "latitude": 42.0488308,
    "longitude": -87.6831065,
    "Phone": "847-733-7117",
    "Website": "http://bat17evanston.com/"
  },
  {
    "Teams": "mlschi;ncaabwis;ncaafwis",
    "Name": "Kroll's South Loop",
    "Address": "1736 S Michigan Ave, Chicago, IL 60616",
    "City": "CHI",
    "State": "IL",
    "latitude": 41.858007,
    "longitude": -87.624199,
    "Phone": "312-235-1400",
    "Website": "http://www.krolls-chicago.com/"
  },
  {
    "Teams": "ncaabill;ncaafill",
    "Name": "Output",
    "Address": "1758 W Grand Ave, Chicago, IL 60622",
    "City": "CHI",
    "State": "IL",
    "latitude": 41.8911638,
    "longitude": -87.6718269,
    "Phone": "312-929-2515",
    "Website": "http://www.outputlounge.com/"
  },
  {
    "Teams": "nfllac",
    "Name": "Mac's Wood Grilled",
    "Address": "1801 W Division St, Chicago, IL 60622",
    "City": "CHI",
    "State": "IL",
    "latitude": 41.903021,
    "longitude": -87.6725149,
    "Phone": "773-782-4400",
    "Website": "http://www.macswoodgrilled.com/"
  },
  {
    "Teams": "nflchi;ncaabttu;ncaafttu",
    "Name": "Smoke Daddy BBQ - Wicker Park",
    "Address": "1804 W Division St, Chicago, IL 60622",
    "City": "CHI",
    "State": "IL",
    "latitude": 41.9034379,
    "longitude": -87.6726928,
    "Phone": "773-772-6656",
    "Website": "http://www.thesmokedaddy.com/"
  },
  {
    "Teams": "mlbchw",
    "Name": "Lemmings On Damen",
    "Address": "1850 N Damen Ave, Chicago, IL 60647",
    "City": "CHI",
    "State": "IL",
    "latitude": 41.9152873,
    "longitude": -87.6777062,
    "Phone": "773-862-1688",
    "Website": "http://www.lemmingstavern.com/"
  },
  {
    "Teams": "nhlchi",
    "Name": "JL's Pizza and Sports Bar",
    "Address": "19 N Bothwell St, Palatine, IL 60067",
    "City": "CHI",
    "State": "IL",
    "latitude": 42.1109231,
    "longitude": -88.044746,
    "Phone": "847-202-9069",
    "Website": "http://jlspizzasportsbar.com/"
  },
  {
    "Teams": "ncaabku;ncaafku;ncaabucf;ncaafucf;ncaabwis;ncaafwis",
    "Name": "Lottie's Pub",
    "Address": "1925 W Cortland St, Chicago, IL 60622",
    "City": "CHI",
    "State": "IL",
    "latitude": 41.9158544,
    "longitude": -87.6762151,
    "Phone": "773-489-0738",
    "Website": "http://www.lottiespub.com/"
  },
  {
    "Teams": "nbachi",
    "Name": "Waukegan Bally Muck Inc",
    "Address": "1930 Grand Ave, Waukegan, IL 60085",
    "City": "CHI",
    "State": "IL",
    "latitude": 42.370555,
    "longitude": -87.856746,
    "Phone": "847-244-5636",
    "Website": "http://www.webpageadvertiser.com/Bally-Muck-Sports-Bar_c184.htm"
  },
  {
    "Teams": "mlbchc",
    "Name": "K's Dugout",
    "Address": "1930 W Foster Ave, Chicago, IL 60640",
    "City": "CHI",
    "State": "IL",
    "latitude": 41.9762243,
    "longitude": -87.6777092,
    "Phone": "773-561-2227",
    "Website": ""
  },
  {
    "Teams": "nflchi;ncaabiowa;ncaafiowa",
    "Name": "The Boundary Tavern and Grille",
    "Address": "1932 W Division St, Chicago, IL 60622",
    "City": "CHI",
    "State": "IL",
    "latitude": 41.903357,
    "longitude": -87.6762365,
    "Phone": "773-278-1919",
    "Website": "http://www.boundarychicago.com/"
  },
  {
    "Teams": "ncaabmich;ncaafmich",
    "Name": "WestEnd",
    "Address": "1932, 1326 W Madison St, Chicago, IL 60607",
    "City": "CHI",
    "State": "IL",
    "latitude": 41.8818017,
    "longitude": -87.6607513,
    "Phone": "312-981-7100",
    "Website": "http://www.westendwestloop.com/"
  },
  {
    "Teams": "mlschi;mlspor;nflsf",
    "Name": "The Globe Pub",
    "Address": "1934 W Irving Park Rd, Chicago, IL 60613",
    "City": "CHI",
    "State": "IL",
    "latitude": 41.9544097,
    "longitude": -87.6777563,
    "Phone": "773-871-3757",
    "Website": "http://theglobepub.com/"
  },
  {
    "Teams": "nflchi;mlschi;mlspor",
    "Name": "Cleos Bar And Grill",
    "Address": "1935 W Chicago Ave, Chicago, IL 60622",
    "City": "CHI",
    "State": "IL",
    "latitude": 41.895772,
    "longitude": -87.675982,
    "Phone": "312-243-5600",
    "Website": "http://www.cleospub.com/"
  },
  {
    "Teams": "ncaabtenn;ncaaftenn",
    "Name": "Riverview Tavern",
    "Address": "1958 W Roscoe St, Chicago, IL 60657",
    "City": "CHI",
    "State": "IL",
    "latitude": 41.9433089,
    "longitude": -87.6783049,
    "Phone": "773-248-9523",
    "Website": "http://www.riverviewtavern.com/"
  },
  {
    "Teams": "nflnyj",
    "Name": "Butch McGuire's",
    "Address": "20 W Division St, Chicago, IL 60610",
    "City": "CHI",
    "State": "IL",
    "latitude": 41.9041073,
    "longitude": -87.6295756,
    "Phone": "312-787-4318",
    "Website": "http://www.butchmcguires.com/"
  },
  {
    "Teams": "nbachi",
    "Name": "Stretch's Sports Bar & Grill",
    "Address": "200 N Green Bay Rd, Waukegan, IL 60085",
    "City": "CHI",
    "State": "IL",
    "latitude": 42.36283,
    "longitude": -87.876772,
    "Phone": "847-672-6226",
    "Website": "http://www.stretchssportsbar.com/"
  },
  {
    "Teams": "nfldal;ncaabmu;ncaabnd;ncaafnd",
    "Name": "Commonwealth Tavern",
    "Address": "2000 W Roscoe St, Chicago, IL 60618",
    "City": "CHI",
    "State": "IL",
    "latitude": 41.943432,
    "longitude": -87.678595,
    "Phone": "773-697-7965",
    "Website": "http://commonwealthchicago.com/"
  },
  {
    "Teams": "mlbchc",
    "Name": "Alley 64 - Palatine",
    "Address": "2001 N Rand Rd, Palatine, IL 60074",
    "City": "CHI",
    "State": "IL",
    "latitude": 42.1458336,
    "longitude": -88.0282741,
    "Phone": "847-934-6408",
    "Website": "https://www.alley64palatine.com/"
  },
  {
    "Teams": "ncaabmiz;ncaafmiz;ncaabwis;ncaafwis",
    "Name": "Fatpour Tap Works - Wicker Park",
    "Address": "2005 W Division St, Chicago, IL 60622",
    "City": "CHI",
    "State": "IL",
    "latitude": 41.9029465,
    "longitude": -87.677634,
    "Phone": "773-698-8940",
    "Website": "http://www.fatpourwickerpark.com/"
  },
  {
    "Teams": "ncaabpit;ncaafpit;ncaabpur;ncaafpur",
    "Name": "New Line Tavern",
    "Address": "201 N Clinton St, Chicago, IL 60661",
    "City": "CHI",
    "State": "IL",
    "latitude": 41.8859506,
    "longitude": -87.6411406,
    "Phone": "312-212-5463",
    "Website": "http://newlinetavern.com/"
  },
  {
    "Teams": "nbachi",
    "Name": "The CrossRoads Bar & Grill",
    "Address": "2012, 1120 W Madison St, Chicago, IL 60607",
    "City": "CHI",
    "State": "IL",
    "latitude": 41.8817495,
    "longitude": -87.6553002,
    "Phone": "312-243-1113",
    "Website": "http://thecrossroadschicago.com/"
  },
  {
    "Teams": "ncaabcolo;ncaafcolo",
    "Name": "The Chop Shop & 1st Ward",
    "Address": "2033 W North Ave, Chicago, IL 60647",
    "City": "CHI",
    "State": "IL",
    "latitude": 41.910152,
    "longitude": -87.6787659,
    "Phone": "773-537-4440",
    "Website": "http://chopshopchi.com/"
  },
  {
    "Teams": "nhlchi;mlbchc",
    "Name": "Paddy O'Fegan's Irish Pub & Restaurant",
    "Address": "204 N Halsted St, Chicago, IL 60661",
    "City": "CHI",
    "State": "IL",
    "latitude": 41.8858731,
    "longitude": -87.6476446,
    "Phone": "312-997-3100",
    "Website": "http://paddyofegans.com/"
  },
  {
    "Teams": "nflchi;ncaabmich;ncaafmich",
    "Name": "The Fifty/50",
    "Address": "2047 W Division St, Chicago, IL 60622",
    "City": "CHI",
    "State": "IL",
    "latitude": 41.902895,
    "longitude": -87.679063,
    "Phone": "773-489-5050",
    "Website": "http://www.thefifty50.com/"
  },
  {
    "Teams": "ncaabiowa;ncaafiowa",
    "Name": "Jack & Ginger's",
    "Address": "2048 W Armitage Ave, Chicago, IL 60647",
    "City": "CHI",
    "State": "IL",
    "latitude": 41.9178116,
    "longitude": -87.6794832,
    "Phone": "773-227-6700",
    "Website": "http://www.jackandgingers.com/"
  },
  {
    "Teams": "ncaabwis;ncaafwis",
    "Name": "Fulton Market Co.",
    "Address": "205 N Peoria St, Chicago, IL 60607",
    "City": "CHI",
    "State": "IL",
    "latitude": 41.885877,
    "longitude": -87.649605,
    "Phone": "312-626-5311",
    "Website": "http://fultonmarketcompany.com/"
  },
  {
    "Teams": "ncaabiowa;ncaafiowa",
    "Name": "Innjoy",
    "Address": "2051 W Division St, Chicago, IL 60622",
    "City": "CHI",
    "State": "IL",
    "latitude": 41.9029882,
    "longitude": -87.6792612,
    "Phone": "773-394-2066",
    "Website": "http://www.innjoychicago.com/home.html"
  },
  {
    "Teams": "nflchi",
    "Name": "O'Donovan's",
    "Address": "2100 W Irving Park Rd, Chicago, IL 60618",
    "City": "CHI",
    "State": "IL",
    "latitude": 41.9543187,
    "longitude": -87.6813537,
    "Phone": "773-478-2100",
    "Website": "http://www.odonovansbar.com/"
  },
  {
    "Teams": "mlschi;ncaabniu;ncaafniu",
    "Name": "Reggies Chicago",
    "Address": "2105 S State St, Chicago, IL 60616",
    "City": "CHI",
    "State": "IL",
    "latitude": 41.8539813,
    "longitude": -87.6267559,
    "Phone": "312-949-0120",
    "Website": "https://www.reggieslive.com/"
  },
  {
    "Teams": "ncaabpur;ncaafpur",
    "Name": "Headquarters Beercade",
    "Address": "213 W Institute Pl, Chicago, IL 60610",
    "City": "CHI",
    "State": "IL",
    "latitude": 41.8972639,
    "longitude": -87.6350483,
    "Phone": "312-291-8735",
    "Website": "http://www.hqrivernorth.com/"
  },
  {
    "Teams": "nbachi;ncaabmsu;ncaafmsu",
    "Name": "Municipal Bar + Dining Co.",
    "Address": "216 W Ohio St, Chicago, IL 60654",
    "City": "CHI",
    "State": "IL",
    "latitude": 41.8925103,
    "longitude": -87.6349461,
    "Phone": "312-951-2125",
    "Website": "http://www.municipalbar.com/"
  },
  {
    "Teams": "mlbchc",
    "Name": "Innjoy Logan Square",
    "Address": "2200 N Milwaukee Ave, Chicago, IL 60647",
    "City": "CHI",
    "State": "IL",
    "latitude": 41.9207351,
    "longitude": -87.6940711,
    "Phone": "773-697-4576",
    "Website": "http://www.innjoychicago.com/"
  },
  {
    "Teams": "mlbchw",
    "Name": "Tap Room",
    "Address": "2218 N Western Ave, Chicago, IL 60647",
    "City": "CHI",
    "State": "IL",
    "latitude": 41.9222331,
    "longitude": -87.6878635,
    "Phone": "773-489-3622",
    "Website": ""
  },
  {
    "Teams": "ncaabapp;ncaafapp;ncaabbc;ncaafbc;ncaabduke;ncaafduke;ncaabgt;ncaafgt;ncaabncst;ncaafncst;ncaabsyr;ncaafsyr;ncaabvt;ncaafvt;ncaabwake;ncaafwake",
    "Name": "Tobacco Road Tap Room",
    "Address": "2249 N Lincoln Ave, Chicago, IL 60614",
    "City": "CHI",
    "State": "IL",
    "latitude": 41.9230918,
    "longitude": -87.6450885,
    "Phone": "773-661-6416",
    "Website": "http://tobaccoroadchi.com/"
  },
  {
    "Teams": "ncaabmsu;ncaafmsu",
    "Name": "Lion Head Pub",
    "Address": "2251 N Lincoln Ave, Chicago, IL 60614",
    "City": "CHI",
    "State": "IL",
    "latitude": 41.9231262,
    "longitude": -87.6453047,
    "Phone": "773-348-5100",
    "Website": "http://www.lionheadpub.com/"
  },
  {
    "Teams": "ncaabtem;ncaaftem",
    "Name": "Exchequer Restaurant & Pub",
    "Address": "226 S Wabash Ave, Chicago, IL 60604",
    "City": "CHI",
    "State": "IL",
    "latitude": 41.8787477,
    "longitude": -87.6263064,
    "Phone": "312-939-5633",
    "Website": "http://www.exchequerpub.com/"
  },
  {
    "Teams": "ncaabbay;ncaafbay;ncaabmiss;ncaafmiss",
    "Name": "Lincoln Avenue Social",
    "Address": "2263 N Lincoln Ave, Chicago, IL 60614",
    "City": "CHI",
    "State": "IL",
    "latitude": 41.9233818,
    "longitude": -87.6454886,
    "Phone": "773-348-7200",
    "Website": "http://lincolnavenuesocial.com/"
  },
  {
    "Teams": "ncaabarmy;ncaafarmy;nflatl;mlbchw;ncaabnw;ncaafnw;ncaabttu;ncaafttu",
    "Name": "Kelsey's",
    "Address": "2265 N Lincoln Ave, Chicago, IL 60614",
    "City": "CHI",
    "State": "IL",
    "latitude": 41.9234313,
    "longitude": -87.6455714,
    "Phone": "773-348-1666",
    "Website": "http://kelseysbar.com/"
  },
  {
    "Teams": "mlbmil;nbamil",
    "Name": "Spanky's Bar & Grill",
    "Address": "2325 52nd St, Kenosha, WI 53140",
    "City": "CHI",
    "State": "WI",
    "latitude": 42.5877533,
    "longitude": -87.8379472,
    "Phone": "262-657-7883",
    "Website": "http://www.spankyskenosha.com/"
  },
  {
    "Teams": "mlbchw",
    "Name": "Rocky's Sports Restaurant",
    "Address": "234 W 31st St, Chicago, IL 60616",
    "City": "CHI",
    "State": "IL",
    "latitude": 41.83833,
    "longitude": -87.633079,
    "Phone": "312-842-9200",
    "Website": "http://rockyschicago.com/"
  },
  {
    "Teams": "ncaabmich;ncaafmich",
    "Name": "Celtic Crown Public House",
    "Address": "2356 W Cullom Ave, Chicago, IL 60618",
    "City": "CHI",
    "State": "IL",
    "latitude": 41.959646,
    "longitude": -87.688431,
    "Phone": "773-588-1110",
    "Website": "http://celticcrownpub.com/"
  },
  {
    "Teams": "nhlchi",
    "Name": "Connie's Pizza",
    "Address": "2373 S Archer Ave, Chicago, IL 60616",
    "City": "CHI",
    "State": "IL",
    "latitude": 41.8491836,
    "longitude": -87.6408601,
    "Phone": "312-326-3443",
    "Website": "http://www.conniespizza.com/"
  },
  {
    "Teams": "mlschi",
    "Name": "The Radler",
    "Address": "2375 N Milwaukee Ave, Chicago, IL 60647",
    "City": "CHI",
    "State": "IL",
    "latitude": 41.9244245,
    "longitude": -87.6996207,
    "Phone": "",
    "Website": ""
  },
  {
    "Teams": "mlbchw",
    "Name": "Turtle's Bar & Grill",
    "Address": "238 W 33rd St, Chicago, IL 60616",
    "City": "CHI",
    "State": "IL",
    "latitude": 41.834702,
    "longitude": -87.633047,
    "Phone": "312-225-7333",
    "Website": "https://www.facebook.com/Turtles-Bar-Grill-145578408799521/"
  },
  {
    "Teams": "nflbuf;ncaabbuff;ncaafbuff;nflchi;ncaabuva;ncaafuva",
    "Name": "Lincoln Station",
    "Address": "2432 N Lincoln Ave, Chicago, IL 60614",
    "City": "CHI",
    "State": "IL",
    "latitude": 41.9261163,
    "longitude": -87.6500029,
    "Phone": "773-472-8100",
    "Website": "http://lincolnstation.com/"
  },
  {
    "Teams": "ncaabminn;ncaafminn;ncaabtlsa;ncaaftlsa",
    "Name": "The Other Side Bar",
    "Address": "2434 N Clark St, Chicago, IL 60614",
    "City": "CHI",
    "State": "IL",
    "latitude": 41.9264811,
    "longitude": -87.6411974,
    "Phone": "773-525-2695",
    "Website": "http://www.theothersidebar.com/"
  },
  {
    "Teams": "mlschi",
    "Name": "The Galway Arms",
    "Address": "2442 N Clark St, Chicago, IL 60614",
    "City": "CHI",
    "State": "IL",
    "latitude": 41.926595,
    "longitude": -87.641438,
    "Phone": "773-472-5555",
    "Website": "http://www.galwayarms.com/"
  },
  {
    "Teams": "ncaabbut;ncaabosu;ncaafosu",
    "Name": "Gaslight Bar & Grille",
    "Address": "2450 N Clark St, Chicago, IL 60614",
    "City": "CHI",
    "State": "IL",
    "latitude": 41.9268377,
    "longitude": -87.6414236,
    "Phone": "773-929-7759",
    "Website": "http://gaslightbar.com/"
  },
  {
    "Teams": "nfldet",
    "Name": "Tin Lizzie-Chicago",
    "Address": "2483 N Clark St, Chicago, IL 60614",
    "City": "CHI",
    "State": "IL",
    "latitude": 41.927738,
    "longitude": -87.641573,
    "Phone": "773-549-1132",
    "Website": "http://www.thetinlizzie.com/"
  },
  {
    "Teams": "nbachi",
    "Name": "Rookies Sports Bar & Grill (Elgin)",
    "Address": "2486 Bushwood Dr, Elgin, IL 60124",
    "City": "CHI",
    "State": "IL",
    "latitude": 42.092482,
    "longitude": -88.337674,
    "Phone": "847-551-9006",
    "Website": "http://www.rookiespub.com/"
  },
  {
    "Teams": "ncaabokst;ncaafokst",
    "Name": "Birds Nest",
    "Address": "2500 N Southport Ave, Chicago, IL 60614",
    "City": "CHI",
    "State": "IL",
    "latitude": 41.9271361,
    "longitude": -87.6635019,
    "Phone": "773-472-1502",
    "Website": "http://www.birdsnestbar.com/"
  },
  {
    "Teams": "ncaabwis;ncaafwis",
    "Name": "Countryside Saloon",
    "Address": "2501 E Ballard Rd, Des Plaines, IL 60016",
    "City": "CHI",
    "State": "IL",
    "latitude": 42.0429355,
    "longitude": -87.8624766,
    "Phone": "847-827-5577",
    "Website": "http://www.countrysidesaloon.com/"
  },
  {
    "Teams": "ncaabku;ncaafku;ncaabnd;ncaafnd",
    "Name": "Broken Barrel Bar",
    "Address": "2548 N Southport Ave, Chicago, IL 60614",
    "City": "CHI",
    "State": "IL",
    "latitude": 41.9284495,
    "longitude": -87.6636037,
    "Phone": "773-327-4900",
    "Website": "https://www.brokenbarrelbar.com/"
  },
  {
    "Teams": "mlbchw",
    "Name": "Bob Inn",
    "Address": "2609 W Fullerton Ave, Chicago, IL 60647",
    "City": "CHI",
    "State": "IL",
    "latitude": 41.9246869,
    "longitude": -87.6929856,
    "Phone": "773-342-2309",
    "Website": ""
  },
  {
    "Teams": "mlschi",
    "Name": "The Atlantic Bar & Grill",
    "Address": "2622, 5062, N Lincoln Ave, Chicago, IL 60625",
    "City": "CHI",
    "State": "IL",
    "latitude": 41.9733555,
    "longitude": -87.6920289,
    "Phone": "773-506-7090",
    "Website": "http://www.theatlanticbar.com/"
  },
  {
    "Teams": "mlbnym;ncaabucla;ncaafucla",
    "Name": "Racine Plumbing Bar & Grill",
    "Address": "2642 N Lincoln Ave, Chicago, IL 60614",
    "City": "CHI",
    "State": "IL",
    "latitude": 41.9299258,
    "longitude": -87.655217,
    "Phone": "773-857-2261",
    "Website": ""
  },
  {
    "Teams": "mlbchc",
    "Name": "The Town Bar & Grill",
    "Address": "2681 E New York St, Aurora, IL 60502",
    "City": "CHI",
    "State": "IL",
    "latitude": 41.7579977,
    "longitude": -88.251047,
    "Phone": "630-499-9975",
    "Website": "http://www.thetownbar.com/"
  },
  {
    "Teams": "nhlchi;nfljax",
    "Name": "Hidden Shamrock",
    "Address": "2723 N Halsted St, Chicago, IL 60614",
    "City": "CHI",
    "State": "IL",
    "latitude": 41.9322788,
    "longitude": -87.6488673,
    "Phone": "773-883-0304",
    "Website": ""
  },
  {
    "Teams": "ncaabnd;ncaafnd",
    "Name": "Jameson's Pub",
    "Address": "2755 Black Rd, Joliet, IL 60435",
    "City": "CHI",
    "State": "IL",
    "latitude": 41.5374552,
    "longitude": -88.1488293,
    "Phone": "815-729-0000",
    "Website": "http://www.thejamesonspub.com/joliet/"
  },
  {
    "Teams": "nflind",
    "Name": "Four Shadows",
    "Address": "2758 N Ashland Ave, Chicago, IL 60614",
    "City": "CHI",
    "State": "IL",
    "latitude": 41.9323068,
    "longitude": -87.6686146,
    "Phone": "773-248-9160",
    "Website": "http://fourshadows.net/"
  },
  {
    "Teams": "nflbuf",
    "Name": "Delilah's Chicago",
    "Address": "2771 N Lincoln Ave, Chicago, IL 60614",
    "City": "CHI",
    "State": "IL",
    "latitude": 41.93224,
    "longitude": -87.658136,
    "Phone": "773-472-2771",
    "Website": "http://www.delilahschicago.com/"
  },
  {
    "Teams": "nflbal;ncaabuconn;ncaafuconn",
    "Name": "George Street Pub",
    "Address": "2858 N Halsted St, Chicago, IL 60657",
    "City": "CHI",
    "State": "IL",
    "latitude": 41.9344096,
    "longitude": -87.6493056,
    "Phone": "773-661-6635",
    "Website": "http://www.gspchicago.com/"
  },
  {
    "Teams": "ncaablou;ncaaflou",
    "Name": "Barcocina",
    "Address": "2901 N Sheffield Ave, Chicago, IL 60657",
    "City": "CHI",
    "State": "IL",
    "latitude": 41.9346951,
    "longitude": -87.653587,
    "Phone": "773-687-9949",
    "Website": "http://barcocinachicago.com/"
  },
  {
    "Teams": "ncaablou;ncaaflou;ncaabmsu;ncaafmsu;nflphi;ncaabsc;ncaafsc",
    "Name": "The River Kitchen and Bar",
    "Address": "2909 N Sheffield Ave, Chicago, IL 60657",
    "City": "CHI",
    "State": "IL",
    "latitude": 41.9348446,
    "longitude": -87.653706,
    "Phone": "773-935-7500",
    "Website": "https://www.theriverchicago.com/"
  },
  {
    "Teams": "nfldet;ncaabmsu;ncaafmsu",
    "Name": "Avenue Tavern Chicago",
    "Address": "2916 N Broadway, Chicago, IL 60657",
    "City": "CHI",
    "State": "IL",
    "latitude": 41.9354633,
    "longitude": -87.6444531,
    "Phone": "773-975-7000",
    "Website": "http://www.avenuetavern.com/"
  },
  {
    "Teams": "mlbcle",
    "Name": "Vaughan's Pub",
    "Address": "2917 N Sheffield Ave, Chicago, IL 60657",
    "City": "CHI",
    "State": "IL",
    "latitude": 41.934987,
    "longitude": -87.653787,
    "Phone": "773-281-8188",
    "Website": "http://www.vaughanspublakeview.com/"
  },
  {
    "Teams": "ncaabmu;ncaabneb;ncaafneb",
    "Name": "Kirkwood Bar & Grill",
    "Address": "2934 N Sheffield Ave, Chicago, IL 60657",
    "City": "CHI",
    "State": "IL",
    "latitude": 41.9354632,
    "longitude": -87.654276,
    "Phone": "773-770-0700",
    "Website": "http://kirkwoodbar.com/"
  },
  {
    "Teams": "nflchi;ncaabiowa;ncaafiowa",
    "Name": "Leader Bar",
    "Address": "3000 W Irving Park Rd, Chicago, IL 60618",
    "City": "CHI",
    "State": "IL",
    "latitude": 41.9541264,
    "longitude": -87.703299,
    "Phone": "773-478-2337",
    "Website": "http://leaderbar.com/"
  },
  {
    "Teams": "nflgb;ncaabwis;ncaafwis",
    "Name": "Will's Northwoods Inn",
    "Address": "3030 N Racine Ave, Chicago, IL 60657",
    "City": "CHI",
    "State": "IL",
    "latitude": 41.93725,
    "longitude": -87.659029,
    "Phone": "773-528-4400",
    "Website": "http://www.willsnorthwoodsinn.com/"
  },
  {
    "Teams": "ncaabmsu;ncaafmsu",
    "Name": "Merchant",
    "Address": "3137 W Logan Blvd, Chicago, IL 60647",
    "City": "CHI",
    "State": "IL",
    "latitude": 41.9278157,
    "longitude": -87.7064156,
    "Phone": "773-687-8822",
    "Website": "https://www.merchantchicago.com/"
  },
  {
    "Teams": "nbachi;mlbchc",
    "Name": "Anthonys Restaurant and Pub",
    "Address": "3151 Voyager Ln, Joliet, IL 60431",
    "City": "CHI",
    "State": "IL",
    "latitude": 41.576137,
    "longitude": -88.1615636,
    "Phone": "815-254-2315",
    "Website": "http://anthonysjoliet.com/"
  },
  {
    "Teams": "mlschi",
    "Name": "Schubas Tavern",
    "Address": "3159 N Southport Ave, Chicago, IL 60657",
    "City": "CHI",
    "State": "IL",
    "latitude": 41.9396826,
    "longitude": -87.6636483,
    "Phone": "773-525-2508",
    "Website": "http://www.lh-st.com/"
  },
  {
    "Teams": "mlbchw",
    "Name": "ChiSox Bar & Grill",
    "Address": "320 W 35th St, Chicago, IL 60616",
    "City": "CHI",
    "State": "IL",
    "latitude": 41.8311116,
    "longitude": -87.6338928,
    "Phone": "312-674-5860",
    "Website": "http://chicago.whitesox.mlb.com/cws/chisoxbarandgrill/index.jsp"
  },
  {
    "Teams": "ncaabniu;ncaafniu",
    "Name": "Topgolf",
    "Address": "3211 Odyssey Ct, Naperville, IL 60563",
    "City": "CHI",
    "State": "IL",
    "latitude": 41.8080286,
    "longitude": -88.2091087,
    "Phone": "630-596-1000",
    "Website": "https://topgolf.com/us/naperville/"
  },
  {
    "Teams": "mlschi",
    "Name": "GO Tavern & liquors",
    "Address": "3219 W Armitage Ave, Chicago, IL 60647",
    "City": "CHI",
    "State": "IL",
    "latitude": 41.9172143,
    "longitude": -87.7078896,
    "Phone": "773-227-4052",
    "Website": "http://www.gotavern.com/"
  },
  {
    "Teams": "ncaabisu;ncaafisu",
    "Name": "Jefferson Tap & Grille",
    "Address": "325 N Jefferson St, Chicago, IL 60661",
    "City": "CHI",
    "State": "IL",
    "latitude": 41.8875568,
    "longitude": -87.6426386,
    "Phone": "312-648-0100",
    "Website": "http://www.jeffersontap.com/"
  },
  {
    "Teams": "ncaabshu;ncaabusf;ncaafusf",
    "Name": "Sheffield's Wine & Beer Garden",
    "Address": "3258 N Sheffield Ave, Chicago, IL 60657",
    "City": "CHI",
    "State": "IL",
    "latitude": 41.9415866,
    "longitude": -87.6545107,
    "Phone": "773-281-4989",
    "Website": "http://www.sheffieldschicago.com/"
  },
  {
    "Teams": "ncaabill;ncaafill;ncaabmu;ncaabshu",
    "Name": "Schoolyard Tavern & Grill",
    "Address": "3258 N Southport Ave, Chicago, IL 60657",
    "City": "CHI",
    "State": "IL",
    "latitude": 41.941466,
    "longitude": -87.664112,
    "Phone": "773-528-8226",
    "Website": "http://schoolyardtavern.com/"
  },
  {
    "Teams": "mlbchw",
    "Name": "Cork & Kerry at The Park",
    "Address": "3259 S Princeton Ave, Chicago, IL 60616",
    "City": "CHI",
    "State": "IL",
    "latitude": 41.8346507,
    "longitude": -87.63417,
    "Phone": "312-842-0769",
    "Website": "http://www.corkandkerry.com/"
  },
  {
    "Teams": "mlschi",
    "Name": "El Jardin - Tacos - Mexican Food - Bar",
    "Address": "3335 N Clark St, Chicago, IL 60657",
    "City": "CHI",
    "State": "IL",
    "latitude": 41.9427728,
    "longitude": -87.6527019,
    "Phone": "773-528-6775",
    "Website": ""
  },
  {
    "Teams": "nbachi",
    "Name": "Madd Anthony's Bar & Grill",
    "Address": "3350 W 47th St, Chicago, IL 60632",
    "City": "CHI",
    "State": "IL",
    "latitude": 41.8083307,
    "longitude": -87.7081228,
    "Phone": "773-523-2205",
    "Website": "http://maddanthonysbar.com/"
  },
  {
    "Teams": "ncaablsu;ncaaflsu",
    "Name": "D.S. Tequila Company",
    "Address": "3352 N Halsted St, Chicago, IL 60657",
    "City": "CHI",
    "State": "IL",
    "latitude": 41.9433284,
    "longitude": -87.6495863,
    "Phone": "773-697-9127",
    "Website": "http://www.dstequila.com/"
  },
  {
    "Teams": "mlbchw",
    "Name": "Mitchell's Tap",
    "Address": "3356 S Halsted St, Chicago, IL 60608",
    "City": "CHI",
    "State": "IL",
    "latitude": 41.833156,
    "longitude": -87.6462914,
    "Phone": "773-927-6073",
    "Website": "http://www.mitchellstap.net/"
  },
  {
    "Teams": "ncaabcal;ncaafcal;nflmin;ncaabstan;ncaafstan",
    "Name": "Redmond's Ale House",
    "Address": "3358 N Sheffield Ave, Chicago, IL 60657",
    "City": "CHI",
    "State": "IL",
    "latitude": 41.9434481,
    "longitude": -87.6543361,
    "Phone": "773-404-2151",
    "Website": "http://redmondsalehouse.com/"
  },
  {
    "Teams": "ncaabbama;ncaafbama",
    "Name": "Houndstooth Saloon",
    "Address": "3369 N Clark St, Chicago, IL 60657",
    "City": "CHI",
    "State": "IL",
    "latitude": 41.943381,
    "longitude": -87.653246,
    "Phone": "773-244-1166",
    "Website": "http://houndstoothsaloon.com/"
  },
  {
    "Teams": "nbachi",
    "Name": "Brick City Tavern",
    "Address": "34 S Main St, Mt Prospect, IL 60056",
    "City": "CHI",
    "State": "IL",
    "latitude": 42.0647384,
    "longitude": -87.9369743,
    "Phone": "847-873-1230",
    "Website": "http://brickcitytavern.com/"
  },
  {
    "Teams": "ncaabiowa;ncaafiowa;nflphi",
    "Name": "The Reveler",
    "Address": "3403 N Damen Ave, Chicago, IL 60618",
    "City": "CHI",
    "State": "IL",
    "latitude": 41.9434567,
    "longitude": -87.6782903,
    "Phone": "773-248-9523",
    "Website": "http://www.revelerchicago.com/"
  },
  {
    "Teams": "ncaabaub;ncaafaub;ncaabcsu;ncaafcsu;ncaabpur;ncaafpur",
    "Name": "Waterhouse Tavern and Grill",
    "Address": "3407 N Paulina St, Chicago, IL 60657",
    "City": "CHI",
    "State": "IL",
    "latitude": 41.9435729,
    "longitude": -87.6710742,
    "Phone": "773-871-1200",
    "Website": "http://www.waterhousechicago.com/"
  },
  {
    "Teams": "nflchi;ncaabutah;ncaafutah;ncaabwsu;ncaafwsu",
    "Name": "Nisei Lounge Ltd",
    "Address": "3439 N Sheffield Ave, Chicago, IL 60657",
    "City": "CHI",
    "State": "IL",
    "latitude": 41.9447406,
    "longitude": -87.6540522,
    "Phone": "773-525-0557",
    "Website": "http://www.niseiloungechicago.com/"
  },
  {
    "Teams": "ncaabgonz;ncaabstan;ncaafstan;ncaabuw;ncaafuw",
    "Name": "The Graystone Tavern",
    "Address": "3441 N Sheffield Ave, Chicago, IL 60657",
    "City": "CHI",
    "State": "IL",
    "latitude": 41.9447779,
    "longitude": -87.6539943,
    "Phone": "773-666-5450",
    "Website": "http://www.graystonetavernchicago.com/"
  },
  {
    "Teams": "ncaabfau;ncaaffau;ncaabumd;ncaafumd;nflpit;ncaabusf;ncaafusf",
    "Name": "Dark Horse Tap & Grille",
    "Address": "3443 N Sheffield Ave, Chicago, IL 60657",
    "City": "CHI",
    "State": "IL",
    "latitude": 41.944852,
    "longitude": -87.653966,
    "Phone": "773-248-4400",
    "Website": "http://www.darkhorsechicago.com/"
  },
  {
    "Teams": "nhlchi;mlbchc;ncaablou;ncaaflou;ncaabmiss;ncaafmiss",
    "Name": "Finley Dunne's Tavern",
    "Address": "3458 N Lincoln Ave, Chicago, IL 60657",
    "City": "CHI",
    "State": "IL",
    "latitude": 41.9448134,
    "longitude": -87.6723922,
    "Phone": "773-477-7311",
    "Website": "http://www.finleydunnes.com/"
  },
  {
    "Teams": "ncaabfsu;ncaaffsu",
    "Name": "The Country Club",
    "Address": "3462 N Clark St, Chicago, IL 60657",
    "City": "CHI",
    "State": "IL",
    "latitude": 41.9450936,
    "longitude": -87.6549778,
    "Phone": "773-975-2010",
    "Website": "http://thecountryclubchicago.com/"
  },
  {
    "Teams": "nflpit",
    "Name": "Lucky's Sandwich Co.",
    "Address": "3472 N Clark St, Chicago, IL 60657",
    "City": "CHI",
    "State": "IL",
    "latitude": 41.9453237,
    "longitude": -87.6551876,
    "Phone": "773-549-0665",
    "Website": ""
  },
  {
    "Teams": "ncaabwmu;ncaafwmu",
    "Name": "The Sandlot Wrigley",
    "Address": "3477 N Clark St, Chicago, IL 60657",
    "City": "CHI",
    "State": "IL",
    "latitude": 41.945518,
    "longitude": -87.6548889,
    "Phone": "773-857-0825",
    "Website": ""
  },
  {
    "Teams": "mlbchc;ncaabmsu;ncaafmsu",
    "Name": "Stretch Bar & Grill",
    "Address": "3485 N Clark St, Chicago, IL 60657",
    "City": "CHI",
    "State": "IL",
    "latitude": 41.9457774,
    "longitude": -87.6551236,
    "Phone": "773-755-3980",
    "Website": "http://www.thestretchchicago.com/"
  },
  {
    "Teams": "ncaabpur;ncaafpur;ncaabwis;ncaafwis",
    "Name": "Deuces and The Diamond Club",
    "Address": "3505 N Clark St, Chicago, IL 60657",
    "City": "CHI",
    "State": "IL",
    "latitude": 41.945873,
    "longitude": -87.6551795,
    "Phone": "773-644-5554",
    "Website": "http://www.deucesandthediamondclub.com/"
  },
  {
    "Teams": "ncaabosu;ncaafosu",
    "Name": "Old Crow Smokehouse",
    "Address": "3506 N Clark St, Chicago, IL 60657",
    "City": "CHI",
    "State": "IL",
    "latitude": 41.945785,
    "longitude": -87.655655,
    "Phone": "773-537-4452",
    "Website": "http://www.oldcrowsmokehouse.com/wrigleyville"
  },
  {
    "Teams": "ncaabpur;ncaafpur",
    "Name": "Park & Field",
    "Address": "3509 W Fullerton Ave, Chicago, IL 60647",
    "City": "CHI",
    "State": "IL",
    "latitude": 41.9242503,
    "longitude": -87.7143088,
    "Phone": "765-426-6657",
    "Website": "http://www.parkandfieldchicago.com/"
  },
  {
    "Teams": "ncaabcolo;ncaafcolo;nflden",
    "Name": "The Irish Oak",
    "Address": "3511 N Clark St, Chicago, IL 60657",
    "City": "CHI",
    "State": "IL",
    "latitude": 41.946047,
    "longitude": -87.6552063,
    "Phone": "773-935-6669",
    "Website": "http://www.irishoak.com/"
  },
  {
    "Teams": "nflcin;ncaabiowa;ncaafiowa;ncaabxu",
    "Name": "Merkle's Bar & Grill",
    "Address": "3516 N Clark St, Chicago, IL 60657",
    "City": "CHI",
    "State": "IL",
    "latitude": 41.9459729,
    "longitude": -87.6558957,
    "Phone": "773-244-1025",
    "Website": "http://merkleschicago.com/"
  },
  {
    "Teams": "nflcle;nbacle;mlbcle",
    "Name": "John Barleycorn",
    "Address": "3524 N Clark St, Chicago, IL 60657",
    "City": "CHI",
    "State": "IL",
    "latitude": 41.9461923,
    "longitude": -87.6560195,
    "Phone": "773-549-6000",
    "Website": "https://www.johnbarleycorn.com/"
  },
  {
    "Teams": "ncaabbay;ncaafbay;ncaabmiss;ncaafmiss;ncaabtenn;ncaaftenn",
    "Name": "HVAC Pub",
    "Address": "3530 N Clark St, Chicago, IL 60657",
    "City": "CHI",
    "State": "IL",
    "latitude": 41.9462472,
    "longitude": -87.6561439,
    "Phone": "773-789-8864",
    "Website": "http://hvacpubwrigley.com/"
  },
  {
    "Teams": "mlbchc;nflind",
    "Name": "Sluggers World Class Sports Bar",
    "Address": "3540 N Clark St, Chicago, IL 60657",
    "City": "CHI",
    "State": "IL",
    "latitude": 41.9465956,
    "longitude": -87.6562208,
    "Phone": "773-248-0055",
    "Website": "http://www.sluggersbar.com/"
  },
  {
    "Teams": "ncaabosu;ncaafosu",
    "Name": "The Butcher's Tap",
    "Address": "3553 N Southport Ave, Chicago, IL 60657",
    "City": "CHI",
    "State": "IL",
    "latitude": 41.9468133,
    "longitude": -87.6638203,
    "Phone": "773-325-0123",
    "Website": "http://thebutcherstap.com/"
  },
  {
    "Teams": "mlbchc;ncaabniu;ncaafniu",
    "Name": "The Taproom",
    "Address": "36 N Genesee St, Waukegan, IL 60085",
    "City": "CHI",
    "State": "IL",
    "latitude": 42.360681,
    "longitude": -87.831665,
    "Phone": "847-662-2337",
    "Website": ""
  },
  {
    "Teams": "mlschi",
    "Name": "Heineken Pub97",
    "Address": "3626 N Talman Ave, Chicago, IL 60618",
    "City": "CHI",
    "State": "IL",
    "latitude": 41.9476302,
    "longitude": -87.6956154,
    "Phone": "773-944-1203",
    "Website": "http://heinekenpub97.com/"
  },
  {
    "Teams": "ncaabwmu;ncaafwmu",
    "Name": "Gallagher Way",
    "Address": "3635 N Clark St, Chicago, IL 60613",
    "City": "CHI",
    "State": "IL",
    "latitude": 41.9484634,
    "longitude": -87.6570026,
    "Phone": "773-388-8260",
    "Website": "http://www.gallagherway.com/"
  },
  {
    "Teams": "ncaabpsu;ncaafpsu",
    "Name": "Smoke Daddy BBQ - Wrigleyville",
    "Address": "3636 N Clark St, Chicago, IL 60613",
    "City": "CHI",
    "State": "IL",
    "latitude": 41.9480743,
    "longitude": -87.6573346,
    "Phone": "773-227-2583",
    "Website": "https://www.thesmokedaddy.com/"
  },
  {
    "Teams": "mlbchc;ncaabill;ncaafill;ncaabku;ncaafku;ncaabnd;ncaafnd",
    "Name": "Budweiser Brickhouse Tavern",
    "Address": "3647 N Clark St, Chicago, IL 60613",
    "City": "CHI",
    "State": "IL",
    "latitude": 41.948653,
    "longitude": -87.657316,
    "Phone": "773-377-4770",
    "Website": "http://www.brickhousetavernchi.com/"
  },
  {
    "Teams": "mlbchc;ncaabisu;ncaafisu;ncaabksu;ncaafksu",
    "Name": "Murphy's Bleachers",
    "Address": "3655 N Sheffield Ave, Chicago, IL 60613",
    "City": "CHI",
    "State": "IL",
    "latitude": 41.9489251,
    "longitude": -87.6538901,
    "Phone": "773-281-5356",
    "Website": "http://www.murphysbleachers.com/"
  },
  {
    "Teams": "nbachi;ncaabsyr;ncaafsyr;ncaabusc;ncaafusc",
    "Name": "Rizzo's Bar & Inn",
    "Address": "3658 N Clark St, Chicago, IL 60613",
    "City": "CHI",
    "State": "IL",
    "latitude": 41.9486472,
    "longitude": -87.657938,
    "Phone": "773-799-8161",
    "Website": "http://rizzosbarandinn.com/"
  },
  {
    "Teams": "mlbchc",
    "Name": "Casey Morans",
    "Address": "3660 N Clark St, Chicago, IL 60613",
    "City": "CHI",
    "State": "IL",
    "latitude": 41.9487688,
    "longitude": -87.6578829,
    "Phone": "773-755-4444",
    "Website": "http://www.caseymorans.com/"
  },
  {
    "Teams": "ncaabball;ncaafball",
    "Name": "Yak-Zies Wrigleyville",
    "Address": "3710 N Clark St, Chicago, IL 60613",
    "City": "CHI",
    "State": "IL",
    "latitude": 41.949323,
    "longitude": -87.658373,
    "Phone": "773-525-9200",
    "Website": "http://www.yakzies.com/"
  },
  {
    "Teams": "ncaabmich;ncaafmich;ncaabtenn;ncaaftenn",
    "Name": "Trace",
    "Address": "3714 N Clark St, Chicago, IL 60613",
    "City": "CHI",
    "State": "IL",
    "latitude": 41.9494163,
    "longitude": -87.6585356,
    "Phone": "773-477-3400",
    "Website": "http://tracechicago.com/"
  },
  {
    "Teams": "ncaabcle;ncaafcle;nfllac",
    "Name": "Full Shilling Public House",
    "Address": "3724 N Clark St, Chicago, IL 60613",
    "City": "CHI",
    "State": "IL",
    "latitude": 41.9497294,
    "longitude": -87.6586988,
    "Phone": "773-248-3330",
    "Website": "http://www.fullshillingpub.com/"
  },
  {
    "Teams": "mlbchw",
    "Name": "Shinnicks Pub",
    "Address": "3758 S Union Ave, Chicago, IL 60609",
    "City": "CHI",
    "State": "IL",
    "latitude": 41.825443,
    "longitude": -87.643835,
    "Phone": "773-376-3525",
    "Website": "http://www.shinnicks.com/"
  },
  {
    "Teams": "mlschi;ncaabpsu;ncaafpsu",
    "Name": "A. J. Hudson's Public House",
    "Address": "3801 N Ashland Ave, Chicago, IL 60613",
    "City": "CHI",
    "State": "IL",
    "latitude": 41.950769,
    "longitude": -87.668667,
    "Phone": "773-348-2767",
    "Website": "http://www.ajhudsons.com/"
  },
  {
    "Teams": "ncaabnd;ncaafnd",
    "Name": "Aurelio's Pizza",
    "Address": "3801 N Clark St, Chicago, IL 60613",
    "City": "CHI",
    "State": "IL",
    "latitude": 41.9513067,
    "longitude": -87.6595659,
    "Phone": "773-868-9611",
    "Website": ""
  },
  {
    "Teams": "nflkc",
    "Name": "Toons Bar & Grill",
    "Address": "3857 N Southport Ave, Chicago, IL 60613",
    "City": "CHI",
    "State": "IL",
    "latitude": 41.9523983,
    "longitude": -87.6639644,
    "Phone": "773-935-1919",
    "Website": "https://www.chicagotoons.com/"
  },
  {
    "Teams": "ncaabokst;ncaafokst;nflsea;ncaabucla;ncaafucla",
    "Name": "Brownstone",
    "Address": "3937 N Lincoln Ave, Chicago, IL 60613",
    "City": "CHI",
    "State": "IL",
    "latitude": 41.9533617,
    "longitude": -87.6779196,
    "Phone": "773-528-3700",
    "Website": "http://www.brownstonetavern.com/"
  },
  {
    "Teams": "nflchi;ncaabhou;ncaafhou",
    "Name": "Public House",
    "Address": "400 N State St, Chicago, IL 60654",
    "City": "CHI",
    "State": "IL",
    "latitude": 41.8893717,
    "longitude": -87.6282416,
    "Phone": "312-265-1240",
    "Website": "http://www.publichousechicago.com/"
  },
  {
    "Teams": "nbachi",
    "Name": "PERSONA",
    "Address": "408 S Wells St, Chicago, IL 60607",
    "City": "CHI",
    "State": "IL",
    "latitude": 41.8765629,
    "longitude": -87.6338387,
    "Phone": "312-285-2271",
    "Website": "https://www.personachi.com/"
  },
  {
    "Teams": "nflbal",
    "Name": "Michael's Original Pizzeria & Tavern",
    "Address": "4091 N Broadway St, Chicago, IL 60613",
    "City": "CHI",
    "State": "IL",
    "latitude": 41.956824,
    "longitude": -87.651752,
    "Phone": "773-929-4149",
    "Website": "http://www.michaelspizzachicago.com/"
  },
  {
    "Teams": "nhlchi;nbachi",
    "Name": "O'Neil's on Wells",
    "Address": "411 S Wells St, Chicago, IL 60607",
    "City": "CHI",
    "State": "IL",
    "latitude": 41.8764071,
    "longitude": -87.6335186,
    "Phone": "312-922-1778",
    "Website": "http://oneilsonwells.com/"
  },
  {
    "Teams": "ncaabiowa;ncaafiowa;ncaabstan;ncaafstan",
    "Name": "The Rambler Kitchen & Tap",
    "Address": "4128 N Lincoln Ave, Chicago, IL 60618",
    "City": "CHI",
    "State": "IL",
    "latitude": 41.9567257,
    "longitude": -87.6808462,
    "Phone": "773-799-8881",
    "Website": "http://www.theramblerchicago.com/"
  },
  {
    "Teams": "ncaabill;ncaafill",
    "Name": "Reverie",
    "Address": "414 N Orleans St, Chicago, IL 60654",
    "City": "CHI",
    "State": "IL",
    "latitude": 41.8896317,
    "longitude": -87.6372728,
    "Phone": "312-467-4141",
    "Website": "http://reveriechicago.com/"
  },
  {
    "Teams": "nflchi",
    "Name": "Wild Goose Bar & Grill",
    "Address": "4265 N Lincoln Ave, Chicago, IL 60618",
    "City": "CHI",
    "State": "IL",
    "latitude": 41.9594554,
    "longitude": -87.6823204,
    "Phone": "773-281-7112",
    "Website": "http://www.wildgoosebar.com/"
  },
  {
    "Teams": "mlbchc",
    "Name": "Tailgaters Sports Bar & Grill",
    "Address": "431 W Boughton Rd, Bolingbrook, IL 60440",
    "City": "CHI",
    "State": "IL",
    "latitude": 41.706536,
    "longitude": -88.0854588,
    "Phone": "630-679-1994",
    "Website": "http://tailgatersgrill.com/"
  },
  {
    "Teams": "ncaabneb;ncaafneb;ncaabsc;ncaafsc;ncaabwis;ncaafwis",
    "Name": "Compass Bar",
    "Address": "433 W Diversey Pkwy, Chicago, IL 60614",
    "City": "CHI",
    "State": "IL",
    "latitude": 41.9325552,
    "longitude": -87.6407565,
    "Phone": "773-248-3230",
    "Website": "http://www.compassbarchicago.com/"
  },
  {
    "Teams": "nflchi",
    "Name": "Monty Gaels Tavern & Grill",
    "Address": "4356 N Leavitt St, Chicago, IL 60618",
    "City": "CHI",
    "State": "IL",
    "latitude": 41.9612539,
    "longitude": -87.6839945,
    "Phone": "773-279-4900",
    "Website": "http://www.montygaels.com/"
  },
  {
    "Teams": "ncaabwvu;ncaafwvu",
    "Name": "The Aberdeen Tap",
    "Address": "440 N Aberdeen St, Chicago, IL 60642",
    "City": "CHI",
    "State": "IL",
    "latitude": 41.8901423,
    "longitude": -87.6547322,
    "Phone": "312-929-3845",
    "Website": "http://www.theaberdeentap.com/"
  },
  {
    "Teams": "nflgb",
    "Name": "My Buddy's",
    "Address": "4416 N Clark St, Chicago, IL 60640",
    "City": "CHI",
    "State": "IL",
    "latitude": 41.9622078,
    "longitude": -87.6663512,
    "Phone": "773-728-3397",
    "Website": "https://www.mybuddyschicago.com/"
  },
  {
    "Teams": "nflpit",
    "Name": "Paulie's Pub and Grille",
    "Address": "444 N Eola Rd, Aurora, IL 60502",
    "City": "CHI",
    "State": "IL",
    "latitude": 41.7611733,
    "longitude": -88.2443443,
    "Phone": "630-499-8956",
    "Website": "http://www.pauliespubandgrille.com/"
  },
  {
    "Teams": "nflhou",
    "Name": "Daily Bar & Grill",
    "Address": "4560 N Lincoln Ave, Chicago, IL 60625",
    "City": "CHI",
    "State": "IL",
    "latitude": 41.9647959,
    "longitude": -87.6862099,
    "Phone": "773-561-6198",
    "Website": "http://dailybar.com/"
  },
  {
    "Teams": "nflphi",
    "Name": "Monti's",
    "Address": "4757 N Talman Ave, Chicago, IL 60625",
    "City": "CHI",
    "State": "IL",
    "latitude": 41.9682917,
    "longitude": -87.6948919,
    "Phone": "773-942-6012",
    "Website": "http://www.ilovemontis.com/"
  },
  {
    "Teams": "mlbbos;nfldal",
    "Name": "Mother Hubbard's Sports Pub",
    "Address": "5 W Hubbard St, Chicago, IL 60654",
    "City": "CHI",
    "State": "IL",
    "latitude": 41.8898988,
    "longitude": -87.6283764,
    "Phone": "312-828-0007",
    "Website": "http://www.motherhubbardschicago.com/"
  },
  {
    "Teams": "ncaabmich;ncaafmich",
    "Name": "Warrens Ale House",
    "Address": "51 Town Square, Wheaton, IL 60189",
    "City": "CHI",
    "State": "IL",
    "latitude": 41.8351944,
    "longitude": -88.1010966,
    "Phone": "630-462-5126",
    "Website": "http://warrensalehouse.com/"
  },
  {
    "Teams": "nbachi",
    "Name": "CherryWood Tap",
    "Address": "5129 W 31st St, Cicero, IL 60804",
    "City": "CHI",
    "State": "IL",
    "latitude": 41.8363591,
    "longitude": -87.7534598,
    "Phone": "708-652-4504",
    "Website": ""
  },
  {
    "Teams": "nflchi",
    "Name": "Burke's Public House",
    "Address": "5401 N Broadway St, Chicago, IL 60640",
    "City": "CHI",
    "State": "IL",
    "latitude": 41.980143,
    "longitude": -87.659667,
    "Phone": "773-944-1109",
    "Website": "http://www.burkespublichouse.com/"
  },
  {
    "Teams": "ncaabapp;ncaafapp",
    "Name": "Andersonville Brewing Co",
    "Address": "5402 N Clark St, Chicago, IL 60640",
    "City": "CHI",
    "State": "IL",
    "latitude": 41.980081,
    "longitude": -87.668441,
    "Phone": "773-784-6969",
    "Website": "http://www.hamburgermarys.com/chicago/recroom.php"
  },
  {
    "Teams": "mlbchw;ncaabcin;ncaafcin",
    "Name": "O'Leary's Public House",
    "Address": "541 N Wells St, Chicago, IL 60654",
    "City": "CHI",
    "State": "IL",
    "latitude": 41.8920544,
    "longitude": -87.6339367,
    "Phone": "312-661-1306",
    "Website": "http://olearyspublichouse.com/"
  },
  {
    "Teams": "nfldet",
    "Name": "Ironside Bar & Galley",
    "Address": "546 N Wells St, Chicago, IL 60654",
    "City": "CHI",
    "State": "IL",
    "latitude": 41.892145,
    "longitude": -87.6342808,
    "Phone": "312-973-7792",
    "Website": "http://www.ironsidechicago.com/"
  },
  {
    "Teams": "nbachi",
    "Name": "Fatty Magoo's Bar & Eatery",
    "Address": "551 S Bolingbrook Dr, Bolingbrook, IL 60440",
    "City": "CHI",
    "State": "IL",
    "latitude": 41.682675,
    "longitude": -88.068465,
    "Phone": "630-312-8825",
    "Website": "http://www.fattymagoos.com/"
  },
  {
    "Teams": "nflcar;nflchi;mlbchc;ncaabnw;ncaafnw;ncaabnd;ncaafnd",
    "Name": "Timothy O'Toole's Pub Chicago",
    "Address": "622 N Fairbanks Ct, Chicago, IL 60611",
    "City": "CHI",
    "State": "IL",
    "latitude": 41.8932679,
    "longitude": -87.6204595,
    "Phone": "312-642-0700",
    "Website": "http://www.timothyotooles.com/chicago/"
  },
  {
    "Teams": "ncaabmich;ncaafmich",
    "Name": "Lavergne's Tavern",
    "Address": "6546 Windsor Ave, Berwyn, IL 60402",
    "City": "CHI",
    "State": "IL",
    "latitude": 41.8342135,
    "longitude": -87.7877073,
    "Phone": "708-956-7405",
    "Website": "http://www.lavergnes.com/"
  },
  {
    "Teams": "ncaabnd;ncaafnd;ncaabvu",
    "Name": "Kerryman Irish Bar & Restaurant",
    "Address": "661 N Clark St, Chicago, IL 60654",
    "City": "CHI",
    "State": "IL",
    "latitude": 41.894192,
    "longitude": -87.630859,
    "Phone": "312-335-8121",
    "Website": "http://www.thekerrymanchicago.com/"
  },
  {
    "Teams": "ncaabnd;ncaafnd",
    "Name": "Moretti's Ristorante & Pizzeria Edison Park",
    "Address": "6727 N Olmsted Ave, Chicago, IL 60631",
    "City": "CHI",
    "State": "IL",
    "latitude": 42.0028176,
    "longitude": -87.8175503,
    "Phone": "773-631-1223",
    "Website": "http://www.morettisrestaurants.com/edisonpark.php"
  },
  {
    "Teams": "nbachi;mlbchc",
    "Name": "O'Malley's Pub & Eatery",
    "Address": "701 Hill Ave, Aurora, IL 60505",
    "City": "CHI",
    "State": "IL",
    "latitude": 41.7394211,
    "longitude": -88.288351,
    "Phone": "630-898-8700",
    "Website": "http://www.omalleysaurora.com/"
  },
  {
    "Teams": "mlbchc;nfltb",
    "Name": "Kasey's Tavern",
    "Address": "701 S Dearborn St, Chicago, IL 60605",
    "City": "CHI",
    "State": "IL",
    "latitude": 41.8733292,
    "longitude": -87.6289655,
    "Phone": "312-427-7992",
    "Website": "http://kaseystavern.com/"
  },
  {
    "Teams": "ncaabtcu;ncaaftcu",
    "Name": "Tilted Kilt Pub and Eatery",
    "Address": "7070 Carpenter Rd, Skokie, IL 60077",
    "City": "CHI",
    "State": "IL",
    "latitude": 42.0099921,
    "longitude": -87.7641264,
    "Phone": "847-673-7070",
    "Website": "http://tiltedkilt.com/skokie/"
  },
  {
    "Teams": "ncaabiowa;ncaafiowa",
    "Name": "Clover Sports and Leisure",
    "Address": "722 W Grand Ave, Chicago, IL 60654",
    "City": "CHI",
    "State": "IL",
    "latitude": 41.8913213,
    "longitude": -87.6468015,
    "Phone": "312-344-1934",
    "Website": "http://www.cloverchicago.com/"
  },
  {
    "Teams": "ncaabsc;ncaafsc",
    "Name": "Rebel & Rye",
    "Address": "726 W Grand Ave, Chicago, IL 60654",
    "City": "CHI",
    "State": "IL",
    "latitude": 41.891395,
    "longitude": -87.6470038,
    "Phone": "",
    "Website": "http://rebelandrye.com/"
  },
  {
    "Teams": "nflind",
    "Name": "Mullen's",
    "Address": "7301 N Western Ave, Chicago, IL 60645",
    "City": "CHI",
    "State": "IL",
    "latitude": 42.0142208,
    "longitude": -87.6900301,
    "Phone": "773-465-2113",
    "Website": "http://www.mullensbarandgrill.com/"
  },
  {
    "Teams": "ncaabiowa;ncaafiowa;ncaabmoh;ncaafmoh",
    "Name": "Clark Street Ale House - River North",
    "Address": "742 N Clark St, Chicago, IL 60654",
    "City": "CHI",
    "State": "IL",
    "latitude": 41.8960809,
    "longitude": -87.6314926,
    "Phone": "312-642-9253",
    "Website": "http://www.clarkstreetalehouse.com/"
  },
  {
    "Teams": "ncaabiowa;ncaafiowa",
    "Name": "Miller's Ale House - Aurora",
    "Address": "778 N Route 59, Aurora, IL 60504",
    "City": "CHI",
    "State": "IL",
    "latitude": 41.7672553,
    "longitude": -88.2065173,
    "Phone": "630-332-8574",
    "Website": "https://millersalehouse.com/locations/aurora/"
  },
  {
    "Teams": "mlbchc",
    "Name": "Lantern",
    "Address": "8 Chicago Ave # 1, Naperville, IL 60540",
    "City": "CHI",
    "State": "IL",
    "latitude": 41.7713362,
    "longitude": -88.1482295,
    "Phone": "630-355-7099",
    "Website": "http://www.lanterntavern.com/"
  },
  {
    "Teams": "ncaabmu",
    "Name": "Peggy Kinnane's Irish Restaurant & Pub",
    "Address": "8 N Vail Ave, Arlington Heights, IL 60004",
    "City": "CHI",
    "State": "IL",
    "latitude": 42.0829379,
    "longitude": -87.9844145,
    "Phone": "847-577-7733",
    "Website": "http://www.peggykinnanes.com/"
  },
  {
    "Teams": "mlschi",
    "Name": "Mr. Browns lounge",
    "Address": "81 E Wacker Pl, Chicago, IL 60601",
    "City": "CHI",
    "State": "IL",
    "latitude": 41.8867133,
    "longitude": -87.6251936,
    "Phone": "312-334-6760",
    "Website": "http://www.mrbrownslounge.com/"
  },
  {
    "Teams": "ncaabpsu;ncaafpsu;nhlpit;nflpit",
    "Name": "Durkin's",
    "Address": "810 W Diversey Pkwy, Chicago, IL 60614",
    "City": "CHI",
    "State": "IL",
    "latitude": 41.9328147,
    "longitude": -87.6494646,
    "Phone": "773-525-2515",
    "Website": "http://www.durkinstavern.com/"
  },
  {
    "Teams": "ncaabnev;ncaafnev",
    "Name": "Draft Bar Chicago",
    "Address": "8221 W Irving Park Rd, Chicago, IL 60634",
    "City": "CHI",
    "State": "IL",
    "latitude": 41.951846,
    "longitude": -87.832675,
    "Phone": "773-417-2516",
    "Website": "http://www.draftbarchicago.com/"
  },
  {
    "Teams": "ncaabiowa;ncaafiowa;ncaabku;ncaafku;ncaabstan;ncaafstan;ncaabusc;ncaafusc",
    "Name": "Theory",
    "Address": "9 W Hubbard St, Chicago, IL 60654",
    "City": "CHI",
    "State": "IL",
    "latitude": 41.8898253,
    "longitude": -87.6285544,
    "Phone": "312-644-0004",
    "Website": "http://www.theorychicago.com/"
  },
  {
    "Teams": "ncaabmsst;ncaafmsst",
    "Name": "Bulldog Ale House",
    "Address": "901 S State St, Chicago, IL 60605",
    "City": "CHI",
    "State": "IL",
    "latitude": 41.870234,
    "longitude": -87.6271408,
    "Phone": "312-583-0333",
    "Website": "http://www.bulldogalehouse.com/location-state-street.php"
  },
  {
    "Teams": "ncaabind;ncaafind",
    "Name": "Fox & Hound",
    "Address": "910-918 W Dundee Rd, Arlington Heights, IL 60004",
    "City": "CHI",
    "State": "IL",
    "latitude": 42.1398905,
    "longitude": -87.9944675,
    "Phone": "847-590-9019",
    "Website": "http://www.foxandhound.com/locations/arlington-heights/"
  },
  {
    "Teams": "ncaabore;ncaafore",
    "Name": "Homeslice",
    "Address": "938 W Webster Ave, Chicago, IL 60614",
    "City": "CHI",
    "State": "IL",
    "latitude": 41.9219279,
    "longitude": -87.6525222,
    "Phone": "312-789-4600",
    "Website": "http://getsomehomie.com/"
  },
  {
    "Teams": "ncaabark;ncaafark;nhlchi;nbachi;ncaabill;ncaafill;ncaabind;ncaafind;ncaabnc;ncaafnc;nflpit;ncaabtcu;ncaaftcu;nhlwsh",
    "Name": "Joe's on Weed St.",
    "Address": "940 W Weed St, Chicago, IL 60642",
    "City": "CHI",
    "State": "IL",
    "latitude": 41.9101139,
    "longitude": -87.6521185,
    "Phone": "312-337-3486",
    "Website": "http://www.joesbar.com/"
  },
  {
    "Teams": "nfldet",
    "Name": "The Dugout Sports Bar and Grill",
    "Address": "950 W Addison St, Chicago, IL 60613",
    "City": "CHI",
    "State": "IL",
    "latitude": 41.9473973,
    "longitude": -87.6539586,
    "Phone": "773-661-6043",
    "Website": "https://www.thedugoutpressbox.com/"
  },
  {
    "Teams": "nflcin;ncaabku;ncaafku;ncaabnw;ncaafnw;ncaabstan;ncaafstan",
    "Name": "Kincade's Bar & Grill",
    "Address": "950 W Armitage Ave, Chicago, IL 60614",
    "City": "CHI",
    "State": "IL",
    "latitude": 41.9183115,
    "longitude": -87.652987,
    "Phone": "773-348-0010",
    "Website": "http://www.kincadesbar.com/"
  },
  {
    "Teams": "nflchi",
    "Name": "McGee's Tavern & Grille",
    "Address": "950 W Webster Ave, Chicago, IL 60614",
    "City": "CHI",
    "State": "IL",
    "latitude": 41.9219162,
    "longitude": -87.6530082,
    "Phone": "773-549-8200",
    "Website": "http://mcgeestavern.com/"
  },
  {
    "Teams": "ncaabou;ncaafou;ncaabniu;ncaafniu;ncaabtex;ncaaftex;ncaabusc;ncaafusc",
    "Name": "Barn & Company",
    "Address": "950 W Wrightwood Ave, Chicago, IL 60614",
    "City": "CHI",
    "State": "IL",
    "latitude": 41.929278,
    "longitude": -87.6533132,
    "Phone": "773-832-4000",
    "Website": "http://barnandcompany.com/"
  },
  {
    "Teams": "mlbchc;nflnyg",
    "Name": "Sports Corner Bar & Grill",
    "Address": "956 W Addison St, Chicago, IL 60613",
    "City": "CHI",
    "State": "IL",
    "latitude": 41.9473483,
    "longitude": -87.6541189,
    "Phone": "773-929-1441",
    "Website": "http://sportscornerwrigley.com/"
  },
  {
    "Teams": "nflsf;mlbsf",
    "Name": "Cheesie's Pub & Grub Lakeview",
    "Address": "958 W Belmont Ave, Chicago, IL 60657",
    "City": "CHI",
    "State": "IL",
    "latitude": 41.9401069,
    "longitude": -87.6537931,
    "Phone": "773-388-1574",
    "Website": "http://cheesies.com/"
  },
  {
    "Teams": "nhlbos;nhlchi",
    "Name": "Stanley's Kitchen & Tap",
    "Address": "W O'Hare Ave, Chicago, IL 60666",
    "City": "CHI",
    "State": "IL",
    "latitude": 41.9751738,
    "longitude": -87.9064726,
    "Phone": "773-686-6105",
    "Website": "http://stanleyskitchenandtap.com/"
  }
]