[
  {
    "Teams": "mlsdal",
    "Name": "The Londoner",
    "Address": "14930 Midway Rd, Addison, TX 75001",
    "City": "DAL",
    "State": "TX",
    "latitude": 32.952424,
    "longitude": -96.8383659,
    "Phone": "972-458-2444",
    "Website": "http://www.londoneraddison.com/"
  },
  {
    "Teams": "nbahou;nflnyj;ncaabsdsu;ncaafsdsu",
    "Name": "Addison Ice House",
    "Address": "3875 Ponte Ave #250, Addison, TX 75001",
    "City": "DAL",
    "State": "TX",
    "latitude": 32.9354148,
    "longitude": -96.8508845,
    "Phone": "972-218-0921",
    "Website": "http://harderconcepts.com/locations/addison-icehouse/"
  },
  {
    "Teams": "mlsdal;ncaabttu;ncaafttu",
    "Name": "Ron's Place",
    "Address": "4145 Belt Line Rd, Addison, TX 75001",
    "City": "DAL",
    "State": "TX",
    "latitude": 32.9548662,
    "longitude": -96.8405077,
    "Phone": "214-628-0634",
    "Website": "http://www.ronsaddison.com/"
  },
  {
    "Teams": "nhldal",
    "Name": "Snuffer's Restaurant & Bar",
    "Address": "4180 Belt Line Rd, Addison, TX 75001",
    "City": "DAL",
    "State": "TX",
    "latitude": 32.9538164,
    "longitude": -96.8391093,
    "Phone": "972-991-8811",
    "Website": "http://www.snuffers.com/"
  },
  {
    "Teams": "nflsf",
    "Name": "Addison Point",
    "Address": "4578 Belt Line Rd, Addison, TX 75001",
    "City": "DAL",
    "State": "TX",
    "latitude": 32.9533975,
    "longitude": -96.83269,
    "Phone": "972-661-2230",
    "Website": "http://www.addisonpointbar.net/index.html"
  },
  {
    "Teams": "nflbal;ncaabhou;ncaafhou;ncaabnw;ncaafnw",
    "Name": "The Mucky Duck Bar",
    "Address": "5064 Addison Cir, Addison, TX 75001",
    "City": "DAL",
    "State": "TX",
    "latitude": 32.9617518,
    "longitude": -96.8232858,
    "Phone": "972-233-9362",
    "Website": "http://www.themuckyduckbar.com/"
  },
  {
    "Teams": "ncaabksu;ncaafksu",
    "Name": "TwoRows Classic Grill",
    "Address": "711 Central Expy S, Allen, TX 75013",
    "City": "DAL",
    "State": "TX",
    "latitude": 33.092128,
    "longitude": -96.6798589,
    "Phone": "972-396-8670",
    "Website": "https://www.tworows.com/"
  },
  {
    "Teams": "ncaabwsu;ncaafwsu",
    "Name": "Fox & Hound",
    "Address": "1001 NE Green Oaks Blvd, Arlington, TX 76006",
    "City": "DAL",
    "State": "TX",
    "latitude": 32.785656,
    "longitude": -97.094085,
    "Phone": "817-277-3591",
    "Website": "http://www.foxandhound.com/locations/arlington/"
  },
  {
    "Teams": "ncaabuva;ncaafuva",
    "Name": "Troy's",
    "Address": "1650 E Randol Mill Rd STE 100, Arlington, TX 76011",
    "City": "DAL",
    "State": "TX",
    "latitude": 32.7489213,
    "longitude": -97.0852998,
    "Phone": "817-769-1551",
    "Website": "https://texas-live.com/eat-and-drink/troys"
  },
  {
    "Teams": "nhldal;ncaabnavy;ncaafnavy;mlbtex;ncaabtuln;ncaaftuln",
    "Name": "Texas Live!",
    "Address": "1650 E Randol Mill Rd, Arlington, TX 76011",
    "City": "DAL",
    "State": "TX",
    "latitude": 32.7491975,
    "longitude": -97.0847611,
    "Phone": "817-852-6688",
    "Website": "https://texas-live.com/"
  },
  {
    "Teams": "ncaabgt;ncaafgt",
    "Name": "Mellow Mushroom",
    "Address": "200 N Center St, Arlington, TX 76011",
    "City": "DAL",
    "State": "TX",
    "latitude": 32.737914,
    "longitude": -97.107245,
    "Phone": "817-274-7173",
    "Website": "https://mellowmushroom.com/location/tx-arlington-200-n-center-st-76011/"
  },
  {
    "Teams": "ncaabmiz;ncaafmiz;nflsf;ncaabvt;ncaafvt",
    "Name": "Buffalo Wings & Rings",
    "Address": "2150 E Lamar Blvd Suite 110, Arlington, TX 76006",
    "City": "DAL",
    "State": "TX",
    "latitude": 32.7616999,
    "longitude": -97.0742356,
    "Phone": "682-323-7099",
    "Website": "http://www.buffalowingsandrings.com/locations/dallas-fort-worth"
  },
  {
    "Teams": "nhldal",
    "Name": "Hooligans Pub",
    "Address": "310 E Abram St #150, Arlington, TX 76010",
    "City": "DAL",
    "State": "TX",
    "latitude": 32.7352871,
    "longitude": -97.1039428,
    "Phone": "817-274-1232",
    "Website": "http://www.facebook.com/hooliganspubarlington"
  },
  {
    "Teams": "ncaabarmy;ncaafarmy",
    "Name": "BoomerJack's Grill & Bar - South Arlington",
    "Address": "4000 Arlington Highlands Blvd #172, Arlington, TX 76018",
    "City": "DAL",
    "State": "TX",
    "latitude": 32.6802737,
    "longitude": -97.1100382,
    "Phone": "817-375-5188",
    "Website": "http://www.boomerjacks.com/"
  },
  {
    "Teams": "mlbtex",
    "Name": "Pluckers Wing Bar",
    "Address": "4000 Bagpiper Way # 140, Arlington, TX 76018",
    "City": "DAL",
    "State": "TX",
    "latitude": 32.6795634,
    "longitude": -97.1059623,
    "Phone": "817-784-2473",
    "Website": "http://www.pluckers.com/"
  },
  {
    "Teams": "nflsf",
    "Name": "Walk-On's Sports Bistreaux",
    "Address": "401 E, I-20, Arlington, TX 76018",
    "City": "DAL",
    "State": "TX",
    "latitude": 32.678948,
    "longitude": -97.10601,
    "Phone": "817-617-2137",
    "Website": "http://www.walk-ons.com/"
  },
  {
    "Teams": "nfljax;ncaabtex;ncaaftex",
    "Name": "Bobby V's Sports Gallery Cafe",
    "Address": "4301 S Bowen Rd, Arlington, TX 76016",
    "City": "DAL",
    "State": "TX",
    "latitude": 32.67613,
    "longitude": -97.148868,
    "Phone": "817-467-9922",
    "Website": "http://bobbyvsarlington.com/"
  },
  {
    "Teams": "ncaabarmy;ncaafarmy;nbadal;mlbtex;ncaabtlsa;ncaaftlsa",
    "Name": "BoomerJack's Grill & Bar",
    "Address": "522 Lincoln Square, Arlington, TX 76011",
    "City": "DAL",
    "State": "TX",
    "latitude": 32.7567885,
    "longitude": -97.0979197,
    "Phone": "817-275-5400",
    "Website": "http://www.boomerjacks.com/"
  },
  {
    "Teams": "nfldal",
    "Name": "Hooters",
    "Address": "5821 Interstate 20 W, Arlington, TX 76017",
    "City": "DAL",
    "State": "TX",
    "latitude": 32.6752626,
    "longitude": -97.196692,
    "Phone": "817-516-9464",
    "Website": "http://www.hooters.com/"
  },
  {
    "Teams": "ncaabtex;ncaaftex;mlbtex",
    "Name": "Mavericks Bar & Grill",
    "Address": "601 E Main St, Arlington, TX 76010",
    "City": "DAL",
    "State": "TX",
    "latitude": 32.7365745,
    "longitude": -97.1011779,
    "Phone": "817-548-1442",
    "Website": "http://mavericksbarandgrill.com/"
  },
  {
    "Teams": "ncaabtex;ncaaftex",
    "Name": "Zona Caliente Sports Bar And Grill",
    "Address": "6507 S Cooper St #167, Arlington, TX 76001",
    "City": "DAL",
    "State": "TX",
    "latitude": 32.6388488,
    "longitude": -97.1340548,
    "Phone": "817-375-5044",
    "Website": "http://zonacalientesportsbar.com/"
  },
  {
    "Teams": "nfldal",
    "Name": "Fishbone Grill & Sports Bar",
    "Address": "816 N Collins St, Arlington, TX 76011",
    "City": "DAL",
    "State": "TX",
    "latitude": 32.7471295,
    "longitude": -97.0976092,
    "Phone": "817-261-5798",
    "Website": "http://www.thefishbonegrill.com/"
  },
  {
    "Teams": "mlbtex",
    "Name": "Mezcal Sports Bar & Grill",
    "Address": "844 Secretary Dr, Arlington, TX 76015",
    "City": "DAL",
    "State": "TX",
    "latitude": 32.7024401,
    "longitude": -97.1193136,
    "Phone": "817-642-5153",
    "Website": ""
  },
  {
    "Teams": "nbadal",
    "Name": "No Frills Grill & Sports Bar - Arlington, TX",
    "Address": "Lincoln Court Shopping Center, 4914 Little Rd, Arlington, TX 76017",
    "City": "DAL",
    "State": "TX",
    "latitude": 32.6698531,
    "longitude": -97.2045542,
    "Phone": "817-478-1766",
    "Website": "http://nofrillsgrill.com/"
  },
  {
    "Teams": "nflkc",
    "Name": "Big Shots Sports Cafe",
    "Address": "1833 Airport Fwy, Bedford, TX 76021",
    "City": "DAL",
    "State": "TX",
    "latitude": 32.837662,
    "longitude": -97.138324,
    "Phone": "817-510-1310",
    "Website": "http://www.bigshotssportscafe.com/"
  },
  {
    "Teams": "ncaabhou;ncaafhou",
    "Name": "Buffalo Wild Wings",
    "Address": "1933 Airport Fwy, Bedford, TX 76021",
    "City": "DAL",
    "State": "TX",
    "latitude": 32.8378851,
    "longitude": -97.1356686,
    "Phone": "817-283-9464",
    "Website": "http://buffalowildwings.com/"
  },
  {
    "Teams": "ncaabtlsa;ncaaftlsa",
    "Name": "BoomerJack's Grill & Bar - Bedford",
    "Address": "2300 Airport Fwy #222, Bedford, TX 76022",
    "City": "DAL",
    "State": "TX",
    "latitude": 32.835651,
    "longitude": -97.130856,
    "Phone": "817-267-0267",
    "Website": "http://www.boomerjacks.com/"
  },
  {
    "Teams": "ncaabiowa;ncaafiowa",
    "Name": "Crazy Cowboy",
    "Address": "2807 Central Dr, Bedford, TX 76021",
    "City": "DAL",
    "State": "TX",
    "latitude": 32.8500229,
    "longitude": -97.1325037,
    "Phone": "817-283-2074",
    "Website": "http://www.crazycowboy.net/"
  },
  {
    "Teams": "nflsf",
    "Name": "PapaG's Sports Bar & Grill",
    "Address": "2900 Hwy 121, Bedford, TX 76021",
    "City": "DAL",
    "State": "TX",
    "latitude": 32.8523778,
    "longitude": -97.1081385,
    "Phone": "817-354-4140",
    "Website": "http://papagsportsbar.webs.com/"
  },
  {
    "Teams": "nbadal",
    "Name": "No Frills Grill & Sports Bar",
    "Address": "12846 South Fwy Suite 100, Burleson, TX 76028",
    "City": "DAL",
    "State": "TX",
    "latitude": 32.570493,
    "longitude": -97.3218444,
    "Phone": "817-447-7119",
    "Website": "http://www.nofrillsgrill.com/"
  },
  {
    "Teams": "nhldal;ncaabmiz;ncaafmiz;ncaabosu;ncaafosu",
    "Name": "The Maverick",
    "Address": "1616 W Hebron Pkwy #108, Carrollton, TX 75010",
    "City": "DAL",
    "State": "TX",
    "latitude": 33.0238634,
    "longitude": -96.9360546,
    "Phone": "972-492-7500",
    "Website": "http://www.themaverickbar.com/"
  },
  {
    "Teams": "nfldal",
    "Name": "Carrollton Chopshop Sports Garage",
    "Address": "2661 Midway Rd, Carrollton, TX 75006",
    "City": "DAL",
    "State": "TX",
    "latitude": 32.9867677,
    "longitude": -96.8440352,
    "Phone": "972-525-4753",
    "Website": "http://www.chopshopsportsgarage.com/"
  },
  {
    "Teams": "ncaabhou;ncaafhou;ncaabneb;ncaafneb",
    "Name": "Buffalo Wild Wings",
    "Address": "3320 E Hebron Pkwy Suite 100, Carrollton, TX 75010",
    "City": "DAL",
    "State": "TX",
    "latitude": 33.0251228,
    "longitude": -96.8451499,
    "Phone": "972-695-2001",
    "Website": "http://buffalowildwings.com/"
  },
  {
    "Teams": "nhldal",
    "Name": "Snuffer's Restaurant & Bar",
    "Address": "4717 Colleyville Blvd, Colleyville, TX 76034",
    "City": "DAL",
    "State": "TX",
    "latitude": 32.8789742,
    "longitude": -97.1571898,
    "Phone": "682-325-3625",
    "Website": "http://www.snuffers.com/locations"
  },
  {
    "Teams": "ncaabttu;ncaafttu",
    "Name": "The Londoner",
    "Address": "5120 TX-121, Colleyville, TX 76034",
    "City": "DAL",
    "State": "TX",
    "latitude": 32.8837675,
    "longitude": -97.1002341,
    "Phone": "817-684-8810",
    "Website": "http://thelondonerpub.com/"
  },
  {
    "Teams": "ncaabtamu;ncaaftamu",
    "Name": "Studio Movie Grill",
    "Address": "5655 Colleyville Blvd Suite 300, Colleyville, TX 76034",
    "City": "DAL",
    "State": "TX",
    "latitude": 32.8915325,
    "longitude": -97.1462023,
    "Phone": "682-267-9464",
    "Website": "http://www.studiomoviegrill.com/colleyville"
  },
  {
    "Teams": "nhldal",
    "Name": "Moxie's Grill & Bar",
    "Address": "100 Crescent Ct, Dallas, TX 75201",
    "City": "DAL",
    "State": "TX",
    "latitude": 32.7939443,
    "longitude": -96.8033092,
    "Phone": "469-687-0050",
    "Website": "https://moxies.com/restaurant-locations/tx/uptown-dallas-crescent"
  },
  {
    "Teams": "nfldal",
    "Name": "Gas Monkey",
    "Address": "10261 Technology Blvd E, Dallas, TX 75220",
    "City": "DAL",
    "State": "TX",
    "latitude": 32.8608227,
    "longitude": -96.8960973,
    "Phone": "214-350-1904",
    "Website": "http://www.gasmonkeybarngrill.com/"
  },
  {
    "Teams": "mlsdal",
    "Name": "Peticolas Brewing Company Taproom",
    "Address": "1301 Pace St, Dallas, TX 75207",
    "City": "DAL",
    "State": "TX",
    "latitude": 32.7967116,
    "longitude": -96.8289652,
    "Phone": "214-234-7600",
    "Website": "http://www.peticolasbrewing.com/"
  },
  {
    "Teams": "ncaabbay;ncaafbay;nflcar;nfldal;mlbhou",
    "Name": "Frankie's Downtown",
    "Address": "1303 Main St, Dallas, TX 75202",
    "City": "DAL",
    "State": "TX",
    "latitude": 32.7804885,
    "longitude": -96.8006992,
    "Phone": "214-741-1919",
    "Website": "https://frankiesbar.com/"
  },
  {
    "Teams": "nfldal",
    "Name": "One Eyed Penguin",
    "Address": "1404 1/2 Main St, Dallas, TX 75202",
    "City": "DAL",
    "State": "TX",
    "latitude": 32.780229,
    "longitude": -96.799985,
    "Phone": "972-861-0023",
    "Website": "http://www.oneeyedpenguin.com/"
  },
  {
    "Teams": "ncaabtex;ncaaftex",
    "Name": "Blue Mesa Grill",
    "Address": "14866 Montfort Dr, Dallas, TX 75254",
    "City": "DAL",
    "State": "TX",
    "latitude": 32.9512829,
    "longitude": -96.8180653,
    "Phone": "972-934-0165",
    "Website": "http://www.bluemesagrill.com/"
  },
  {
    "Teams": "nfldal;ncaabill;ncaafill;nflmin",
    "Name": "TNT Sports Page",
    "Address": "14902 Preston Rd #716, Dallas, TX 75254",
    "City": "DAL",
    "State": "TX",
    "latitude": 32.9511466,
    "longitude": -96.8012908,
    "Phone": "972-661-1130",
    "Website": "https://www.facebook.com/TNTSportsPage/"
  },
  {
    "Teams": "nflbuf;ncaabbuff;ncaafbuff;ncaabumd;ncaafumd",
    "Name": "The Hideaway",
    "Address": "14902 Preston Rd, Dallas, TX 75254",
    "City": "DAL",
    "State": "TX",
    "latitude": 32.9530878,
    "longitude": -96.8029021,
    "Phone": "972-661-5221",
    "Website": "http://myhideawaydallas.com/"
  },
  {
    "Teams": "nfldal",
    "Name": "Community Beer Company",
    "Address": "1530 Inspiration Dr #200, Dallas, TX 75207",
    "City": "DAL",
    "State": "TX",
    "latitude": 32.791431,
    "longitude": -96.816057,
    "Phone": "214-751-7921",
    "Website": "http://www.communitybeer.com/"
  },
  {
    "Teams": "nfldal;ncaabsmu;ncaafsmu",
    "Name": "Press Box Grill",
    "Address": "1623 Main St, Dallas, TX 75201",
    "City": "DAL",
    "State": "TX",
    "latitude": 32.781673,
    "longitude": -96.797447,
    "Phone": "214-747-8226",
    "Website": "http://www.pressboxgrill.com/"
  },
  {
    "Teams": "ncaabtuln;ncaaftuln",
    "Name": "Mac's Southside",
    "Address": "1701 S Lamar St, Dallas, TX 75215",
    "City": "DAL",
    "State": "TX",
    "latitude": 32.7659697,
    "longitude": -96.7935652,
    "Phone": "214-484-8029",
    "Website": "http://www.macssouthside.com/"
  },
  {
    "Teams": "nflden",
    "Name": "Sharky's Bar, Grill & Games",
    "Address": "17453 Preston Rd, Dallas, TX 75252",
    "City": "DAL",
    "State": "TX",
    "latitude": 32.990929,
    "longitude": -96.8026979,
    "Phone": "972-713-0201",
    "Website": "http://www.sharkysdallas.com/"
  },
  {
    "Teams": "ncaabttu;ncaafttu",
    "Name": "High Fives",
    "Address": "1804 McMillan Ave, Dallas, TX 75206",
    "City": "DAL",
    "State": "TX",
    "latitude": 32.811818,
    "longitude": -96.774412,
    "Phone": "214-821-5555",
    "Website": "http://highfivesdallas.com/"
  },
  {
    "Teams": "mlsdal;ncaabucla;ncaafucla",
    "Name": "The Irishman Pub",
    "Address": "18101 Preston Rd #102, Dallas, TX 75252",
    "City": "DAL",
    "State": "TX",
    "latitude": 32.9992808,
    "longitude": -96.7985511,
    "Phone": "972-733-1852",
    "Website": "http://theirishman.pub/"
  },
  {
    "Teams": "nflchi",
    "Name": "Redrock Bar and Grill",
    "Address": "18110 Midway Rd #208, Dallas, TX 75287",
    "City": "DAL",
    "State": "TX",
    "latitude": 32.997013,
    "longitude": -96.842204,
    "Phone": "972-733-3683",
    "Website": "http://www.redrockbarandgrill.net/"
  },
  {
    "Teams": "ncaabku;ncaafku",
    "Name": "Benders Sports And Spirits",
    "Address": "18110 Midway Rd Suite 188, Dallas, TX 75287",
    "City": "DAL",
    "State": "TX",
    "latitude": 32.9962566,
    "longitude": -96.8426795,
    "Phone": "972-807-2026",
    "Website": "https://www.benderssportsandspirits.com/"
  },
  {
    "Teams": "ncaabcmu;ncaafcmu;ncaabuconn;ncaafuconn;ncaabisu;ncaafisu;ncaabku;ncaafku;ncaabksu;ncaafksu;ncaabmich;ncaafmich;nflsea;ncaabusm;ncaafusm;ncaabwmu;ncaafwmu",
    "Name": "Fox & Hound",
    "Address": "18918 Midway Rd, Dallas, TX 75287",
    "City": "DAL",
    "State": "TX",
    "latitude": 33.009504,
    "longitude": -96.84305,
    "Phone": "972-732-0804",
    "Website": "https://www.foxandhound.com/locations/midway"
  },
  {
    "Teams": "ncaabsyr;ncaafsyr",
    "Name": "The Pour House",
    "Address": "1919 Skillman St, Dallas, TX 75206",
    "City": "DAL",
    "State": "TX",
    "latitude": 32.813186,
    "longitude": -96.762133,
    "Phone": "214-824-1170",
    "Website": "https://www.pourhousedallas.com/"
  },
  {
    "Teams": "ncaabokst;ncaafokst",
    "Name": "Ferris Wheelers Backyard and BBQ",
    "Address": "1950 Market Center Blvd, Dallas, TX 75207",
    "City": "DAL",
    "State": "TX",
    "latitude": 32.7975643,
    "longitude": -96.8243307,
    "Phone": "214-741-4141",
    "Website": "http://www.ferriswheelers.com/"
  },
  {
    "Teams": "ncaabasu;ncaafasu;nfldal;nbadal;ncaabduke;ncaafduke;ncaablou;ncaaflou;ncaabou;ncaafou;ncaabshu;ncaabucla;ncaafucla;ncaabuva;ncaafuva;ncaabwsu;ncaafwsu;ncaabwis;ncaafwis;ncaabxu",
    "Name": "Henderson Tap House",
    "Address": "2323 N Henderson Ave suite 101-102, Dallas, TX 75206",
    "City": "DAL",
    "State": "TX",
    "latitude": 32.8140994,
    "longitude": -96.778305,
    "Phone": "972-677-7947",
    "Website": "http://www.hendersontaphouse.com/"
  },
  {
    "Teams": "ncaablsu;ncaaflsu;ncaabokst;ncaafokst",
    "Name": "Dibs on Victory",
    "Address": "2401 Victory Park Ln Suite 190, Dallas, TX 75219",
    "City": "DAL",
    "State": "TX",
    "latitude": 32.788122,
    "longitude": -96.810011,
    "Phone": "214-903-6536",
    "Website": "http://www.dibsonvictory.com/"
  },
  {
    "Teams": "ncaabttu;ncaafttu",
    "Name": "Saint Ann Restaurant & Bar",
    "Address": "2501 N Harwood St, Dallas, TX 75201",
    "City": "DAL",
    "State": "TX",
    "latitude": 32.7918792,
    "longitude": -96.806665,
    "Phone": "214-782-9807",
    "Website": "http://www.saintanndallas.com/"
  },
  {
    "Teams": "ncaabtamu;ncaaftamu",
    "Name": "Clutch Bar and Restaurant",
    "Address": "2520 Cedar Springs Rd, Dallas, TX 75201",
    "City": "DAL",
    "State": "TX",
    "latitude": 32.7988131,
    "longitude": -96.8051487,
    "Phone": "972-979-3460",
    "Website": "http://clutch-bar.com/"
  },
  {
    "Teams": "ncaabumd;ncaafumd;ncaabmich;ncaafmich;nflne;ncaabutsa;ncaafutsa",
    "Name": "Nickel And Rye",
    "Address": "2523 McKinney Ave, Dallas, TX 75201",
    "City": "DAL",
    "State": "TX",
    "latitude": 32.796114,
    "longitude": -96.8022003,
    "Phone": "214-389-2120",
    "Website": "http://nickelandrye.com/"
  },
  {
    "Teams": "ncaabttu;ncaafttu",
    "Name": "Happiest Hour",
    "Address": "2616 Olive St, Dallas, TX 75201",
    "City": "DAL",
    "State": "TX",
    "latitude": 32.7910131,
    "longitude": -96.8067276,
    "Phone": "972-528-0067",
    "Website": "http://www.happiesthourdallas.com/contact/"
  },
  {
    "Teams": "ncaabtenn;ncaaftenn",
    "Name": "Blackfriar Pub",
    "Address": "2621 McKinney Ave, Dallas, TX 75204",
    "City": "DAL",
    "State": "TX",
    "latitude": 32.797317,
    "longitude": -96.801882,
    "Phone": "214-953-0599",
    "Website": "http://www.blackfriarpub.com/"
  },
  {
    "Teams": "mlsdal",
    "Name": "Anvil Pub",
    "Address": "2638 Elm St, Dallas, TX 75226",
    "City": "DAL",
    "State": "TX",
    "latitude": 32.784186,
    "longitude": -96.7850426,
    "Phone": "214-741-1271",
    "Website": "http://www.anvilpubdeepellum.com/"
  },
  {
    "Teams": "nflno",
    "Name": "Twilite Lounge",
    "Address": "2640 Elm St, Dallas, TX 75226",
    "City": "DAL",
    "State": "TX",
    "latitude": 32.7842423,
    "longitude": -96.7849218,
    "Phone": "214-741-2121",
    "Website": "http://www.thetwilitelounge.com/"
  },
  {
    "Teams": "ncaabunt;ncaafunt",
    "Name": "Dot's Hop House & Cocktail Courtyard",
    "Address": "2645 Commerce St, Dallas, TX 75226",
    "City": "DAL",
    "State": "TX",
    "latitude": 32.7832088,
    "longitude": -96.7844511,
    "Phone": "214-230-3687",
    "Website": "https://www.facebook.com/dotshophouse/"
  },
  {
    "Teams": "mlsdal",
    "Name": "The Ginger Man",
    "Address": "2718 Boll St, Dallas, TX 75204",
    "City": "DAL",
    "State": "TX",
    "latitude": 32.7982715,
    "longitude": -96.8029612,
    "Phone": "214-754-8771",
    "Website": "http://www.gingermanpub.com/"
  },
  {
    "Teams": "ncaabtex;ncaaftex",
    "Name": "TNT Tacos & Tequila",
    "Address": "2800 Routh St #155, Dallas, TX 75201",
    "City": "DAL",
    "State": "TX",
    "latitude": 32.7989161,
    "longitude": -96.8031146,
    "Phone": "469-518-7888",
    "Website": "http://www.tacosandtequilatnt.com/"
  },
  {
    "Teams": "mlsdal;ncaabnd;ncaafnd;ncaabmiss;ncaafmiss;ncaabpur;ncaafpur;ncaabtcu;ncaaftcu",
    "Name": "British Beverage Company",
    "Address": "2800 Routh St, Dallas, TX 75201",
    "City": "DAL",
    "State": "TX",
    "latitude": 32.7984599,
    "longitude": -96.8037195,
    "Phone": "214-922-8220",
    "Website": "http://www.bbcpub.com/"
  },
  {
    "Teams": "nfldal;mlbhou;ncaabusf;ncaafusf;ncaabsyr;ncaafsyr;ncaabtamu;ncaaftamu;mlbtex;ncaabucf;ncaafucf;ncaabwsu;ncaafwsu",
    "Name": "Christies Sports Bar & Grill",
    "Address": "2811 McKinney Ave #22, Dallas, TX 75204",
    "City": "DAL",
    "State": "TX",
    "latitude": 32.7994872,
    "longitude": -96.8011911,
    "Phone": "214-954-1511",
    "Website": "http://www.christiessportsbar.com/"
  },
  {
    "Teams": "ncaabosu;ncaafosu;ncaabokst;ncaafokst;ncaabtenn;ncaaftenn",
    "Name": "Slater's 50/50",
    "Address": "2817 Greenville Ave, Dallas, TX 75206",
    "City": "DAL",
    "State": "TX",
    "latitude": 32.8232899,
    "longitude": -96.7704079,
    "Phone": "214-888-0158",
    "Website": "https://slaters5050.com/locations/dallas/"
  },
  {
    "Teams": "nbadal;nhldal;ncaablsu;ncaaflsu",
    "Name": "Dodie's",
    "Address": "2821 Greenville Ave, Dallas, TX 75206",
    "City": "DAL",
    "State": "TX",
    "latitude": 32.8233466,
    "longitude": -96.77038,
    "Phone": "214-823-7333",
    "Website": "http://www.dodiesreef.com/"
  },
  {
    "Teams": "ncaabariz;ncaafariz;ncaabcu;ncaabku;ncaafku;ncaabminn;ncaafminn;ncaabsmu;ncaafsmu;ncaabsc;ncaafsc;ncaabtlsa;ncaaftlsa;ncaabwis;ncaafwis",
    "Name": "Nodding Donkey Uptown",
    "Address": "2900 Thomas Ave, Dallas, TX 75204",
    "City": "DAL",
    "State": "TX",
    "latitude": 32.796584,
    "longitude": -96.7968287,
    "Phone": "214-922-8898",
    "Website": "https://www.thenoddingdonkey.com/"
  },
  {
    "Teams": "ncaabbama;ncaafbama;ncaabnc;ncaafnc",
    "Name": "City Council Restaurant & Bar",
    "Address": "2901 Thomas Ave, Dallas, TX 75204",
    "City": "DAL",
    "State": "TX",
    "latitude": 32.796832,
    "longitude": -96.7971762,
    "Phone": "214-965-9595",
    "Website": "http://www.citycouncilbar.com/"
  },
  {
    "Teams": "nfldal;nbadal;nhldal;ncaabuf;ncaafuf;ncaabnc;ncaafnc;ncaabstan;ncaafstan;ncaabttu;ncaafttu",
    "Name": "Stan's Blue Note",
    "Address": "2908 Greenville Ave, Dallas, TX 75206",
    "City": "DAL",
    "State": "TX",
    "latitude": 32.8241998,
    "longitude": -96.769921,
    "Phone": "214-827-1977",
    "Website": "http://www.stansbluenote.com/"
  },
  {
    "Teams": "ncaabmsu;ncaafmsu;nflne",
    "Name": "Kung Fu Saloon Dallas",
    "Address": "2911 Routh St, Dallas, TX 75201",
    "City": "DAL",
    "State": "TX",
    "latitude": 32.7990566,
    "longitude": -96.8051528,
    "Phone": "214-730-0283",
    "Website": "http://www.kungfusaloon.com/"
  },
  {
    "Teams": "ncaabokst;ncaafokst",
    "Name": "Level",
    "Address": "3005 Routh St, Dallas, TX 75201",
    "City": "DAL",
    "State": "TX",
    "latitude": 32.7993978,
    "longitude": -96.8056105,
    "Phone": "",
    "Website": "http://leveldallas.com/"
  },
  {
    "Teams": "nhldal",
    "Name": "Shooters",
    "Address": "3030 Olive St, Dallas, TX 75219",
    "City": "DAL",
    "State": "TX",
    "latitude": 32.7898778,
    "longitude": -96.8094527,
    "Phone": "972-354-1155",
    "Website": "http://shooters-dallas.com/"
  },
  {
    "Teams": "nhldal;ncaabokst;ncaafokst;ncaabucf;ncaafucf",
    "Name": "Hero",
    "Address": "3090 Olive St, Dallas, TX 75219",
    "City": "DAL",
    "State": "TX",
    "latitude": 32.7892819,
    "longitude": -96.8098672,
    "Phone": "469-300-4199",
    "Website": "http://www.herobyhg.com/"
  },
  {
    "Teams": "ncaabark;ncaafark;ncaabcle;ncaafcle;ncaabduke;ncaafduke;ncaabksu;ncaafksu;ncaabminn;ncaafminn;ncaabmiss;ncaafmiss;ncaabwmu;ncaafwmu",
    "Name": "Ross & Hall Beer Garten + Kitchen",
    "Address": "3300 Ross Ave, Dallas, TX 75204",
    "City": "DAL",
    "State": "TX",
    "latitude": 32.7953618,
    "longitude": -96.7886773,
    "Phone": "214-301-0973",
    "Website": "https://www.rossandhall.com/"
  },
  {
    "Teams": "nflcar;ncaabmiz;ncaafmiz",
    "Name": "Harwood Tavern- Sports Bar",
    "Address": "333 S Harwood St, Dallas, TX 75201",
    "City": "DAL",
    "State": "TX",
    "latitude": 32.7797176,
    "longitude": -96.7937385,
    "Phone": "469-899-7904",
    "Website": "http://harwoodtaverndallas.com/"
  },
  {
    "Teams": "nhldal",
    "Name": "Snuffer's Restaurant & Bar",
    "Address": "3526 Greenville Ave, Dallas, TX 75206",
    "City": "DAL",
    "State": "TX",
    "latitude": 32.8310513,
    "longitude": -96.7699716,
    "Phone": "214-826-6850",
    "Website": "http://www.snuffers.com/"
  },
  {
    "Teams": "nflmin",
    "Name": "Craft and Growler",
    "Address": "3601 Parry Ave, Dallas, TX 75226",
    "City": "DAL",
    "State": "TX",
    "latitude": 32.781429,
    "longitude": -96.7667691,
    "Phone": "214-821-1122",
    "Website": "http://www.craftandgrowler.com/"
  },
  {
    "Teams": "nflne;nflnyg;ncaabwvu;ncaafwvu",
    "Name": "Buffalo Joe's Bar & Grill",
    "Address": "3636 Frankford Rd #390, Dallas, TX 75287",
    "City": "DAL",
    "State": "TX",
    "latitude": 32.9958442,
    "longitude": -96.8533811,
    "Phone": "214-483-5225",
    "Website": "http://www.thebuffalojoes.com/"
  },
  {
    "Teams": "ncaabku;ncaafku",
    "Name": "18th & Vine",
    "Address": "4100 Maple Ave, Dallas, TX 75219",
    "City": "DAL",
    "State": "TX",
    "latitude": 32.8067726,
    "longitude": -96.8167814,
    "Phone": "214-443-8335",
    "Website": "http://www.18thandvinebbq.com/"
  },
  {
    "Teams": "nfldal",
    "Name": "Cedar Springs Tap House",
    "Address": "4123 Cedar Springs Rd #100, Dallas, TX 75219",
    "City": "DAL",
    "State": "TX",
    "latitude": 32.8117714,
    "longitude": -96.8125072,
    "Phone": "214-377-7446",
    "Website": "http://www.cedarspringstaphouse.com/"
  },
  {
    "Teams": "ncaabminn;ncaafminn",
    "Name": "Buffalo Wild Wings",
    "Address": "4140 Lemmon Ave #176, Dallas, TX 75219",
    "City": "DAL",
    "State": "TX",
    "latitude": 32.8153535,
    "longitude": -96.8091028,
    "Phone": "214-520-7067",
    "Website": "https://buffalowildwings.com/en"
  },
  {
    "Teams": "ncaabbc;ncaafbc;ncaabiowa;ncaafiowa",
    "Name": "Bryan Street Tavern",
    "Address": "4315 Bryan St, Dallas, TX 75204",
    "City": "DAL",
    "State": "TX",
    "latitude": 32.7996783,
    "longitude": -96.7792301,
    "Phone": "214-821-4447",
    "Website": "http://www.bryanstreettavern.com/"
  },
  {
    "Teams": "ncaabark;ncaafark;nflcle",
    "Name": "Knox Street Pub & Grill",
    "Address": "4447 McKinney Ave, Dallas, TX 75205",
    "City": "DAL",
    "State": "TX",
    "latitude": 32.820996,
    "longitude": -96.788719,
    "Phone": "214-528-5100",
    "Website": "http://www.knoxstreetpub.com/"
  },
  {
    "Teams": "ncaabpsu;ncaafpsu;nflpit",
    "Name": "Malarkey's Tavern",
    "Address": "4460 Trinity Mills Rd, Dallas, TX 75287",
    "City": "DAL",
    "State": "TX",
    "latitude": 32.9897722,
    "longitude": -96.8311916,
    "Phone": "972-931-7300",
    "Website": "http://www.malarkeystavern.com/"
  },
  {
    "Teams": "ncaabaub;ncaafaub;ncaabvan;ncaafvan",
    "Name": "Chelsea Corner",
    "Address": "4830 McKinney Ave, Dallas, TX 75205",
    "City": "DAL",
    "State": "TX",
    "latitude": 32.8266409,
    "longitude": -96.7851315,
    "Phone": "469-726-2211",
    "Website": "http://www.chelseacornerdallas.com/"
  },
  {
    "Teams": "mlbbos;ncaabumd;ncaafumd",
    "Name": "Buffalo Wild Wings",
    "Address": "5000 Belt Line Rd #100, Dallas, TX 75254",
    "City": "DAL",
    "State": "TX",
    "latitude": 32.9533862,
    "longitude": -96.8255836,
    "Phone": "972-701-9464",
    "Website": "https://www.buffalowildwings.com/en/locations/detail/100/"
  },
  {
    "Teams": "ncaabtxst;ncaaftxst;ncaabku;ncaafku;ncaabtlsa;ncaaftlsa",
    "Name": "Backyard - Dallas",
    "Address": "505 N Good Latimer Expy, Dallas, TX 75204",
    "City": "DAL",
    "State": "TX",
    "latitude": 32.785747,
    "longitude": -96.7889984,
    "Phone": "469-250-0873",
    "Website": "http://backyarddtx.com/"
  },
  {
    "Teams": "ncaabmoh;ncaafmoh;ncaabokst;ncaafokst;ncaabtem;ncaaftem",
    "Name": "Yard House",
    "Address": "5100 Belt Line Rd Ste 230, Dallas, TX 75254",
    "City": "DAL",
    "State": "TX",
    "latitude": 32.9504402,
    "longitude": -96.8197987,
    "Phone": "972-716-4004",
    "Website": "https://www.yardhouse.com/locations/tx/addison/addison-village-on-the-parkway/8355"
  },
  {
    "Teams": "ncaabmu",
    "Name": "Sidecar Social",
    "Address": "5100 Belt Line Rd, Dallas, TX 75254",
    "City": "DAL",
    "State": "TX",
    "latitude": 32.9505764,
    "longitude": -96.819093,
    "Phone": "214-272-3950",
    "Website": "http://sidecarsocial.com/"
  },
  {
    "Teams": "nfldal",
    "Name": "Time Out Tavern Sports Bar - The Dallas Sports Bar",
    "Address": "5101 W Lovers Ln, Dallas, TX 75209",
    "City": "DAL",
    "State": "TX",
    "latitude": 32.8513956,
    "longitude": -96.8239003,
    "Phone": "214-956-9552",
    "Website": "http://www.totdfw.com/"
  },
  {
    "Teams": "mlsdal",
    "Name": "Twin Peaks",
    "Address": "5260 Belt Line Rd, Dallas, TX 75254",
    "City": "DAL",
    "State": "TX",
    "latitude": 32.9535765,
    "longitude": -96.819347,
    "Phone": "972-503-7325",
    "Website": "https://twinpeaksrestaurant.com/locations/addison-tx"
  },
  {
    "Teams": "ncaabcolo;ncaafcolo;ncaabcsu;ncaafcsu;ncaabneb;ncaafneb;ncaabvu",
    "Name": "Old Chicago Pizza and Taproom",
    "Address": "5319 E Mockingbird Ln #100, Dallas, TX 75206",
    "City": "DAL",
    "State": "TX",
    "latitude": 32.8385022,
    "longitude": -96.7766343,
    "Phone": "214-821-5700",
    "Website": "http://www.oldchicago.com/locations/mockingbird-station"
  },
  {
    "Teams": "ncaabcin;ncaafcin;ncaabucla;ncaafucla",
    "Name": "Old Chicago Pizza and Taproom",
    "Address": "5319 E Mockingbird Ln, Dallas, TX 75206",
    "City": "DAL",
    "State": "TX",
    "latitude": 32.8385022,
    "longitude": -96.7766343,
    "Phone": "214-821-5700",
    "Website": "http://www.oldchicago.com/locations/mockingbird-station"
  },
  {
    "Teams": "mlsdal;ncaabvt;ncaafvt",
    "Name": "Twin Peaks",
    "Address": "5321 E Mockingbird Ln #240, Dallas, TX 75206",
    "City": "DAL",
    "State": "TX",
    "latitude": 32.8381689,
    "longitude": -96.7756408,
    "Phone": "469-206-3678",
    "Website": "https://twinpeaksrestaurant.com/locations/mockingbird-station-tx"
  },
  {
    "Teams": "mlsdal",
    "Name": "Trinity Hall Irish Pub & Restaurant",
    "Address": "5321 E Mockingbird Ln #250, Dallas, TX 75206",
    "City": "DAL",
    "State": "TX",
    "latitude": 32.8381122,
    "longitude": -96.7757228,
    "Phone": "214-887-3600",
    "Website": "http://www.trinityhall.tv/"
  },
  {
    "Teams": "nfldal;nbadal;nhldal;ncaabmoh;ncaafmoh;ncaabmia;ncaafmia;mlbtex;ncaabusc;ncaafusc",
    "Name": "The Owners Box",
    "Address": "555 S Lamar St, Dallas, TX 75202",
    "City": "DAL",
    "State": "TX",
    "latitude": 32.7749411,
    "longitude": -96.8036528,
    "Phone": "214-652-4805",
    "Website": "https://www.omnihotels.com/hotels/dallas/dining/restaurants-on-lamar/the-owners-box"
  },
  {
    "Teams": "ncaabxu",
    "Name": "Barley House",
    "Address": "5612 SMU Boulevard, Dallas, TX 75206",
    "City": "DAL",
    "State": "TX",
    "latitude": 32.8417767,
    "longitude": -96.7719833,
    "Phone": "214-824-0306",
    "Website": "http://www.barleyhouse.com/"
  },
  {
    "Teams": "ncaabsmu;ncaafsmu;mlbtex",
    "Name": "Milo Butterfingers",
    "Address": "5645 SMU Boulevard, Dallas, TX 75206",
    "City": "DAL",
    "State": "TX",
    "latitude": 32.8423165,
    "longitude": -96.7707359,
    "Phone": "214-368-9212",
    "Website": "http://www.milobutterfingers.com/"
  },
  {
    "Teams": "ncaabmia;ncaafmia",
    "Name": "Biergarten",
    "Address": "665 S Lamar St #1, Dallas, TX 75202",
    "City": "DAL",
    "State": "TX",
    "latitude": 32.7755872,
    "longitude": -96.8034484,
    "Phone": "214-749-0101",
    "Website": "https://www.omnihotels.com/hotels/dallas/dining/restaurants-on-lamar"
  },
  {
    "Teams": "ncaabstan;ncaafstan",
    "Name": "District 9 Draught Haus",
    "Address": "718 N Buckner Blvd Suite 215, Dallas, TX 75218",
    "City": "DAL",
    "State": "TX",
    "latitude": 32.8463456,
    "longitude": -96.7108124,
    "Phone": "469-709-9993",
    "Website": "http://district9dh.com/"
  },
  {
    "Teams": "ncaabpit;ncaafpit",
    "Name": "White Rock Alehouse & Brewery",
    "Address": "7331 Gaston Ave #100, Dallas, TX 75214",
    "City": "DAL",
    "State": "TX",
    "latitude": 32.8136619,
    "longitude": -96.7301365,
    "Phone": "214-989-7570",
    "Website": "http://whiterockalehouse.com/"
  },
  {
    "Teams": "ncaabstan;ncaafstan",
    "Name": "Rockfish Seafood Grill",
    "Address": "7639 Campbell Rd #800, Dallas, TX 75248",
    "City": "DAL",
    "State": "TX",
    "latitude": 32.9790728,
    "longitude": -96.7686255,
    "Phone": "972-267-8979",
    "Website": "http://www.rockfish.com/"
  },
  {
    "Teams": "ncaabcsu;ncaafcsu;ncaabmia;ncaafmia",
    "Name": "Dave & Buster's",
    "Address": "9450 N Central Expy, Dallas, TX 75231",
    "City": "DAL",
    "State": "TX",
    "latitude": 32.8773104,
    "longitude": -96.7691815,
    "Phone": "214-361-5553",
    "Website": "https://www.daveandbusters.com/locations/dallas"
  },
  {
    "Teams": "ncaabbama;ncaafbama;ncaabtex;ncaaftex",
    "Name": "HQ Prime Beer Garden",
    "Address": "9810 N Central Expy suite 600, Dallas, TX 75231",
    "City": "DAL",
    "State": "TX",
    "latitude": 32.8813594,
    "longitude": -96.7691562,
    "Phone": "214-368-7427",
    "Website": "https://www.hqprime.com/"
  },
  {
    "Teams": "nfldal;ncaabunt;ncaafunt",
    "Name": "East Side Denton",
    "Address": "117 E Oak St, Denton, TX 76201",
    "City": "DAL",
    "State": "TX",
    "latitude": 33.2157479,
    "longitude": -97.1315028,
    "Phone": "940-218-1401",
    "Website": "http://eastsidedenton.com/"
  },
  {
    "Teams": "mlsdal;ncaabunt;ncaafunt",
    "Name": "Lucky Lou's",
    "Address": "1207 W Hickory St, Denton, TX 76201",
    "City": "DAL",
    "State": "TX",
    "latitude": 33.2144001,
    "longitude": -97.1453689,
    "Phone": "940-484-5550",
    "Website": "http://luckylousdenton.com/"
  },
  {
    "Teams": "ncaabunt;ncaafunt",
    "Name": "Cool Beans",
    "Address": "1210 W Hickory St, Denton, TX 76201",
    "City": "DAL",
    "State": "TX",
    "latitude": 33.214729,
    "longitude": -97.1459206,
    "Phone": "940-382-7025",
    "Website": "http://coolbeansdenton.com/"
  },
  {
    "Teams": "ncaabunt;ncaafunt",
    "Name": "Alamo Drafthouse Cinema Denton",
    "Address": "3220 Town Center Tr, Denton, TX 76201",
    "City": "DAL",
    "State": "TX",
    "latitude": 33.2250657,
    "longitude": -97.1686006,
    "Phone": "940-220-4900",
    "Website": "https://drafthouse.com/dfw/theater/denton"
  },
  {
    "Teams": "ncaabtex;ncaaftex",
    "Name": "The Dive",
    "Address": "3350 Unicorn Lake Blvd, Denton, TX 76210",
    "City": "DAL",
    "State": "TX",
    "latitude": 33.17127,
    "longitude": -97.0967026,
    "Phone": "940-320-3483",
    "Website": "http://www.thedivetexas.com/"
  },
  {
    "Teams": "mlsdal",
    "Name": "Backyard On Bell",
    "Address": "410 N Bell Ave, Denton, TX 76209",
    "City": "DAL",
    "State": "TX",
    "latitude": 33.2169131,
    "longitude": -97.1276145,
    "Phone": "940-243-4990",
    "Website": "http://www.backyardonbell.com/"
  },
  {
    "Teams": "ncaabokst;ncaafokst",
    "Name": "Horny Toad Cafe & Bar",
    "Address": "5812 I-35, Denton, TX 76207",
    "City": "DAL",
    "State": "TX",
    "latitude": 33.2540018,
    "longitude": -97.1765114,
    "Phone": "940-383-2150",
    "Website": "http://hornytoadcafe.com/"
  },
  {
    "Teams": "ncaabtamu;ncaaftamu",
    "Name": "State Draft House & Craft Kitchen",
    "Address": "1050 Flower Mound Rd #280, Flower Mound, TX 75028",
    "City": "DAL",
    "State": "TX",
    "latitude": 33.011696,
    "longitude": -97.044171,
    "Phone": "972-410-0445",
    "Website": "http://www.statedraft.com/"
  },
  {
    "Teams": "ncaabku;ncaafku;ncaabsyr;ncaafsyr;ncaabttu;ncaafttu",
    "Name": "Reservoir",
    "Address": "1001 Foch St, Fort Worth, TX 76107",
    "City": "DAL",
    "State": "TX",
    "latitude": 32.7489375,
    "longitude": -97.3561383,
    "Phone": "817-334-0560",
    "Website": "http://www.bar-reservoir.com/"
  },
  {
    "Teams": "ncaabaub;ncaafaub;ncaabokst;ncaafokst",
    "Name": "Varsity Tavern",
    "Address": "1005 Norwood St, Fort Worth, TX 76107",
    "City": "DAL",
    "State": "TX",
    "latitude": 32.7489486,
    "longitude": -97.3599848,
    "Phone": "817-882-6699",
    "Website": "http://www.varsitytavern.com/"
  },
  {
    "Teams": "ncaabttu;ncaafttu",
    "Name": "Chimy's",
    "Address": "1053 Foch St, Fort Worth, TX 76107",
    "City": "DAL",
    "State": "TX",
    "latitude": 32.7490785,
    "longitude": -97.3556287,
    "Phone": "817-348-8888",
    "Website": "http://www.chimys.com/"
  },
  {
    "Teams": "nfldal;nbadal",
    "Name": "No Frills Grill & Sports Bar - Fort Worth",
    "Address": "1550 Eastchase Pkwy #1200, Fort Worth, TX 76120",
    "City": "DAL",
    "State": "TX",
    "latitude": 32.756649,
    "longitude": -97.169763,
    "Phone": "817-274-5433",
    "Website": "http://www.nofrillsgrill.com/"
  },
  {
    "Teams": "ncaabtcu;ncaaftcu",
    "Name": "Rogers Roundhouse",
    "Address": "1616 Rogers Rd, Fort Worth, TX 76107",
    "City": "DAL",
    "State": "TX",
    "latitude": 32.7273117,
    "longitude": -97.3653602,
    "Phone": "817-367-9348",
    "Website": "http://www.rogersroundhouse.com/"
  },
  {
    "Teams": "ncaabunt;ncaafunt",
    "Name": "The Boardroom Whisky and Cigar Lounge",
    "Address": "1708 8th Ave, Fort Worth, TX 76110",
    "City": "DAL",
    "State": "TX",
    "latitude": 32.7262719,
    "longitude": -97.3439991,
    "Phone": "817-945-2975",
    "Website": ""
  },
  {
    "Teams": "mlbtex",
    "Name": "T&P Tavern",
    "Address": "221 W Lancaster Ave, Fort Worth, TX 76102",
    "City": "DAL",
    "State": "TX",
    "latitude": 32.7456787,
    "longitude": -97.3276527,
    "Phone": "817-885-8878",
    "Website": "http://www.tptavern.com/"
  },
  {
    "Teams": "ncaabark;ncaafark;ncaabuga;ncaafuga;ncaabwsu;ncaafwsu",
    "Name": "BoomerJack's Grill & Bar - 7th Street",
    "Address": "2600 W 7th St, Fort Worth, TX 76107",
    "City": "DAL",
    "State": "TX",
    "latitude": 32.7519967,
    "longitude": -97.3530701,
    "Phone": "817-810-2666",
    "Website": "http://www.boomerjacks.com/"
  },
  {
    "Teams": "mlsdal;ncaabtamu;ncaaftamu",
    "Name": "The Abbey Pub",
    "Address": "2710 W 7th St, Fort Worth, TX 76107",
    "City": "DAL",
    "State": "TX",
    "latitude": 32.7513824,
    "longitude": -97.3552692,
    "Phone": "817-810-9930",
    "Website": "http://www.abbey-pub.com/"
  },
  {
    "Teams": "ncaabasu;ncaafasu;nflbuf;ncaabbuff;ncaafbuff;ncaabsyr;ncaafsyr",
    "Name": "Buffalo Brothers",
    "Address": "3015 S University Dr, Fort Worth, TX 76109",
    "City": "DAL",
    "State": "TX",
    "latitude": 32.707181,
    "longitude": -97.3601423,
    "Phone": "817-386-9601",
    "Website": "http://www.buffalobrostexas.com/"
  },
  {
    "Teams": "ncaabtex;ncaaftex",
    "Name": "World of Beer",
    "Address": "3252 W 7th St, Fort Worth, TX 76107",
    "City": "DAL",
    "State": "TX",
    "latitude": 32.7515845,
    "longitude": -97.3642853,
    "Phone": "682-708-7021",
    "Website": "http://worldofbeer.com/Locations/FortWorth"
  },
  {
    "Teams": "ncaabtcu;ncaaftcu",
    "Name": "Fred's Texas Cafe",
    "Address": "35059 Blue Bonnet Cir, Fort Worth, TX 76109",
    "City": "DAL",
    "State": "TX",
    "latitude": 32.6984876,
    "longitude": -97.359607,
    "Phone": "817-916-4650",
    "Website": "http://fredstexascafe.com/"
  },
  {
    "Teams": "ncaabwsu;ncaafwsu",
    "Name": "Buffalo Bros Sundance Square",
    "Address": "415 Throckmorton St, Fort Worth, TX 76107",
    "City": "DAL",
    "State": "TX",
    "latitude": 32.7539503,
    "longitude": -97.3327168,
    "Phone": "817-887-9533",
    "Website": "http://www.buffalobrostexas.com/"
  },
  {
    "Teams": "ncaabokst;ncaafokst",
    "Name": "BJ's Restaurant & Brewhouse",
    "Address": "4720 S Hulen St, Fort Worth, TX 76132",
    "City": "DAL",
    "State": "TX",
    "latitude": 32.677962,
    "longitude": -97.3971622,
    "Phone": "817-292-9200",
    "Website": "https://www.bjsrestaurants.com/locations/tx/hulen-mall"
  },
  {
    "Teams": "ncaabfsu;ncaaffsu;ncaabosu;ncaafosu;nflpit",
    "Name": "Woody's Tavern",
    "Address": "4744 Bryant Irvin Rd # 946, Fort Worth, TX 76132",
    "City": "DAL",
    "State": "TX",
    "latitude": 32.6794843,
    "longitude": -97.4172944,
    "Phone": "817-732-4936",
    "Website": "http://www.woodystaverntexas.com/"
  },
  {
    "Teams": "ncaabksu;ncaafksu;ncaabokst;ncaafokst",
    "Name": "Pinstripes",
    "Address": "5001 Trailhead Bend Way, Fort Worth, TX 76109",
    "City": "DAL",
    "State": "TX",
    "latitude": 32.7085851,
    "longitude": -97.401723,
    "Phone": "682-352-0808",
    "Website": "https://www.pinstripes.com/fort-worth-texas/"
  },
  {
    "Teams": "ncaabtcu;ncaaftcu",
    "Name": "City Works - Fort Worth",
    "Address": "5288 Monahans Avenue, Fort Worth, TX 76109",
    "City": "DAL",
    "State": "TX",
    "latitude": 32.7094031,
    "longitude": -97.4017721,
    "Phone": "682-207-1500",
    "Website": "https://www.cityworksrestaurant.com/fortworth/"
  },
  {
    "Teams": "ncaabmsst;ncaafmsst;ncaabpur;ncaafpur;ncaabuva;ncaafuva",
    "Name": "Buffalo Wild Wings",
    "Address": "5601 S Hulen St, Fort Worth, TX 76132",
    "City": "DAL",
    "State": "TX",
    "latitude": 32.6676768,
    "longitude": -97.3994341,
    "Phone": "817-423-2999",
    "Website": "https://www.buffalowildwings.com/en/locations/detail/196/"
  },
  {
    "Teams": "ncaabnd;ncaafnd",
    "Name": "Mama's Pizza",
    "Address": "5800 Camp Bowie Blvd, Fort Worth, TX 76107",
    "City": "DAL",
    "State": "TX",
    "latitude": 32.7315364,
    "longitude": -97.4105129,
    "Phone": "817-731-6262",
    "Website": "http://mamaspizzas.net/"
  },
  {
    "Teams": "ncaabgaso;ncaafgaso;ncaabmsst;ncaafmsst;ncaabneb;ncaafneb;nflpit;ncaabttu;ncaafttu",
    "Name": "Flips Patio Grill",
    "Address": "6580, 6613 Fossil Bluff Dr, Fort Worth, TX 76137",
    "City": "DAL",
    "State": "TX",
    "latitude": 32.861826,
    "longitude": -97.311444,
    "Phone": "817-847-4424",
    "Website": ""
  },
  {
    "Teams": "nflbuf",
    "Name": "Twin Peaks",
    "Address": "6650 N Fwy Service Rd E, Fort Worth, TX 76137",
    "City": "DAL",
    "State": "TX",
    "latitude": 32.8633557,
    "longitude": -97.313697,
    "Phone": "817-766-7462",
    "Website": "https://twinpeaksrestaurant.com/locations/fort-worth-fossil-creek-tx"
  },
  {
    "Teams": "ncaabtenn;ncaaftenn;mlbtex",
    "Name": "BoomerJack's Grill & Bar - North Fort Worth",
    "Address": "6701 Fossil Bluff Dr, Fort Worth, TX 76137",
    "City": "DAL",
    "State": "TX",
    "latitude": 32.862895,
    "longitude": -97.313006,
    "Phone": "817-232-9627",
    "Website": "http://www.boomerjacks.com/"
  },
  {
    "Teams": "ncaabmiz;ncaafmiz",
    "Name": "The Social House",
    "Address": "840 Currie St, Fort Worth, TX 76107",
    "City": "DAL",
    "State": "TX",
    "latitude": 32.7502652,
    "longitude": -97.3585235,
    "Phone": "817-820-1510",
    "Website": "https://www.socialhousefortworth.com/"
  },
  {
    "Teams": "ncaabuf;ncaafuf;ncaabrice;ncaafrice;ncaabwis;ncaafwis",
    "Name": "The Brass Tap",
    "Address": "901 Houston St, Fort Worth, TX 76102",
    "City": "DAL",
    "State": "TX",
    "latitude": 32.7516295,
    "longitude": -97.3299264,
    "Phone": "817-870-3838",
    "Website": ""
  },
  {
    "Teams": "ncaabmich;ncaafmich;ncaabtcu;ncaaftcu",
    "Name": "Houston Street Bar & Patio",
    "Address": "902 Houston St, Fort Worth, TX 76102",
    "City": "DAL",
    "State": "TX",
    "latitude": 32.7514652,
    "longitude": -97.3303159,
    "Phone": "817-877-4727",
    "Website": "http://houstonstbarfw.com/"
  },
  {
    "Teams": "ncaabtenn;ncaaftenn",
    "Name": "Plucker's Wing Bar",
    "Address": "9229 Rain Lily Trail, Fort Worth, TX 76177",
    "City": "DAL",
    "State": "TX",
    "latitude": 32.9060181,
    "longitude": -97.3155947,
    "Phone": "817-750-2473",
    "Website": "http://www.pluckers.com/"
  },
  {
    "Teams": "ncaabttu;ncaafttu",
    "Name": "Texas Republic",
    "Address": "945 Foch St, Fort Worth, TX 76107",
    "City": "DAL",
    "State": "TX",
    "latitude": 32.7492374,
    "longitude": -97.3560841,
    "Phone": "817-887-9797",
    "Website": "http://www.texasrepublicfw.com/"
  },
  {
    "Teams": "ncaabvt;ncaafvt",
    "Name": "Twin Peaks South Fort Worth",
    "Address": "sw, 5651 SW Loop 820, Fort Worth, TX 76132",
    "City": "DAL",
    "State": "TX",
    "latitude": 32.6815376,
    "longitude": -97.4097595,
    "Phone": "817-370-7716",
    "Website": "https://twinpeaksrestaurant.com/locations/south-fort-worth-tx"
  },
  {
    "Teams": "ncaabucla;ncaafucla",
    "Name": "Bottlecap Alley Icehouse Grill",
    "Address": "1469 TX-114, Grapevine, TX 76051",
    "City": "DAL",
    "State": "TX",
    "latitude": 32.9309356,
    "longitude": -97.0913562,
    "Phone": "817-305-0025",
    "Website": "http://www.bottlecapalley.com/index.php"
  },
  {
    "Teams": "nflgb;nflno;ncaabttu;ncaafttu",
    "Name": "Pluckers Wing Bar",
    "Address": "1709 Cross Roads Dr, Grapevine, TX 76051",
    "City": "DAL",
    "State": "TX",
    "latitude": 32.9225556,
    "longitude": -97.0879575,
    "Phone": "817-416-2473",
    "Website": "http://www.pluckers.com/posts/location/grapevine/"
  },
  {
    "Teams": "ncaabbama;ncaafbama",
    "Name": "Hilton DFW Lakes Executive Conference Center",
    "Address": "1800 Highway 26E, Grapevine, TX 76051",
    "City": "DAL",
    "State": "TX",
    "latitude": 32.9594673,
    "longitude": -97.0469034,
    "Phone": "817-481-8444",
    "Website": "http://www3.hilton.com/en/hotels/texas/hilton-dfw-lakes-executive-conference-center-DFWAHHF/index.html"
  },
  {
    "Teams": "ncaabtamu;ncaaftamu",
    "Name": "Wise Guys Pizzeria",
    "Address": "322 S Park Blvd, Grapevine, TX 76051",
    "City": "DAL",
    "State": "TX",
    "latitude": 32.9385852,
    "longitude": -97.0982977,
    "Phone": "817-488-0001",
    "Website": "http://www.wiseguystx.com/"
  },
  {
    "Teams": "ncaabttu;ncaafttu",
    "Name": "Chill Sports Bar & Grill",
    "Address": "814 S Main St, Grapevine, TX 76051",
    "City": "DAL",
    "State": "TX",
    "latitude": 32.9330934,
    "longitude": -97.0786242,
    "Phone": "817-310-0004",
    "Website": "http://www.chillgrapevine.com/"
  },
  {
    "Teams": "nhldal",
    "Name": "Snuffer's Restaurant and Bar - Greenville",
    "Address": "3104 I-30 Frontage Rd, Greenville, TX 75402",
    "City": "DAL",
    "State": "TX",
    "latitude": 33.0971379,
    "longitude": -96.1112986,
    "Phone": "903-458-9435",
    "Website": "http://www.snuffers.com/"
  },
  {
    "Teams": "nhldal",
    "Name": "Snuffer's Restaurant & Bar - Highland Village",
    "Address": "4050 Barton Creek #100, Highland Village, TX 75077",
    "City": "DAL",
    "State": "TX",
    "latitude": 33.0751206,
    "longitude": -97.0850207,
    "Phone": "972-317-9111",
    "Website": "http://www.snuffers.com/"
  },
  {
    "Teams": "nfloak",
    "Name": "Mattito's",
    "Address": "1001 MacArthur Park, Irving, TX 75063",
    "City": "DAL",
    "State": "TX",
    "latitude": 32.9148471,
    "longitude": -96.9626203,
    "Phone": "214-379-0165",
    "Website": "https://mattitos.com/locations/las-colinas/"
  },
  {
    "Teams": "ncaabttu;ncaafttu",
    "Name": "Cool River",
    "Address": "1045 Hidden Ridge, Irving, TX 75038",
    "City": "DAL",
    "State": "TX",
    "latitude": 32.877601,
    "longitude": -96.962312,
    "Phone": "972-871-8881",
    "Website": "http://www.coolrivercafe.com/"
  },
  {
    "Teams": "ncaabokst;ncaafokst",
    "Name": "Boston's Restaurant & Sports Bar",
    "Address": "1100 Market Pl Blvd, Irving, TX 75063",
    "City": "DAL",
    "State": "TX",
    "latitude": 32.9178633,
    "longitude": -96.9628175,
    "Phone": "972-869-2210",
    "Website": ""
  },
  {
    "Teams": "ncaabaub;ncaafaub",
    "Name": "Buffalo Wild Wings",
    "Address": "1200 Market Pl Blvd, Irving, TX 75063",
    "City": "DAL",
    "State": "TX",
    "latitude": 32.9179169,
    "longitude": -96.9634705,
    "Phone": "972-432-0011",
    "Website": "https://www.buffalowildwings.com/en/locations/detail/103/"
  },
  {
    "Teams": "ncaabcin;ncaafcin",
    "Name": "54th Street Restaurant & Drafthouse",
    "Address": "1850 Market Pl Blvd, Irving, TX 75063",
    "City": "DAL",
    "State": "TX",
    "latitude": 32.9197087,
    "longitude": -96.9725568,
    "Phone": "972-556-1154",
    "Website": "http://www.54thstreetgrill.com/irving-tx.html"
  },
  {
    "Teams": "ncaabpur;ncaafpur",
    "Name": "Walk-On's Bistreaux and Bar",
    "Address": "3165 Regent Blvd, Irving, TX 75063",
    "City": "DAL",
    "State": "TX",
    "latitude": 32.9200758,
    "longitude": -96.9848509,
    "Phone": "469-779-2500",
    "Website": "http://www.walk-ons.com/"
  },
  {
    "Teams": "ncaabind;ncaafind;ncaabmsst;ncaafmsst",
    "Name": "Thirsty Lion Gastropub & Grill - Music Factory",
    "Address": "350 West Las Colinas Boulevard, Irving, TX 75039",
    "City": "DAL",
    "State": "TX",
    "latitude": 32.8753692,
    "longitude": -96.9439539,
    "Phone": "214-496-0400",
    "Website": "http://www.thirstyliongastropub.com/"
  },
  {
    "Teams": "ncaabgt;ncaafgt",
    "Name": "Champps",
    "Address": "855 W John Carpenter Fwy, Irving, TX 75039",
    "City": "DAL",
    "State": "TX",
    "latitude": 32.889084,
    "longitude": -96.958062,
    "Phone": "972-373-0333",
    "Website": "https://champps.com/"
  },
  {
    "Teams": "ncaabtex;ncaaftex",
    "Name": "The Local Watering Hole",
    "Address": "1632 Keller Pkwy #100, Keller, TX 76248",
    "City": "DAL",
    "State": "TX",
    "latitude": 32.934022,
    "longitude": -97.2147349,
    "Phone": "817-431-3203",
    "Website": "http://www.thelocalwateringhole.com/"
  },
  {
    "Teams": "nbadal;nflne",
    "Name": "No Frills Grill & Sports Bar - Keller",
    "Address": "7020, 801 S Main St #109, Keller, TX 76248",
    "City": "DAL",
    "State": "TX",
    "latitude": 32.92131,
    "longitude": -97.253528,
    "Phone": "817-741-6344",
    "Website": "http://www.nofrillsgrill.com/"
  },
  {
    "Teams": "nfldal;nbadal;nhldal;mlsdal;ncaabksu;ncaafksu;ncaabokst;ncaafokst;nbasas;ncaabtamu;ncaaftamu;ncaabtex;ncaaftex;mlbtex",
    "Name": "Shannon Brewing Company",
    "Address": "818 N Main St, Keller, TX 76248",
    "City": "DAL",
    "State": "TX",
    "latitude": 32.9468965,
    "longitude": -97.251109,
    "Phone": "817-337-9892",
    "Website": "http://shannonbrewing.com/"
  },
  {
    "Teams": "nhldal",
    "Name": "Rusty Beagle",
    "Address": "1301 FM 407 #109, Lewisville, TX 75077",
    "City": "DAL",
    "State": "TX",
    "latitude": 33.071798,
    "longitude": -97.0284204,
    "Phone": "972-317-1682",
    "Website": "http://rustybeagle.com/"
  },
  {
    "Teams": "nflphi",
    "Name": "T's Bar & Grill",
    "Address": "1305 South State Hwy 121 #430, Lewisville, TX 75067",
    "City": "DAL",
    "State": "TX",
    "latitude": 33.0249568,
    "longitude": -96.9945762,
    "Phone": "972-219-1654",
    "Website": "http://tsbarandgrill.com/"
  },
  {
    "Teams": "ncaabneb;ncaafneb",
    "Name": "Vitty's Sports Bar",
    "Address": "1402 Justin Rd, Lewisville, TX 75077",
    "City": "DAL",
    "State": "TX",
    "latitude": 33.0711131,
    "longitude": -97.0316562,
    "Phone": "972-317-2233",
    "Website": ""
  },
  {
    "Teams": "ncaabiowa;ncaafiowa;ncaabunt;ncaafunt",
    "Name": "Buffalo Wild Wings",
    "Address": "2613 S Stemmons Fwy, Lewisville, TX 75067",
    "City": "DAL",
    "State": "TX",
    "latitude": 32.9998226,
    "longitude": -96.9615768,
    "Phone": "214-488-3700",
    "Website": "http://buffalowildwings.com/"
  },
  {
    "Teams": "ncaablt;ncaaflt",
    "Name": "Rotolo's Pizzeria",
    "Address": "4740 TX-121 #900, Lewisville, TX 75056",
    "City": "DAL",
    "State": "TX",
    "latitude": 33.0628805,
    "longitude": -96.8862089,
    "Phone": "214-494-6677",
    "Website": "http://www.rotolos.com/"
  },
  {
    "Teams": "mlbbos;nflne;ncaabtex;ncaaftex",
    "Name": "The Wild Turkey Lewsville",
    "Address": "755 TX-121 BUS, Lewisville, TX 75057",
    "City": "DAL",
    "State": "TX",
    "latitude": 32.995546,
    "longitude": -96.967283,
    "Phone": "214-488-5359",
    "Website": "http://thewildturkeyrestaurants.com/"
  },
  {
    "Teams": "nbadal",
    "Name": "No Frills Grill & Sports Bar - Mansfield",
    "Address": "2851 Matlock Rd #422, Mansfield, TX 76063",
    "City": "DAL",
    "State": "TX",
    "latitude": 32.604437,
    "longitude": -97.115943,
    "Phone": "817-473-6699",
    "Website": "http://www.nofrillsgrill.com/"
  },
  {
    "Teams": "ncaabosu;ncaafosu;ncaabttu;ncaafttu",
    "Name": "E.J. Wills Gastropub",
    "Address": "1910 N Stonebridge Dr Suite 100, McKinney, TX 75071",
    "City": "DAL",
    "State": "TX",
    "latitude": 33.2175869,
    "longitude": -96.7207804,
    "Phone": "214-592-0145",
    "Website": "http://ejwillsgastropub.com/"
  },
  {
    "Teams": "ncaabokst;ncaafokst;ncaabtamu;ncaaftamu",
    "Name": "Dempsey's Place",
    "Address": "310 E Louisiana St, McKinney, TX 75069",
    "City": "DAL",
    "State": "TX",
    "latitude": 33.1970972,
    "longitude": -96.6129263,
    "Phone": "214-842-8811",
    "Website": "http://www.dempseysmckinney.com/"
  },
  {
    "Teams": "ncaabosu;ncaafosu;ncaabtamu;ncaaftamu",
    "Name": "Delaney's Irish Pub & Scratch Kitchen",
    "Address": "6150 Eldorado Pkwy #120, McKinney, TX 75070",
    "City": "DAL",
    "State": "TX",
    "latitude": 33.175963,
    "longitude": -96.696766,
    "Phone": "972-547-2222",
    "Website": "http://www.delaneystx.com/"
  },
  {
    "Teams": "mlsdal",
    "Name": "TUPPS Brewery",
    "Address": "721 Anderson St, McKinney, TX 75069",
    "City": "DAL",
    "State": "TX",
    "latitude": 33.1838485,
    "longitude": -96.6101386,
    "Phone": "214-856-7996",
    "Website": "http://www.tuppsbrewery.com/"
  },
  {
    "Teams": "ncaabttu;ncaafttu",
    "Name": "EJ Wills Gastropub",
    "Address": "McKinney, TX 75071",
    "City": "DAL",
    "State": "TX 75071",
    "latitude": 33.2173941,
    "longitude": -96.7206971,
    "Phone": "972-905-5801",
    "Website": "http://ejwillsgastropub.com/"
  },
  {
    "Teams": "nhldal;ncaabuga;ncaafuga",
    "Name": "Brix Bar & Grill",
    "Address": "1410 K Ave #1109a, Plano, TX 75074",
    "City": "DAL",
    "State": "TX",
    "latitude": 33.0190233,
    "longitude": -96.6990824,
    "Phone": "972-509-2749",
    "Website": "http://www.brixbarandgrill.com/"
  },
  {
    "Teams": "mlsdal",
    "Name": "Twin Peaks Plano",
    "Address": "1700 N Central Expy, Plano, TX 75074",
    "City": "DAL",
    "State": "TX",
    "latitude": 33.0234735,
    "longitude": -96.7090461,
    "Phone": "972-881-1601",
    "Website": "https://twinpeaksrestaurant.com/locations/plano-tx"
  },
  {
    "Teams": "nfldal;mlbhou",
    "Name": "THE FRANCHISE Grill & Bar",
    "Address": "3000 Custer Rd #345, Plano, TX 75075",
    "City": "DAL",
    "State": "TX",
    "latitude": 33.0384945,
    "longitude": -96.7329525,
    "Phone": "972-599-7598",
    "Website": "http://franchisegrill.com/"
  },
  {
    "Teams": "ncaabtenn;ncaaftenn",
    "Name": "Plucker's Wing Bar",
    "Address": "3316 Preston Rd, Plano, TX 75093",
    "City": "DAL",
    "State": "TX",
    "latitude": 33.0434558,
    "longitude": -96.7937929,
    "Phone": "972-599-9464",
    "Website": "http://www.pluckers.com/"
  },
  {
    "Teams": "ncaabaub;ncaafaub",
    "Name": "Buffalo Wild Wings",
    "Address": "3625 Central Expy #100, Plano, TX 75023",
    "City": "DAL",
    "State": "TX",
    "latitude": 33.0463352,
    "longitude": -96.7007563,
    "Phone": "469-467-9464",
    "Website": "https://buffalowildwings.com/en/locations/detail/141/"
  },
  {
    "Teams": "mlsdal",
    "Name": "Brick House Tavern + Tap",
    "Address": "4900 W Park Blvd, Plano, TX 75093",
    "City": "DAL",
    "State": "TX",
    "latitude": 33.026493,
    "longitude": -96.792652,
    "Phone": "972-596-0916",
    "Website": "http://brickhousetavernandtap.com/"
  },
  {
    "Teams": "nhldal",
    "Name": "Snuffer's Restaurant & Bar",
    "Address": "4901 W Park Blvd #521, Plano, TX 75093",
    "City": "DAL",
    "State": "TX",
    "latitude": 33.0274474,
    "longitude": -96.7927882,
    "Phone": "972-372-0782",
    "Website": "http://snuffers.com/"
  },
  {
    "Teams": "nhldal",
    "Name": "Tight Ends Sports Bar & Grill",
    "Address": "5584 TX-121, Plano, TX 75024",
    "City": "DAL",
    "State": "TX",
    "latitude": 33.0926157,
    "longitude": -96.8130362,
    "Phone": "469-850-6796",
    "Website": "http://tightendssportsbar.net/"
  },
  {
    "Teams": "nfldal;mlsdal;ncaabmsu;ncaafmsu",
    "Name": "Scruffy Duffies",
    "Address": "5865 Kincaid Rd E8, Plano, TX 75024",
    "City": "DAL",
    "State": "TX",
    "latitude": 33.0759903,
    "longitude": -96.8226007,
    "Phone": "972-312-9321",
    "Website": "http://scruffyduffies.com/"
  },
  {
    "Teams": "mlsdal",
    "Name": "Ringo's Pub",
    "Address": "5865 Kincaid Rd, Plano, TX 75024",
    "City": "DAL",
    "State": "TX",
    "latitude": 33.0761923,
    "longitude": -96.8225958,
    "Phone": "469-229-9103",
    "Website": "http://www.ringospub.net/"
  },
  {
    "Teams": "ncaabaub;ncaafaub;ncaabttu;ncaafttu",
    "Name": "Cafe Gecko",
    "Address": "6145 Windhaven Pkwy, Plano, TX 75093",
    "City": "DAL",
    "State": "TX",
    "latitude": 33.055349,
    "longitude": -96.8320725,
    "Phone": "972-797-7726",
    "Website": "http://www.cafegecko.net/"
  },
  {
    "Teams": "mlsdal",
    "Name": "The Ginger Man",
    "Address": "7205 Bishop Rd, Plano, TX 75024",
    "City": "DAL",
    "State": "TX",
    "latitude": 33.0765388,
    "longitude": -96.8217015,
    "Phone": "469-814-8299",
    "Website": "http://thegingerman.com/plano/"
  },
  {
    "Teams": "nfldal;ncaabfsu;ncaaffsu;ncaabuk;ncaafuk;ncaablsu;ncaaflsu;ncaabtamu;ncaaftamu;ncaabttu;ncaafttu;ncaabusc;ncaafusc",
    "Name": "ll Brothers Grill & Bar",
    "Address": "8308 Preston Rd #198, Plano, TX 75024",
    "City": "DAL",
    "State": "TX",
    "latitude": 33.0915124,
    "longitude": -96.8032756,
    "Phone": "972-712-8308",
    "Website": "http://www.iibrothers.com/"
  },
  {
    "Teams": "ncaabuk;ncaafuk;ncaabosu;ncaafosu;nflphi;nflwas",
    "Name": "Austin Avenue I Grill & Sports Bar",
    "Address": "935 W Parker Rd #410, Plano, TX 75023",
    "City": "DAL",
    "State": "TX",
    "latitude": 33.041398,
    "longitude": -96.715136,
    "Phone": "972-422-8003",
    "Website": "http://www.austinavenue.com/"
  },
  {
    "Teams": "nhldal",
    "Name": "Snuffer's Restaurant & Bar - Red Oak",
    "Address": "132 East Ovilla Road #5, Red Oak, TX 75154",
    "City": "DAL",
    "State": "TX",
    "latitude": 32.5328171,
    "longitude": -96.8127809,
    "Phone": "469-437-4010",
    "Website": "http://www.snuffers.com/locations/red-oak"
  },
  {
    "Teams": "ncaabuf;ncaafuf;ncaabnd;ncaafnd;ncaabwmu;ncaafwmu",
    "Name": "Fox & Hound",
    "Address": "112 W Campbell Rd, Richardson, TX 75080",
    "City": "DAL",
    "State": "TX",
    "latitude": 32.97666,
    "longitude": -96.719301,
    "Phone": "972-437-4225",
    "Website": "https://www.foxandhound.com/locations/richardson"
  },
  {
    "Teams": "ncaabttu;ncaafttu",
    "Name": "Cafe Gecko Richardson",
    "Address": "1381 W Campbell Rd, Richardson, TX 75080",
    "City": "DAL",
    "State": "TX",
    "latitude": 32.9777371,
    "longitude": -96.7655997,
    "Phone": "972-373-4359",
    "Website": "https://cafegeckorichardson.com/"
  },
  {
    "Teams": "nflpit",
    "Name": "Austin Avenue Grill & Sports Bar",
    "Address": "1801 N Plano Rd, Richardson, TX 75081",
    "City": "DAL",
    "State": "TX",
    "latitude": 32.9726799,
    "longitude": -96.7003945,
    "Phone": "972-907-8003",
    "Website": "http://www.austinavenue.com/"
  },
  {
    "Teams": "nhldal",
    "Name": "Snuffer's Richardson",
    "Address": "300 W Campbell Rd #100, Richardson, TX 75080",
    "City": "DAL",
    "State": "TX",
    "latitude": 32.9763181,
    "longitude": -96.7217707,
    "Phone": "469-998-1479",
    "Website": "http://www.snuffers.com/"
  },
  {
    "Teams": "nflchi;ncaabniu;ncaafniu",
    "Name": "The Wing'D Nut",
    "Address": "720 E Campbell Rd, Richardson, TX 75081",
    "City": "DAL",
    "State": "TX",
    "latitude": 32.9743297,
    "longitude": -96.7157093,
    "Phone": "972-807-6217",
    "Website": "https://www.wingdnut.com/"
  },
  {
    "Teams": "ncaabiowa;ncaafiowa;nflkc",
    "Name": "Wizard's Sports Cafe",
    "Address": "747 S Central Expy, Richardson, TX 75080",
    "City": "DAL",
    "State": "TX",
    "latitude": 32.942899,
    "longitude": -96.740484,
    "Phone": "972-235-0371",
    "Website": "http://wizardssportscafe.com/"
  },
  {
    "Teams": "ncaabttu;ncaafttu",
    "Name": "Fuzzy's Taco Shop",
    "Address": "2861 Ridge Rd #101, Rockwall, TX 75032",
    "City": "DAL",
    "State": "TX",
    "latitude": 32.8925184,
    "longitude": -96.4707333,
    "Phone": "469-314-1361",
    "Website": "https://www.fuzzystacoshop.com/locations/rockwall-tx/"
  },
  {
    "Teams": "nhldal",
    "Name": "Snuffer's Restaurant & Bar",
    "Address": "2901 Village Dr, Rockwall, TX 75087",
    "City": "DAL",
    "State": "TX",
    "latitude": 32.896054,
    "longitude": -96.477079,
    "Phone": "972-722-9811",
    "Website": "http://www.snuffers.com/locations/rockwall"
  },
  {
    "Teams": "ncaabuk;ncaafuk;ncaabsyr;ncaafsyr",
    "Name": "Duff's Famous Wings",
    "Address": "2787 E Southlake Blvd, Southlake, TX 76092",
    "City": "DAL",
    "State": "TX",
    "latitude": 32.9378965,
    "longitude": -97.1079212,
    "Phone": "817-421-8181",
    "Website": "http://www.duffstx.com/"
  },
  {
    "Teams": "ncaabttu;ncaafttu",
    "Name": "Barrel & Bones",
    "Address": "2801 Plano Pkwy, The Colony, TX 75056",
    "City": "DAL",
    "State": "TX",
    "latitude": 33.0576907,
    "longitude": -96.8645792,
    "Phone": "469-353-8810",
    "Website": "https://www.barrelandbones.com/"
  },
  {
    "Teams": "ncaabttu;ncaafttu",
    "Name": "Dallas Craft Co.",
    "Address": "4897 TX-121, The Colony, TX 75056",
    "City": "DAL",
    "State": "TX",
    "latitude": 33.0694745,
    "longitude": -96.8852389,
    "Phone": "972-294-5676",
    "Website": "http://www.dallascraftco.com/"
  },
  {
    "Teams": "ncaabbama;ncaafbama",
    "Name": "The Beachcomber Bar & Grill",
    "Address": "5812 Windhaven Pkwy, The Colony, TX 75056",
    "City": "DAL",
    "State": "TX",
    "latitude": 33.0570051,
    "longitude": -96.8626293,
    "Phone": "469-535-3262",
    "Website": "http://combthebeach.com/"
  },
  {
    "Teams": "nfldal;mlsdal;ncaabmsu;ncaafmsu",
    "Name": "Saintsbury Tavern",
    "Address": "6800 Windhaven Pkwy, The Colony, TX 75056",
    "City": "DAL",
    "State": "TX",
    "latitude": 33.0552124,
    "longitude": -96.8483566,
    "Phone": "469-277-8111",
    "Website": "http://www.thesaintsbury.com/"
  },
  {
    "Teams": "nflne",
    "Name": "McSwiggan's Irish Pub",
    "Address": "6910 Windhaven Pkwy #105, The Colony, TX 75056",
    "City": "DAL",
    "State": "TX",
    "latitude": 33.0551953,
    "longitude": -96.8495209,
    "Phone": "972-820-0688",
    "Website": "http://www.mcswiggansirishpub.com/"
  }
]