[
  {
    "Teams": "mlbhou;nbahou;ncaabmsu;ncaafmsu;ncaabmiz;ncaafmiz",
    "Name": "Christian's Tailgate Bar & Grill",
    "Address": "1010 Hwy 6, Houston, TX 77079",
    "City": "HOU",
    "State": "TX",
    "latitude": 29.7867182,
    "longitude": -95.6440868,
    "Phone": "281-556-1010",
    "Website": "http://www.christianstailgate.com/"
  },
  {
    "Teams": "mlbhou;mlshou;nbahou;nflnyj",
    "Name": "Christians Tailgate Bar & Grill",
    "Address": "1012 Congress Ave, Houston, TX 77002",
    "City": "HOU",
    "State": "TX",
    "latitude": 29.7617591,
    "longitude": -95.3602874,
    "Phone": "713-229-8449",
    "Website": "http://www.christianstailgate.com/"
  },
  {
    "Teams": "ncaabttu;ncaafttu",
    "Name": "Ronny G's Sports Bar & Grill",
    "Address": "1027 Sawdust Rd Ste 400, The Woodlands, TX 77380",
    "City": "HOU",
    "State": "TX",
    "latitude": 30.125846,
    "longitude": -95.457949,
    "Phone": "346-831-0953",
    "Website": "http://www.ronnygstx.com/"
  },
  {
    "Teams": "ncaabtxst;ncaaftxst",
    "Name": "Wicklow Heights",
    "Address": "1027 W 19th St, Houston, TX 77008",
    "City": "HOU",
    "State": "TX",
    "latitude": 29.802939,
    "longitude": -95.4171302,
    "Phone": "713-239-0149",
    "Website": "https://www.wicklowheights.com/"
  },
  {
    "Teams": "ncaabcin;ncaafcin",
    "Name": "Topgolf",
    "Address": "1030 Memorial Brook Blvd, Houston, TX 77084",
    "City": "HOU",
    "State": "TX",
    "latitude": 29.7867434,
    "longitude": -95.6500505,
    "Phone": "281-406-3176",
    "Website": "https://topgolf.com/us/houston-west/"
  },
  {
    "Teams": "ncaabhou;ncaafhou;nbahou",
    "Name": "Pluckers Wing Bar",
    "Address": "10407 Katy Fwy, Houston, TX 77024",
    "City": "HOU",
    "State": "TX",
    "latitude": 29.7835612,
    "longitude": -95.5547372,
    "Phone": "713-465-9464",
    "Website": "http://www.pluckers.com/posts/location/memorial-city/"
  },
  {
    "Teams": "ncaabuconn;ncaafuconn;ncaabduke;ncaafduke;ncaaborst;ncaaforst",
    "Name": "Live Oak Grill",
    "Address": "10444 Hempstead Rd, Houston, TX 77092",
    "City": "HOU",
    "State": "TX",
    "latitude": 29.8064041,
    "longitude": -95.4642462,
    "Phone": "713-686-9625",
    "Website": "http://www.liveoak-houston.com/"
  },
  {
    "Teams": "nflsea",
    "Name": "On the Rox Sports Bar and Grill",
    "Address": "10535 Jones Rd #300, Houston, TX 77065",
    "City": "HOU",
    "State": "TX",
    "latitude": 29.9267502,
    "longitude": -95.586329,
    "Phone": "281-807-7500",
    "Website": "http://www.ontheroxbar.com/"
  },
  {
    "Teams": "ncaabutah;ncaafutah",
    "Name": "Westchase Tavern",
    "Address": "10630 Westheimer Rd, Houston, TX 77042",
    "City": "HOU",
    "State": "TX",
    "latitude": 29.7376715,
    "longitude": -95.5639681,
    "Phone": "713-785-5567",
    "Website": "http://westchasetavern.net/"
  },
  {
    "Teams": "nbahou;ncaabmich;ncaafmich",
    "Name": "Stats Sports Bar and Grill",
    "Address": "10850 Louetta Rd #1700, Houston, TX 77070",
    "City": "HOU",
    "State": "TX",
    "latitude": 29.9975431,
    "longitude": -95.5763454,
    "Phone": "281-257-8287",
    "Website": "http://statssportsbarandgrill.com/"
  },
  {
    "Teams": "ncaabhou;ncaafhou",
    "Name": "Big City Wings",
    "Address": "10903 Jones Rd, Houston, TX 77065",
    "City": "HOU",
    "State": "TX",
    "latitude": 29.9314825,
    "longitude": -95.5864294,
    "Phone": "832-478-5537",
    "Website": "https://bigcitywings.com/"
  },
  {
    "Teams": "nbahou",
    "Name": "Scotty's Pub",
    "Address": "10943 Scarsdale Blvd, Houston, TX 77089",
    "City": "HOU",
    "State": "TX",
    "latitude": 29.5871068,
    "longitude": -95.2126587,
    "Phone": "832-328-7593",
    "Website": "http://www.scottyspubhouston.com/"
  },
  {
    "Teams": "nbahou;ncaabku;ncaafku;ncaabmsst;ncaafmsst;ncaabtex;ncaaftex",
    "Name": "Stadia Sports Grill - The Woodlands",
    "Address": "1110, 1596, 9595 Six Pines Dr, The Woodlands, TX 77380",
    "City": "HOU",
    "State": "TX",
    "latitude": 30.163125,
    "longitude": -95.464613,
    "Phone": "281-298-1818",
    "Website": "http://www.stadiasportsgrill.com/"
  },
  {
    "Teams": "nbahou;ncaabwake;ncaafwake",
    "Name": "FM Kitchen and Bar",
    "Address": "1112 Shepherd Dr, Houston, TX 77007",
    "City": "HOU",
    "State": "TX",
    "latitude": 29.7713972,
    "longitude": -95.4092771,
    "Phone": "832-804-6006",
    "Website": "https://www.fmkitchenandbar.com/"
  },
  {
    "Teams": "nbahou;nflnyj",
    "Name": "Stadia Sports Grill - Pearland",
    "Address": "11200 Broadway St Ste 947, Pearland, TX 77584",
    "City": "HOU",
    "State": "TX",
    "latitude": 29.552949,
    "longitude": -95.392033,
    "Phone": "713-436-3300",
    "Website": "http://www.stadiasportsgrill.com/"
  },
  {
    "Teams": "ncaabnd;ncaafnd",
    "Name": "Hugh O'Connors",
    "Address": "1127 Eldridge Pkwy Suite 600, Houston, TX 77077",
    "City": "HOU",
    "State": "TX",
    "latitude": 29.7672408,
    "longitude": -95.6230424,
    "Phone": "832-982-3598",
    "Website": "https://hughoconnors.com/"
  },
  {
    "Teams": "nflsf",
    "Name": "SkyBox Grill-Bar-Games",
    "Address": "11314 Westheimer Rd, Houston, TX 77077",
    "City": "HOU",
    "State": "TX",
    "latitude": 29.7379695,
    "longitude": -95.5764347,
    "Phone": "281-531-0266",
    "Website": ""
  },
  {
    "Teams": "mlshou;nbahou",
    "Name": "Twin Peaks I-10 & Kirkwood",
    "Address": "11335 Katy Fwy, Houston, TX 77079",
    "City": "HOU",
    "State": "TX",
    "latitude": 29.7836971,
    "longitude": -95.5830604,
    "Phone": "281-888-3724",
    "Website": "https://twinpeaksrestaurant.com/locations/i-10-kirkwood-tx"
  },
  {
    "Teams": "ncaabhou;ncaafhou",
    "Name": "BreWingZ Restaurant and Bar",
    "Address": "11388 Fountain Lake Dr #910, Stafford, TX 77477",
    "City": "HOU",
    "State": "TX",
    "latitude": 29.6386522,
    "longitude": -95.584925,
    "Phone": "281-491-9500",
    "Website": "http://www.brewingz.com/locations/stafford-fountains/"
  },
  {
    "Teams": "ncaabbama;ncaafbama;ncaabvt;ncaafvt",
    "Name": "Craft Republic",
    "Address": "11470 Westheimer Rd, Houston, TX 77077",
    "City": "HOU",
    "State": "TX",
    "latitude": 29.7370102,
    "longitude": -95.5791382,
    "Phone": "281-589-2122",
    "Website": "https://www.craftrepublic.com/locations/houston"
  },
  {
    "Teams": "ncaabusa;ncaafusa",
    "Name": "Buffalo Wild Wings",
    "Address": "11803 Westheimer Rd #780, Houston, TX 77077",
    "City": "HOU",
    "State": "TX",
    "latitude": 29.735265,
    "longitude": -95.5852174,
    "Phone": "281-497-9464",
    "Website": "http://buffalowildwings.com/"
  },
  {
    "Teams": "ncaabsmu;ncaafsmu",
    "Name": "Doc's Sports Bar",
    "Address": "11950 Perry Rd, Houston, TX 77064",
    "City": "HOU",
    "State": "TX",
    "latitude": 29.9455989,
    "longitude": -95.5631509,
    "Phone": "281-477-6500",
    "Website": "http://docs-sports-bar.business.site/"
  },
  {
    "Teams": "mlshou",
    "Name": "The Bull and Bear Tavern and Eatery",
    "Address": "11980 Westheimer Rd a, Houston, TX 77077",
    "City": "HOU",
    "State": "TX",
    "latitude": 29.7377026,
    "longitude": -95.5913658,
    "Phone": "281-496-6655",
    "Website": "http://www.thebullandbear-tavernandeatery.com/"
  },
  {
    "Teams": "mlshou",
    "Name": "Hooters",
    "Address": "120 Farm to Market 1960 Rd W, Houston, TX 77090",
    "City": "HOU",
    "State": "TX",
    "latitude": 30.0209141,
    "longitude": -95.4320419,
    "Phone": "281-893-9464",
    "Website": "http://www.hooters.com/"
  },
  {
    "Teams": "ncaabttu;ncaafttu",
    "Name": "The Pit Room",
    "Address": "1201 Richmond Ave, Houston, TX 77006",
    "City": "HOU",
    "State": "TX",
    "latitude": 29.7342473,
    "longitude": -95.394002,
    "Phone": "281-888-1929",
    "Website": "http://www.thepitroombbq.com/"
  },
  {
    "Teams": "ncaabttu;ncaafttu",
    "Name": "The Patio",
    "Address": "1205 Richmond Ave, Houston, TX 77006",
    "City": "HOU",
    "State": "TX",
    "latitude": 29.7341339,
    "longitude": -95.394224,
    "Phone": "832-962-7143",
    "Website": "http://www.thepatioonrichmond.com/"
  },
  {
    "Teams": "ncaabmsu;ncaafmsu;ncaabnc;ncaafnc;ncaabtamu;ncaaftamu;ncaabwmu;ncaafwmu",
    "Name": "McIntyre's",
    "Address": "1230 W 20th St, Houston, TX 77008",
    "City": "HOU",
    "State": "TX",
    "latitude": 29.8030803,
    "longitude": -95.4217436,
    "Phone": "713-333-5531",
    "Website": "http://mcintyreshouston.com/"
  },
  {
    "Teams": "ncaabmsst;ncaafmsst",
    "Name": "BAKFISH Brewing Company",
    "Address": "1231 Broadway St, Pearland, TX 77581",
    "City": "HOU",
    "State": "TX",
    "latitude": 29.5434205,
    "longitude": -95.2225551,
    "Phone": "281-993-8658",
    "Website": "http://www.bakfishbrewing.com/"
  },
  {
    "Teams": "ncaabtxst;ncaaftxst",
    "Name": "B-52 Brewing Co.",
    "Address": "12470 Milroy Ln, Conroe, TX 77304",
    "City": "HOU",
    "State": "TX",
    "latitude": 30.340665,
    "longitude": -95.5509065,
    "Phone": "936-447-4677",
    "Website": "http://b52brewing.com/"
  },
  {
    "Teams": "ncaabtcu;ncaaftcu",
    "Name": "Scholars and Scoundrels",
    "Address": "1251 Pin Oak Rd Ste 141, Katy, TX 77494",
    "City": "HOU",
    "State": "TX",
    "latitude": 29.7732238,
    "longitude": -95.8169413,
    "Phone": "346-307-7434",
    "Website": "http://scholarsandscoundrelskaty.com/"
  },
  {
    "Teams": "nbahou",
    "Name": "The Pub Fountains",
    "Address": "12720 Southwest Fwy, Stafford, TX 77477",
    "City": "HOU",
    "State": "TX",
    "latitude": 29.6374793,
    "longitude": -95.5849554,
    "Phone": "281-277-9333",
    "Website": "http://www.thepubfountains.com/"
  },
  {
    "Teams": "nbahou",
    "Name": "Bombshells - Fuqua",
    "Address": "12810 Gulf Fwy, Houston, TX 77034",
    "City": "HOU",
    "State": "TX",
    "latitude": 29.613398,
    "longitude": -95.21432,
    "Phone": "281-484-3279",
    "Website": "http://www.4bombshells.com/"
  },
  {
    "Teams": "nbahou",
    "Name": "Twin Peaks",
    "Address": "12830 Northwest Fwy, Houston, TX 77040",
    "City": "HOU",
    "State": "TX",
    "latitude": 29.843614,
    "longitude": -95.4944499,
    "Phone": "713-939-8946",
    "Website": "https://twinpeaksrestaurant.com/locations/houston-tx-290"
  },
  {
    "Teams": "nbahou",
    "Name": "Scoreboards Sports Bar & Grill",
    "Address": "12880 Beamer Rd I, Houston, TX 77089",
    "City": "HOU",
    "State": "TX",
    "latitude": 29.5816673,
    "longitude": -95.2119063,
    "Phone": "346-229-4846",
    "Website": ""
  },
  {
    "Teams": "nbahou",
    "Name": "Brick House Tavern + Tap",
    "Address": "12910 Northwest Fwy, Houston, TX 77040",
    "City": "HOU",
    "State": "TX",
    "latitude": 29.844531,
    "longitude": -95.495772,
    "Phone": "713-462-0576",
    "Website": "http://brickhousetavernandtap.com/location/20202"
  },
  {
    "Teams": "mlshou",
    "Name": "Hooters",
    "Address": "12914 Northwest Fwy, Houston, TX 77040",
    "City": "HOU",
    "State": "TX",
    "latitude": 29.8447788,
    "longitude": -95.4962514,
    "Phone": "713-659-4668",
    "Website": "http://www.hooters.com/"
  },
  {
    "Teams": "ncaabttu;ncaafttu",
    "Name": "The Backyard",
    "Address": "1301 4th St, Seabrook, TX 77586",
    "City": "HOU",
    "State": "TX",
    "latitude": 29.5597603,
    "longitude": -95.0232237,
    "Phone": "281-942-9620",
    "Website": "http://www.backyardseabrook.com/"
  },
  {
    "Teams": "mlbhou",
    "Name": "D&T Drive Inn",
    "Address": "1307 Enid St, Houston, TX 77009",
    "City": "HOU",
    "State": "TX",
    "latitude": 29.8034132,
    "longitude": -95.3757958,
    "Phone": "832-409-5709",
    "Website": "https://www.facebook.com/dandtdriveinn/"
  },
  {
    "Teams": "mlbhou;nflhou;nflmin",
    "Name": "Providence Heights Bar",
    "Address": "1308 W 20th St, Houston, TX 77008",
    "City": "HOU",
    "State": "TX",
    "latitude": 29.8041681,
    "longitude": -95.4229103,
    "Phone": "713-869-1656",
    "Website": "http://www.providenceheightsbar.com/"
  },
  {
    "Teams": "nbahou",
    "Name": "Texas Leaguer Brewing Company",
    "Address": "13503 Pike Rd, Missouri City, TX 77489",
    "City": "HOU",
    "State": "TX",
    "latitude": 29.627283,
    "longitude": -95.54801,
    "Phone": "832-895-9000",
    "Website": "http://txleaguer.com/"
  },
  {
    "Teams": "ncaabmu",
    "Name": "Mo's Irish Pub Vintage Park",
    "Address": "138 Vintage Park Blvd, Houston, TX 77070",
    "City": "HOU",
    "State": "TX",
    "latitude": 29.9959859,
    "longitude": -95.5708627,
    "Phone": "281-251-0715",
    "Website": "http://mosirishpub.com/houston/"
  },
  {
    "Teams": "nbahou",
    "Name": "Bombshells",
    "Address": "13903 South Fwy, Houston, TX 77047",
    "City": "HOU",
    "State": "TX",
    "latitude": 29.5923272,
    "longitude": -95.3851109,
    "Phone": "346-802-2609",
    "Website": "http://www.4bombshells.com/"
  },
  {
    "Teams": "nbahou",
    "Name": "Brick House Tavern + Tap",
    "Address": "140 Farm to Market 1960 Bypass Rd E, Humble, TX 77338",
    "City": "HOU",
    "State": "TX",
    "latitude": 30.0043043,
    "longitude": -95.266278,
    "Phone": "281-319-4410",
    "Website": "http://brickhousetavernandtap.com/location/20204"
  },
  {
    "Teams": "ncaabhou;ncaafhou;nbahou",
    "Name": "Pluckers Wing Bar",
    "Address": "1400 Shepherd Dr, Houston, TX 77007",
    "City": "HOU",
    "State": "TX",
    "latitude": 29.7736007,
    "longitude": -95.4092673,
    "Phone": "713-864-9464",
    "Website": "http://www.pluckers.com/"
  },
  {
    "Teams": "mlbhou;nflhou;mlbmil",
    "Name": "Mo's Irish Pub Cypress",
    "Address": "14102 Mueschke Rd, Cypress, TX 77429",
    "City": "HOU",
    "State": "TX",
    "latitude": 29.9795917,
    "longitude": -95.7162244,
    "Phone": "281-213-2989",
    "Website": "http://www.mosirishpub.com/cypress"
  },
  {
    "Teams": "nbahou",
    "Name": "Bombshells - 290",
    "Address": "14191 Northwest Fwy, Houston, TX 77040",
    "City": "HOU",
    "State": "TX",
    "latitude": 29.8602101,
    "longitude": -95.5274113,
    "Phone": "281-845-6411",
    "Website": "http://4bombshells.com/"
  },
  {
    "Teams": "ncaabuva;ncaafuva",
    "Name": "Heights Bier Garten",
    "Address": "1433 N Shepherd Dr #1, Houston, TX 77008",
    "City": "HOU",
    "State": "TX",
    "latitude": 29.7975646,
    "longitude": -95.4104038,
    "Phone": "713-862-4940",
    "Website": "http://www.heightsbiergarten.com/"
  },
  {
    "Teams": "ncaabku;ncaafku;ncaabtamu;ncaaftamu",
    "Name": "Growler USA - Katy",
    "Address": "1443 FM 1463 #100, Katy, TX 77494",
    "City": "HOU",
    "State": "TX",
    "latitude": 29.7652539,
    "longitude": -95.8404946,
    "Phone": "281-396-4277",
    "Website": "http://www.growlerusakaty.com/"
  },
  {
    "Teams": "ncaabtamu;ncaaftamu",
    "Name": "Frey's Backyard Cafe",
    "Address": "14441 Farm to Market 2920, Tomball, TX 77377",
    "City": "HOU",
    "State": "TX",
    "latitude": 30.0889859,
    "longitude": -95.6418699,
    "Phone": "281-255-8282",
    "Website": "http://www.freysbackyard.com/"
  },
  {
    "Teams": "nflpit",
    "Name": "End Zone Sports Bar & Grill",
    "Address": "15209 Westheimer Rd #100, Houston, TX 77082",
    "City": "HOU",
    "State": "TX",
    "latitude": 29.731665,
    "longitude": -95.653697,
    "Phone": "281-597-0241",
    "Website": "http://www.endzonehouston.com/"
  },
  {
    "Teams": "nbahou",
    "Name": "The PUB 529",
    "Address": "15444 Farm to Market Rd 529, Houston, TX 77095",
    "City": "HOU",
    "State": "TX",
    "latitude": 29.880399,
    "longitude": -95.6406265,
    "Phone": "832-427-1061",
    "Website": "http://thepub529.com/"
  },
  {
    "Teams": "nbahou",
    "Name": "Baker St. Pub & Grill",
    "Address": "15970 City Walk, Sugar Land, TX 77479",
    "City": "HOU",
    "State": "TX",
    "latitude": 29.5968412,
    "longitude": -95.6216436,
    "Phone": "713-986-8536",
    "Website": "http://bakerstreetpub.com/"
  },
  {
    "Teams": "ncaabasu;ncaafasu;ncaabcle;ncaafcle;nfldal;mlbhou;nbahou;nflhou;ncaabisu;ncaafisu;ncaabku;ncaafku;ncaabmu;ncaabuva;ncaafuva;ncaabwvu;ncaafwvu",
    "Name": "Revelry on Richmond",
    "Address": "1613 Richmond Ave, Houston, TX 77006",
    "City": "HOU",
    "State": "TX",
    "latitude": 29.7340163,
    "longitude": -95.4000021,
    "Phone": "832-538-0724",
    "Website": "https://revelryonrichmond.com/"
  },
  {
    "Teams": "nbahou",
    "Name": "Al's Sports Bar",
    "Address": "16203 Westheimer Rd, Houston, TX 77082",
    "City": "HOU",
    "State": "TX",
    "latitude": 29.7197355,
    "longitude": -95.6707137,
    "Phone": "281-493-9797",
    "Website": "http://www.alsbar.com/"
  },
  {
    "Teams": "ncaabnd;ncaafnd",
    "Name": "Penny Whistle Pub",
    "Address": "1625 Richmond Ave, Houston, TX 77006",
    "City": "HOU",
    "State": "TX",
    "latitude": 29.734073,
    "longitude": -95.4006428,
    "Phone": "713-528-7827",
    "Website": "https://penny-whistle-pub.business.site/"
  },
  {
    "Teams": "ncaabhou;ncaafhou",
    "Name": "Wings 'N More Restaurant and Bar",
    "Address": "16580 I-45, Conroe, TX 77384",
    "City": "HOU",
    "State": "TX",
    "latitude": 30.2149722,
    "longitude": -95.4578434,
    "Phone": "936-321-0600",
    "Website": "http://www.wingsnmore.com/rnb"
  },
  {
    "Teams": "nbahou",
    "Name": "Brick House Tavern + Tap",
    "Address": "17111 TX-249, Houston, TX 77064",
    "City": "HOU",
    "State": "TX",
    "latitude": 29.95278,
    "longitude": -95.538901,
    "Phone": "832-912-1094",
    "Website": "http://brickhousetavernandtap.com/location/20226"
  },
  {
    "Teams": "mlbbos;mlbhou;ncaabhou;ncaafhou;nfloak;ncaabosu;ncaafosu;ncaabtex;ncaaftex;ncaabttu;ncaafttu",
    "Name": "Lucky's Pub",
    "Address": "17754 Katy Fwy, Houston, TX 77094",
    "City": "HOU",
    "State": "TX",
    "latitude": 29.7859602,
    "longitude": -95.6847154,
    "Phone": "281-206-7369",
    "Website": "http://luckyspub.com/west/"
  },
  {
    "Teams": "mlbhou",
    "Name": "Biggio's",
    "Address": "1777 Walker St, Houston, TX 77010",
    "City": "HOU",
    "State": "TX",
    "latitude": 29.7540515,
    "longitude": -95.3578421,
    "Phone": "346-229-2577",
    "Website": "http://www.biggioshouston.com/"
  },
  {
    "Teams": "ncaabuga;ncaafuga",
    "Name": "Saltgrass Steak House",
    "Address": "1803 Shepherd Dr, Houston, TX 77007",
    "City": "HOU",
    "State": "TX",
    "latitude": 29.7765807,
    "longitude": -95.4098239,
    "Phone": "713-869-7074",
    "Website": "http://www.saltgrass.com/"
  },
  {
    "Teams": "mlshou",
    "Name": "The King's Head Pub",
    "Address": "1809 Eldridge Pkwy, Houston, TX 77077",
    "City": "HOU",
    "State": "TX",
    "latitude": 29.7492031,
    "longitude": -95.6245179,
    "Phone": "832-379-1000",
    "Website": "https://www.facebook.com/The-Kings-Head-Pub-164730780312353/"
  },
  {
    "Teams": "mlshou",
    "Name": "Eighteen Twenty Lounge",
    "Address": "1820 Franklin St, Houston, TX 77002",
    "City": "HOU",
    "State": "TX",
    "latitude": 29.7583647,
    "longitude": -95.352643,
    "Phone": "713-224-5535",
    "Website": "http://www.1820lounge.com/"
  },
  {
    "Teams": "nbahou",
    "Name": "Pub Level",
    "Address": "18313 Egret Bay Blvd, Houston, TX 77058",
    "City": "HOU",
    "State": "TX",
    "latitude": 29.5437701,
    "longitude": -95.1031531,
    "Phone": "281-532-6570",
    "Website": ""
  },
  {
    "Teams": "nbahou;nflten",
    "Name": "Stadia Sports Grill",
    "Address": "1853 Pearland Pkwy #135, Pearland, TX 77581",
    "City": "HOU",
    "State": "TX",
    "latitude": 29.5753556,
    "longitude": -95.2632608,
    "Phone": "832-486-9611",
    "Website": "http://www.stadiabarandgrillpearlandtx.com/"
  },
  {
    "Teams": "mlbhou",
    "Name": "HTX Fan Tavern",
    "Address": "1880 Texas St, Houston, TX 77003",
    "City": "HOU",
    "State": "TX",
    "latitude": 29.7552928,
    "longitude": -95.3553688,
    "Phone": "346-308-5648",
    "Website": "http://htxfantavern.com/"
  },
  {
    "Teams": "ncaablou;ncaaflou;ncaabmsst;ncaafmsst",
    "Name": "Platypus Brewing",
    "Address": "1902 Washington Ave Suite E, Houston, TX 77007",
    "City": "HOU",
    "State": "TX",
    "latitude": 29.7680715,
    "longitude": -95.3775019,
    "Phone": "832-742-5503",
    "Website": ""
  },
  {
    "Teams": "ncaabcolo;ncaafcolo;ncaabcsu;ncaafcsu;ncaabmsst;ncaafmsst;ncaabohio;ncaafohio;ncaabpsu;ncaafpsu;ncaabstan;ncaafstan",
    "Name": "The Phoenix on Westheimer",
    "Address": "1915 Westheimer Rd, Houston, TX 77098",
    "City": "HOU",
    "State": "TX",
    "latitude": 29.7425692,
    "longitude": -95.4077118,
    "Phone": "713-526-3100",
    "Website": "http://www.phoenixow.com/"
  },
  {
    "Teams": "ncaabmiss;ncaafmiss",
    "Name": "Bungalow Heights",
    "Address": "1919 Beall St, Houston, TX 77008",
    "City": "HOU",
    "State": "TX",
    "latitude": 29.8029706,
    "longitude": -95.4183025,
    "Phone": "832-582-7903",
    "Website": "https://bungalowheights.com/"
  },
  {
    "Teams": "mlbhou",
    "Name": "West Alabama Ice House",
    "Address": "1919 W Alabama St, Houston, TX 77098",
    "City": "HOU",
    "State": "TX",
    "latitude": 29.7383826,
    "longitude": -95.4078335,
    "Phone": "713-528-6874",
    "Website": "http://www.west-alabama-ice-house.com/"
  },
  {
    "Teams": "ncaabcsu;ncaafcsu;nfljax",
    "Name": "T-Bones Sports Pub",
    "Address": "1971 W T C Jester Blvd, Houston, TX 77008",
    "City": "HOU",
    "State": "TX",
    "latitude": 29.802534,
    "longitude": -95.4321414,
    "Phone": "713-864-3944",
    "Website": "https://www.facebook.com/TBONES-SPORTS-PUB-186742067779/"
  },
  {
    "Teams": "ncaabtcu;ncaaftcu",
    "Name": "Willie's Grill & Icehouse",
    "Address": "19905 Katy Fwy, Houston, TX 77094",
    "City": "HOU",
    "State": "TX",
    "latitude": 29.783834,
    "longitude": -95.7162935,
    "Phone": "281-492-6700",
    "Website": "http://williesgrillandicehouse.com/"
  },
  {
    "Teams": "nflbuf;ncaabbuff;ncaafbuff;mlbhou;nbahou;ncaabtcu;ncaaftcu;ncaabwvu;ncaafwvu",
    "Name": "Christian's Tailgate Bar & Grill",
    "Address": "2000 Bagby St Suite 106, Houston, TX 77002",
    "City": "HOU",
    "State": "TX",
    "latitude": 29.752516,
    "longitude": -95.376217,
    "Phone": "713-527-0261",
    "Website": "http://www.christianstailgate.com/"
  },
  {
    "Teams": "mlbchc",
    "Name": "T.K. Bitterman's",
    "Address": "2010 W Alabama St, Houston, TX 77098",
    "City": "HOU",
    "State": "TX",
    "latitude": 29.7387933,
    "longitude": -95.4086238,
    "Phone": "",
    "Website": "http://www.facebook.com/t.k.bittermans"
  },
  {
    "Teams": "mlbhou;nbahou;ncaabmich;ncaafmich",
    "Name": "Little Woodrow's Eado",
    "Address": "2019 Walker St, Houston, TX 77003",
    "City": "HOU",
    "State": "TX",
    "latitude": 29.7522179,
    "longitude": -95.3548581,
    "Phone": "713-222-2224",
    "Website": "https://littlewoodrows.com/watering-holes/houston/eado/"
  },
  {
    "Teams": "ncaabfiu;ncaaffiu;ncaabmia;ncaafmia;nflsf",
    "Name": "Lucky's Lodge",
    "Address": "2024 Rusk St, Houston, TX 77003",
    "City": "HOU",
    "State": "TX",
    "latitude": 29.7525522,
    "longitude": -95.3546869,
    "Phone": "713-360-6040",
    "Website": "http://www.luckyslodge.com/"
  },
  {
    "Teams": "mlshou",
    "Name": "Hooters",
    "Address": "20796 Gulf Freeway, Webster, TX 77598",
    "City": "HOU",
    "State": "TX",
    "latitude": 29.526229,
    "longitude": -95.1294184,
    "Phone": "281-332-9464",
    "Website": "http://www.hooters.com/"
  },
  {
    "Teams": "nbahou",
    "Name": "Twin Peaks Webster",
    "Address": "20931 Gulf Fwy, Webster, TX 77598",
    "City": "HOU",
    "State": "TX",
    "latitude": 29.5251155,
    "longitude": -95.1261231,
    "Phone": "281-338-7325",
    "Website": "https://twinpeaksrestaurant.com/locations/webster-tx"
  },
  {
    "Teams": "ncaabvu",
    "Name": "The Goose's Acre",
    "Address": "21 Waterway Ave #140, The Woodlands, TX 77380",
    "City": "HOU",
    "State": "TX",
    "latitude": 30.1600406,
    "longitude": -95.459363,
    "Phone": "281-466-1502",
    "Website": "http://www.thegoosesacre.com/"
  },
  {
    "Teams": "nbahou",
    "Name": "Bombshells",
    "Address": "21005 Interstate Hwy 45 North, Spring, TX 77388",
    "City": "HOU",
    "State": "TX",
    "latitude": 30.0681831,
    "longitude": -95.4359117,
    "Phone": "281-288-2769",
    "Website": "http://www.4bombshells.com/"
  },
  {
    "Teams": "ncaabsc;ncaafsc;ncaabwvu;ncaafwvu",
    "Name": "Pitch 25",
    "Address": "2120 Walker St, Houston, TX 77003",
    "City": "HOU",
    "State": "TX",
    "latitude": 29.7515431,
    "longitude": -95.35462,
    "Phone": "713-814-8157",
    "Website": "http://pitch25.com/"
  },
  {
    "Teams": "ncaabhou;ncaafhou",
    "Name": "Big City Wings",
    "Address": "21322 Kuykendahl Rd, Spring, TX 77379",
    "City": "HOU",
    "State": "TX",
    "latitude": 30.0776874,
    "longitude": -95.515232,
    "Phone": "832-843-6647",
    "Website": "https://bigcitywings.com/"
  },
  {
    "Teams": "ncaabbay;ncaafbay;nflcar",
    "Name": "Front Porch Pub",
    "Address": "217 Gray St, Houston, TX 77002",
    "City": "HOU",
    "State": "TX",
    "latitude": 29.7526736,
    "longitude": -95.3774925,
    "Phone": "713-571-9571",
    "Website": "http://frontporchpub.com/"
  },
  {
    "Teams": "mlbhou",
    "Name": "8th Wonder Brewery",
    "Address": "2202 Dallas St, Houston, TX 77003",
    "City": "HOU",
    "State": "TX",
    "latitude": 29.748708,
    "longitude": -95.355995,
    "Phone": "713-229-0868",
    "Website": "http://8thwonder.com/"
  },
  {
    "Teams": "nbahou;nflhou;ncaabill;ncaafill;ncaabku;ncaafku;ncaabpur;ncaafpur",
    "Name": "Coaches Pub",
    "Address": "2204 Louisiana St, Houston, TX 77002",
    "City": "HOU",
    "State": "TX",
    "latitude": 29.7494534,
    "longitude": -95.3751376,
    "Phone": "713-751-1970",
    "Website": "http://coachespubmidtown.com/"
  },
  {
    "Teams": "ncaabaub;ncaafaub",
    "Name": "Pour Behavior",
    "Address": "2211 Travis St, Houston, TX 77002",
    "City": "HOU",
    "State": "TX",
    "latitude": 29.748111,
    "longitude": -95.372866,
    "Phone": "832-767-2111",
    "Website": "http://www.pourbehaviortx.com/"
  },
  {
    "Teams": "ncaabmiss;ncaafmiss",
    "Name": "The Owl Bar",
    "Address": "2221 W Alabama St, Houston, TX 77098",
    "City": "HOU",
    "State": "TX",
    "latitude": 29.7383309,
    "longitude": -95.4136671,
    "Phone": "713-526-3535",
    "Website": "http://www.owlbarhouston.com/"
  },
  {
    "Teams": "mlbhou;ncaabhou;ncaafhou;nbahou;ncaabmich;ncaafmich;ncaabtamu;ncaaftamu",
    "Name": "Little Woodrow's Katy",
    "Address": "22225 Katy Fwy, Katy, TX 77450",
    "City": "HOU",
    "State": "TX",
    "latitude": 29.7844775,
    "longitude": -95.7581254,
    "Phone": "832-913-6999",
    "Website": "https://littlewoodrows.com/watering-holes/houston/katy/"
  },
  {
    "Teams": "nbahou",
    "Name": "BJ's Restaurant & Brewhouse",
    "Address": "2231 Hwy 6, Sugar Land, TX 77478",
    "City": "HOU",
    "State": "TX",
    "latitude": 29.598171,
    "longitude": -95.6200769,
    "Phone": "281-242-0400",
    "Website": "http://www.bjsrestaurants.com/locations/tx/sugar-land"
  },
  {
    "Teams": "ncaabuk;ncaafuk",
    "Name": "BreWingZ Restaurant and Bar",
    "Address": "22503 TX-249 #400, Houston, TX 77070",
    "City": "HOU",
    "State": "TX",
    "latitude": 30.0095641,
    "longitude": -95.5894403,
    "Phone": "281-290-4220",
    "Website": "http://www.brewingz.com/locations/spring-cypress-249/"
  },
  {
    "Teams": "nbahou;ncaabtex;ncaaftex",
    "Name": "Sammy's Sports Grill",
    "Address": "22762 Westheimer Pkwy #400, Katy, TX 77450",
    "City": "HOU",
    "State": "TX",
    "latitude": 29.7349895,
    "longitude": -95.7624555,
    "Phone": "281-347-6077",
    "Website": "http://sammyssportsgrillandbar.com/villagio-town-center/"
  },
  {
    "Teams": "nflchi;ncaabcu;mlshou;nbahou;ncaabtamu;ncaaftamu",
    "Name": "Pub Fiction",
    "Address": "2303 Smith St #100, Houston, TX 77006",
    "City": "HOU",
    "State": "TX",
    "latitude": 29.7491348,
    "longitude": -95.3759499,
    "Phone": "713-400-8400",
    "Website": "http://www.pubfiction.com/"
  },
  {
    "Teams": "ncaabmich;ncaafmich",
    "Name": "3rd Floor",
    "Address": "2303 Smith St #300, Houston, TX 77006",
    "City": "HOU",
    "State": "TX",
    "latitude": 29.7491425,
    "longitude": -95.3760292,
    "Phone": "832-384-1960",
    "Website": "http://3rdfloorhouston.com/"
  },
  {
    "Teams": "ncaabarmy;ncaafarmy;ncaabbuff;ncaafbuff;mlbhou;nbahou;ncaablsu;ncaaflsu;ncaabnavy;ncaafnavy;ncaabsmu;ncaafsmu;ncaabtex;ncaaftex",
    "Name": "Little Woodrow's Midtown",
    "Address": "2306 Brazos St, Houston, TX 77006",
    "City": "HOU",
    "State": "TX",
    "latitude": 29.7497264,
    "longitude": -95.3772903,
    "Phone": "713-522-1041",
    "Website": "https://littlewoodrows.com/watering-holes/houston/midtown/"
  },
  {
    "Teams": "nbahou",
    "Name": "District 249 Bar & Grill",
    "Address": "23238 TX-249, Tomball, TX 77375",
    "City": "HOU",
    "State": "TX",
    "latitude": 30.022726,
    "longitude": -95.592924,
    "Phone": "832-717-0020",
    "Website": "http://www.district249.com/"
  },
  {
    "Teams": "ncaabhou;ncaafhou;ncaabtex;ncaaftex",
    "Name": "Woodson's Local Tap + Kitchen",
    "Address": "2330 Farm to Market Rd 1488, The Woodlands, TX 77384",
    "City": "HOU",
    "State": "TX",
    "latitude": 30.2319981,
    "longitude": -95.4996084,
    "Phone": "936-271-9503",
    "Website": "http://www.woodsonslocal.com/"
  },
  {
    "Teams": "ncaabku;ncaafku;ncaabtex;ncaaftex",
    "Name": "Mo's Irish Pub Katy",
    "Address": "23511 Katy Fwy, Katy, TX 77494",
    "City": "HOU",
    "State": "TX",
    "latitude": 29.7836552,
    "longitude": -95.7789357,
    "Phone": "281-665-3535",
    "Website": "https://mosirishpub.com/katy/"
  },
  {
    "Teams": "ncaabhou;ncaafhou",
    "Name": "The Butler House",
    "Address": "23931 Gosling Rd, Spring, TX 77389",
    "City": "HOU",
    "State": "TX",
    "latitude": 30.1125371,
    "longitude": -95.5073348,
    "Phone": "281-651-2185",
    "Website": "http://www.thebutlerhouse.net/"
  },
  {
    "Teams": "ncaabbama;ncaafbama;ncaabfiu;ncaaffiu;ncaabmsst;ncaafmsst",
    "Name": "The Dogwood",
    "Address": "2403 Bagby St, Houston, TX 77006",
    "City": "HOU",
    "State": "TX",
    "latitude": 29.749411,
    "longitude": -95.378162,
    "Phone": "281-501-9075",
    "Website": "http://www.thedogwoodmidtown.com/"
  },
  {
    "Teams": "mlbhou",
    "Name": "Shell Shack",
    "Address": "2412 Washington Ave, Houston, TX 77007",
    "City": "HOU",
    "State": "TX",
    "latitude": 29.768579,
    "longitude": -95.383394,
    "Phone": "832-998-8000",
    "Website": "http://shellshack.com/"
  },
  {
    "Teams": "ncaabfsu;ncaaffsu",
    "Name": "Jack & Ginger's",
    "Address": "2416 Brazos St Suite C, Houston, TX 77006",
    "City": "HOU",
    "State": "TX",
    "latitude": 29.7490225,
    "longitude": -95.3782223,
    "Phone": "713-882-1116",
    "Website": "http://www.jackandgingers.pub/"
  },
  {
    "Teams": "mlshou",
    "Name": "Kelvin Arms",
    "Address": "2424 Dunstan Rd, Houston, TX 77005",
    "City": "HOU",
    "State": "TX",
    "latitude": 29.7195193,
    "longitude": -95.4163374,
    "Phone": "713-528-4739",
    "Website": "http://kelvinarmspub.com/"
  },
  {
    "Teams": "ncaabmsst;ncaafmsst",
    "Name": "Old Chicago Pizza and Taproom",
    "Address": "24515 Katy Fwy #100, Katy, TX 77450",
    "City": "HOU",
    "State": "TX",
    "latitude": 29.7844517,
    "longitude": -95.7955502,
    "Phone": "281-347-0090",
    "Website": "http://www.oldchicago.com/locations/katy"
  },
  {
    "Teams": "ncaabpit;ncaafpit",
    "Name": "Bombshells",
    "Address": "24628 Tomball Pkwy, Tomball, TX 77375",
    "City": "HOU",
    "State": "TX",
    "latitude": 30.0402092,
    "longitude": -95.6059398,
    "Phone": "281-694-4695",
    "Website": "http://www.4bombshells.com/"
  },
  {
    "Teams": "ncaabtamu;ncaaftamu",
    "Name": "La Grange",
    "Address": "2517 Ralph St, Houston, TX 77006",
    "City": "HOU",
    "State": "TX",
    "latitude": 29.7432858,
    "longitude": -95.4010554,
    "Phone": "832-962-4745",
    "Website": "http://www.lagrangehouston.com/"
  },
  {
    "Teams": "mlshou",
    "Name": "Hooters",
    "Address": "2519 Southwest Fwy, Houston, TX 77098",
    "City": "HOU",
    "State": "TX",
    "latitude": 29.729772,
    "longitude": -95.417397,
    "Phone": "713-527-9464",
    "Website": "http://www.hooters.com/"
  },
  {
    "Teams": "ncaabuga;ncaafuga;mlbhou;nbahou",
    "Name": "Little Woodrow's in the Heights",
    "Address": "2631 White Oak Dr, Houston, TX 77009",
    "City": "HOU",
    "State": "TX",
    "latitude": 29.7813864,
    "longitude": -95.3873885,
    "Phone": "713-861-2653",
    "Website": "http://littlewoodrows.com/watering-holes/houston/the-heights/"
  },
  {
    "Teams": "ncaabttu;ncaafttu",
    "Name": "Texas Borders Bar & Grill 1093",
    "Address": "26440 Farm to Market 1093 #400, Richmond, TX 77406",
    "City": "HOU",
    "State": "TX",
    "latitude": 29.6967853,
    "longitude": -95.8324488,
    "Phone": "281-394-2100",
    "Website": "https://www.bordersbarandgrillrichmondtx.com/"
  },
  {
    "Teams": "ncaabttu;ncaafttu",
    "Name": "Texas Borders Bar & Grill",
    "Address": "26440 Farm to Market 1093 Suite 400, Richmond, TX 77406",
    "City": "HOU",
    "State": "TX",
    "latitude": 29.6965728,
    "longitude": -95.8324216,
    "Phone": "281-394-2100",
    "Website": "http://www.texasbordersbarandgrill.com/"
  },
  {
    "Teams": "ncaabtex;ncaaftex",
    "Name": "Bar Louie - Katy",
    "Address": "2707 Commercial Center Blvd Building M, Katy, TX 77494",
    "City": "HOU",
    "State": "TX",
    "latitude": 29.7399569,
    "longitude": -95.7740391,
    "Phone": "281-394-5480",
    "Website": "https://www.barlouie.com/locations/us/tx/katy/katy"
  },
  {
    "Teams": "mlbhou;nflhou;ncaabmiz;ncaafmiz;nflne;ncaabucla;ncaafucla;ncaabuw;ncaafuw;ncaabwsu;ncaafwsu",
    "Name": "Nick's Place",
    "Address": "2713 Rockyridge Dr, Houston, TX 77063",
    "City": "HOU",
    "State": "TX",
    "latitude": 29.7363843,
    "longitude": -95.5322013,
    "Phone": "713-780-8338",
    "Website": "http://www.nicksplacehouston.com/"
  },
  {
    "Teams": "nbahou",
    "Name": "Dirty D's Tavern",
    "Address": "2717 N Alexander Dr, Baytown, TX 77520",
    "City": "HOU",
    "State": "TX",
    "latitude": 29.7501001,
    "longitude": -94.9458692,
    "Phone": "281-837-7125",
    "Website": ""
  },
  {
    "Teams": "mlbhou;ncaabmsst;ncaafmsst",
    "Name": "Bobcat Teddy's Icehouse",
    "Address": "2803 White Oak Dr, Houston, TX 77007",
    "City": "HOU",
    "State": "TX",
    "latitude": 29.781428,
    "longitude": -95.388681,
    "Phone": "832-742-5535",
    "Website": "https://bobcat-teddys-icehouse.business.site/"
  },
  {
    "Teams": "nfldal;mlbhou;nflhou;ncaabtamu;ncaaftamu",
    "Name": "Beerfoot Brewery",
    "Address": "2816 Avenue R 1/2, Galveston, TX 77550",
    "City": "HOU",
    "State": "TX",
    "latitude": 29.2863749,
    "longitude": -94.7942442,
    "Phone": "409-762-2337",
    "Website": "https://beerfootbrewery.com/"
  },
  {
    "Teams": "nflbal;ncaabuconn;ncaafuconn;ncaabduke;ncaafduke;ncaabuf;ncaafuf;ncaabfsu;ncaaffsu;mlbhou;nbahou;nflhou;ncaabsyr;ncaafsyr",
    "Name": "Christian's Tailgate Bar & Grill",
    "Address": "2820 White Oak Dr, Houston, TX 77007",
    "City": "HOU",
    "State": "TX",
    "latitude": 29.78187,
    "longitude": -95.3896843,
    "Phone": "713-863-1207",
    "Website": "http://www.christianstailgate.com/"
  },
  {
    "Teams": "nbahou;ncaabmiz;ncaafmiz;ncaabtem;ncaaftem",
    "Name": "Jake's Sports Bar",
    "Address": "2944 Chimney Rock Rd, Houston, TX 77056",
    "City": "HOU",
    "State": "TX",
    "latitude": 29.7347417,
    "longitude": -95.4770214,
    "Phone": "713-781-1962",
    "Website": "http://www.jakessportsbar.com/"
  },
  {
    "Teams": "ncaabmsst;ncaafmsst",
    "Name": "Molly's Pub",
    "Address": "29803 TX-494 Loop, Humble, TX 77339",
    "City": "HOU",
    "State": "TX",
    "latitude": 30.0491735,
    "longitude": -95.2486662,
    "Phone": "281-358-1990",
    "Website": "http://www.houstonirishpubs.com/"
  },
  {
    "Teams": "ncaabtamu;ncaaftamu",
    "Name": "Papa's Ice House Sports Bar & Grill",
    "Address": "314 Pruitt Rd, Spring, TX 77380",
    "City": "HOU",
    "State": "TX",
    "latitude": 30.120085,
    "longitude": -95.445713,
    "Phone": "281-364-8140",
    "Website": "http://www.papasicehousetx.com/"
  },
  {
    "Teams": "nflnyg",
    "Name": "Cielo Latin Bar",
    "Address": "314 Sawdust Rd #113, Spring, TX 77380",
    "City": "HOU",
    "State": "TX",
    "latitude": 30.1272969,
    "longitude": -95.4473795,
    "Phone": "832-257-4940",
    "Website": "http://www.cielolatinbar.com/"
  },
  {
    "Teams": "ncaabku;ncaafku",
    "Name": "Center Court Pizza & Brew",
    "Address": "3202 Marina Bay Dr, League City, TX 77573",
    "City": "HOU",
    "State": "TX",
    "latitude": 29.542996,
    "longitude": -95.0554978,
    "Phone": "281-339-7462",
    "Website": "http://www.centercourtpizza.com/"
  },
  {
    "Teams": "ncaabutsa;ncaafutsa",
    "Name": "Velvet Melvin Pub",
    "Address": "3303 Richmond Ave, Houston, TX 77098",
    "City": "HOU",
    "State": "TX",
    "latitude": 29.7337347,
    "longitude": -95.4265576,
    "Phone": "713-522-6798",
    "Website": "http://facebook.com/velvetmelvinpub/"
  },
  {
    "Teams": "ncaabaub;ncaafaub;mlbhou;nflhou;ncaabmich;ncaafmich",
    "Name": "Beer Market Co. - Midtown",
    "Address": "3304 Milam St, Houston, TX 77006",
    "City": "HOU",
    "State": "TX",
    "latitude": 29.7419983,
    "longitude": -95.3796854,
    "Phone": "713-527-8955",
    "Website": "http://www.beermarketco.com/"
  },
  {
    "Teams": "mlbhou;nflhou;ncaabsmu;ncaafsmu",
    "Name": "Kirby Ice House",
    "Address": "3333 Eastside St, Houston, TX 77098",
    "City": "HOU",
    "State": "TX",
    "latitude": 29.7356688,
    "longitude": -95.4243828,
    "Phone": "713-524-2752",
    "Website": "https://www.kirbyicehouse.com/"
  },
  {
    "Teams": "ncaabark;ncaafark;nflden;nflhou;ncaabvu",
    "Name": "Cactus Cove Bar & Grill",
    "Address": "3333 W 11th St, Houston, TX 77008",
    "City": "HOU",
    "State": "TX",
    "latitude": 29.7888914,
    "longitude": -95.4367088,
    "Phone": "713-426-0337",
    "Website": "http://cactuscovehouston.com/"
  },
  {
    "Teams": "nflatl;mlbhou",
    "Name": "Griff's",
    "Address": "3416 Roseland St, Houston, TX 77006",
    "City": "HOU",
    "State": "TX",
    "latitude": 29.7416234,
    "longitude": -95.3901946,
    "Phone": "713-528-9912",
    "Website": "http://www.griffsirishpub.com/"
  },
  {
    "Teams": "nbahou",
    "Name": "Brick House Tavern + Tap",
    "Address": "3502a Seawall Blvd, Galveston, TX 77550",
    "City": "HOU",
    "State": "TX",
    "latitude": 29.2817539,
    "longitude": -94.8011578,
    "Phone": "409-763-5649",
    "Website": "http://brickhousetavernandtap.com/location/20223"
  },
  {
    "Teams": "mlshou",
    "Name": "Hooters",
    "Address": "3656 East Sam Houston Pkwy S, Pasadena, TX 77505",
    "City": "HOU",
    "State": "TX",
    "latitude": 29.6547943,
    "longitude": -95.1574289,
    "Phone": "281-991-4668",
    "Website": "http://www.hooters.com/"
  },
  {
    "Teams": "ncaabiowa;ncaafiowa",
    "Name": "Buffalo Wild Wings",
    "Address": "3939 Washington Ave #100, Houston, TX 77007",
    "City": "HOU",
    "State": "TX",
    "latitude": 29.769607,
    "longitude": -95.4003422,
    "Phone": "832-356-2980",
    "Website": "https://www.buffalowildwings.com/en/locations/detail/447/"
  },
  {
    "Teams": "nflcle",
    "Name": "Times Square Entertainment",
    "Address": "402 West Grand Parkway South #110, Katy, TX 77494",
    "City": "HOU",
    "State": "TX",
    "latitude": 29.7772512,
    "longitude": -95.7795095,
    "Phone": "281-395-8555",
    "Website": "http://www.timessquaretx.com/"
  },
  {
    "Teams": "ncaabttu;ncaafttu",
    "Name": "Woodson's Local Tap + Kitchen Grand Parkway",
    "Address": "4127 Riley Fuzzel Rd #100, Spring, TX 77386",
    "City": "HOU",
    "State": "TX",
    "latitude": 30.1190134,
    "longitude": -95.3786891,
    "Phone": "832-210-2770",
    "Website": "https://woodsonslocal.com/"
  },
  {
    "Teams": "mlbhou",
    "Name": "Bovine & Barley",
    "Address": "416 S Main St, Houston, TX 77002",
    "City": "HOU",
    "State": "TX",
    "latitude": 29.761133,
    "longitude": -95.361963,
    "Phone": "832-742-5683",
    "Website": "http://www.bovineandbarley.com/"
  },
  {
    "Teams": "mlbhou",
    "Name": "El Big Bad",
    "Address": "419 Travis St, Houston, TX 77002",
    "City": "HOU",
    "State": "TX",
    "latitude": 29.76126,
    "longitude": -95.3624789,
    "Phone": "713-229-8181",
    "Website": "http://www.elbigbad.com/"
  },
  {
    "Teams": "mlshou",
    "Name": "The Railyard Houston",
    "Address": "4206 San Felipe St, Houston, TX 77027",
    "City": "HOU",
    "State": "TX",
    "latitude": 29.746995,
    "longitude": -95.4489747,
    "Phone": "713-621-4000",
    "Website": "http://www.railyardhouston.com/"
  },
  {
    "Teams": "nflhou",
    "Name": "Underdogs Pub",
    "Address": "4212 Washington Ave, Houston, TX 77007",
    "City": "HOU",
    "State": "TX",
    "latitude": 29.7704684,
    "longitude": -95.4034199,
    "Phone": "713-410-5660",
    "Website": "http://underdogspub.com/"
  },
  {
    "Teams": "ncaabbay;ncaafbay;mlbhou;nbahou",
    "Name": "Little Woodrow's Bellaire",
    "Address": "4235 Bellaire Blvd, Houston, TX 77025",
    "City": "HOU",
    "State": "TX",
    "latitude": 29.7055699,
    "longitude": -95.4470129,
    "Phone": "713-661-5282",
    "Website": "https://littlewoodrows.com/watering-holes/houston/bellaire/"
  },
  {
    "Teams": "ncaabark;ncaafark;nflno",
    "Name": "Ragin' Cajun Restaurant",
    "Address": "4302 Richmond Ave, Houston, TX 77027",
    "City": "HOU",
    "State": "TX",
    "latitude": 29.732882,
    "longitude": -95.449075,
    "Phone": "713-623-6321",
    "Website": "https://ragin-cajun.com/the-original/"
  },
  {
    "Teams": "nbahou",
    "Name": "R6 Sports Bar",
    "Address": "4329 Hwy 6 N, Houston, TX 77084",
    "City": "HOU",
    "State": "TX",
    "latitude": 29.8372623,
    "longitude": -95.6468101,
    "Phone": "281-550-6600",
    "Website": "http://www.r6bar.com/"
  },
  {
    "Teams": "ncaabku;ncaafku",
    "Name": "Buffalo Run",
    "Address": "440 Rayford Rd #115, Spring, TX 77386",
    "City": "HOU",
    "State": "TX",
    "latitude": 30.1262948,
    "longitude": -95.4364146,
    "Phone": "832-813-8619",
    "Website": "https://www.facebook.com/BuffaloRunTX/"
  },
  {
    "Teams": "ncaabuva;ncaafuva",
    "Name": "NettBar",
    "Address": "4504 Nett St, Houston, TX 77007",
    "City": "HOU",
    "State": "TX",
    "latitude": 29.7721106,
    "longitude": -95.406543,
    "Phone": "832-991-8610",
    "Website": "http://www.nettbarhouston.com/"
  },
  {
    "Teams": "mlbhou;ncaabhou;ncaafhou;nbahou",
    "Name": "Gridiron Bar & Grill",
    "Address": "4524 Hwy 6, Sugar Land, TX 77478",
    "City": "HOU",
    "State": "TX",
    "latitude": 29.5810929,
    "longitude": -95.5861093,
    "Phone": "281-494-4227",
    "Website": ""
  },
  {
    "Teams": "mlshou;nbahou;nflnyg",
    "Name": "Twin Peaks Houston - Kirby",
    "Address": "4527 Lomitas St, Houston, TX 77098",
    "City": "HOU",
    "State": "TX",
    "latitude": 29.7315402,
    "longitude": -95.417212,
    "Phone": "713-520-7730",
    "Website": "https://twinpeaksrestaurant.com/locations/kirby-tx"
  },
  {
    "Teams": "nfldal",
    "Name": "The Chute",
    "Address": "4537 Garth Rd, Baytown, TX 77521",
    "City": "HOU",
    "State": "TX",
    "latitude": 29.7725807,
    "longitude": -94.9789856,
    "Phone": "281-422-4900",
    "Website": "http://thechutebaytown.com/"
  },
  {
    "Teams": "nbahou",
    "Name": "Volcano Room",
    "Address": "4650 E NASA Pkwy, Seabrook, TX 77586",
    "City": "HOU",
    "State": "TX",
    "latitude": 29.5669727,
    "longitude": -95.0605046,
    "Phone": "281-549-4080",
    "Website": ""
  },
  {
    "Teams": "ncaabksu;ncaafksu",
    "Name": "3 B's Restaurant",
    "Address": "466 Rayford Rd # 107, Spring, TX 77386",
    "City": "HOU",
    "State": "TX",
    "latitude": 30.126852,
    "longitude": -95.4351572,
    "Phone": "281-419-3553",
    "Website": "http://www.3-bs.com/"
  },
  {
    "Teams": "ncaabhou;ncaafhou",
    "Name": "Calhoun's Rooftop",
    "Address": "4701 Calhoun Rd #200, Houston, TX 77004",
    "City": "HOU",
    "State": "TX",
    "latitude": 29.7229136,
    "longitude": -95.3372412,
    "Phone": "832-649-8849",
    "Website": "http://www.calhounsrooftop.com/"
  },
  {
    "Teams": "nflkc",
    "Name": "The Key",
    "Address": "4803 Main St, Houston, TX 77002",
    "City": "HOU",
    "State": "TX",
    "latitude": 29.7311502,
    "longitude": -95.3850776,
    "Phone": "346-291-5914",
    "Website": "http://www.thekeyhouston.com/"
  },
  {
    "Teams": "mlbhou",
    "Name": "Broskis Sports Bar",
    "Address": "4830 Hwy 6 N ste a, Houston, TX 77084",
    "City": "HOU",
    "State": "TX",
    "latitude": 29.8466754,
    "longitude": -95.6445727,
    "Phone": "713-584-3537",
    "Website": "https://broskis-sports-bar.business.site/"
  },
  {
    "Teams": "ncaabhou;ncaafhou",
    "Name": "The Den",
    "Address": "4835 Calhoun Rd, Houston, TX 77004",
    "City": "HOU",
    "State": "TX",
    "latitude": 29.7188048,
    "longitude": -95.3378052,
    "Phone": "281-888-4299",
    "Website": "http://www.uhdenbar.com/"
  },
  {
    "Teams": "ncaabbc;ncaafbc;ncaabduke;ncaafduke;mlbhou;nflhou",
    "Name": "On The Kirb",
    "Address": "5004 Kirby Dr, Houston, TX 77098",
    "City": "HOU",
    "State": "TX",
    "latitude": 29.7275485,
    "longitude": -95.4191331,
    "Phone": "713-526-1414",
    "Website": "http://www.onthekirb.com/"
  },
  {
    "Teams": "mlshou",
    "Name": "Saint Dane's Bar & Grille",
    "Address": "502 Elgin St, Houston, TX 77006",
    "City": "HOU",
    "State": "TX",
    "latitude": 29.7439098,
    "longitude": -95.3812303,
    "Phone": "713-807-7040",
    "Website": "http://www.saintdanesbar.com/"
  },
  {
    "Teams": "ncaabsyr;ncaafsyr",
    "Name": "Buffalo Wild Wings",
    "Address": "510 Gray St, Houston, TX 77002",
    "City": "HOU",
    "State": "TX",
    "latitude": 29.7508141,
    "longitude": -95.3755827,
    "Phone": "713-650-0002",
    "Website": "http://buffalowildwings.com/"
  },
  {
    "Teams": "nbahou",
    "Name": "Lincoln Bar",
    "Address": "5110 Washington Ave, Houston, TX 77007",
    "City": "HOU",
    "State": "TX",
    "latitude": 29.770598,
    "longitude": -95.4130008,
    "Phone": "713-864-8811",
    "Website": ""
  },
  {
    "Teams": "mlbhou;nbahou;ncaabuk;ncaafuk;ncaabosu;ncaafosu;ncaabpit;ncaafpit;ncaabstan;ncaafstan;ncaabwvu;ncaafwvu",
    "Name": "Christians Tailgate",
    "Address": "5114 Kirby Dr, Houston, TX 77098",
    "City": "HOU",
    "State": "TX",
    "latitude": 29.7265987,
    "longitude": -95.4189915,
    "Phone": "832-925-7922",
    "Website": "http://www.christianstailgate.com/"
  },
  {
    "Teams": "nhlbos;nhlcgy;mlshou;nhlnsh;nhlnjd;nhlnyi;nhlpit;nhlsjs;nhltbl;nhltor;nhlwsh;nhlwpg",
    "Name": "The Maple Leaf Pub",
    "Address": "514 Elgin St, Houston, TX 77006",
    "City": "HOU",
    "State": "TX",
    "latitude": 29.7436896,
    "longitude": -95.3807347,
    "Phone": "713-520-6464",
    "Website": "http://www.themapleleafpub.com/"
  },
  {
    "Teams": "ncaabttu;ncaafttu",
    "Name": "BJ's Restaurant & Brewhouse",
    "Address": "515 Bay Area Blvd, Webster, TX 77598",
    "City": "HOU",
    "State": "TX",
    "latitude": 29.5451395,
    "longitude": -95.1323659,
    "Phone": "281-316-3037",
    "Website": "http://www.bjsrestaurants.com/locations/tx/clear-lake"
  },
  {
    "Teams": "ncaabokst;ncaafokst;ncaabwis;ncaafwis",
    "Name": "Doberman's Bar & Grill",
    "Address": "519 Shepherd Dr, Houston, TX 77007",
    "City": "HOU",
    "State": "TX",
    "latitude": 29.7672613,
    "longitude": -95.4097078,
    "Phone": "713-862-4036",
    "Website": "https://dobermans-bar-grill.business.site/"
  },
  {
    "Teams": "nbahou",
    "Name": "Da Stadium",
    "Address": "5231 Burke Rd, Pasadena, TX 77504",
    "City": "HOU",
    "State": "TX",
    "latitude": 29.6312445,
    "longitude": -95.1804591,
    "Phone": "281-991-0506",
    "Website": ""
  },
  {
    "Teams": "ncaabtcu;ncaaftcu;ncaabtenn;ncaaftenn;ncaabtxst;ncaaftxst",
    "Name": "Little J's Bar",
    "Address": "5306 Washington Ave, Houston, TX 77007",
    "City": "HOU",
    "State": "TX",
    "latitude": 29.7707599,
    "longitude": -95.4147042,
    "Phone": "832-831-5015",
    "Website": "http://www.littlejsbar.com/"
  },
  {
    "Teams": "ncaabhou;ncaafhou",
    "Name": "Big City Wings",
    "Address": "5324 Atascocita Road, Humble, TX 77346",
    "City": "HOU",
    "State": "TX",
    "latitude": 29.9871036,
    "longitude": -95.1942519,
    "Phone": "281-570-4395",
    "Website": "https://bigcitywings.com/"
  },
  {
    "Teams": "ncaabhou;ncaafhou",
    "Name": "Big City Wings",
    "Address": "5402 Hwy 6, Houston, TX 77084",
    "City": "HOU",
    "State": "TX",
    "latitude": 29.855581,
    "longitude": -95.644359,
    "Phone": "832-674-8466",
    "Website": "https://bigcitywings.com/"
  },
  {
    "Teams": "nflphi;ncaabrutg;ncaafrutg;ncaabtlsa;ncaaftlsa",
    "Name": "Ladybirds",
    "Address": "5519 Allen St, Houston, TX 77007",
    "City": "HOU",
    "State": "TX",
    "latitude": 29.7746863,
    "longitude": -95.4183693,
    "Phone": "713-393-7647",
    "Website": "http://www.ladybirdsbar.com/"
  },
  {
    "Teams": "mlshou",
    "Name": "The Ginger Man Houston",
    "Address": "5607 Morningside Dr, Houston, TX 77005",
    "City": "HOU",
    "State": "TX",
    "latitude": 29.715869,
    "longitude": -95.414643,
    "Phone": "713-526-2770",
    "Website": "http://thegingerman.com/houston"
  },
  {
    "Teams": "mlbhou;nbahou;ncaabmich;ncaafmich;ncaabrice;ncaafrice",
    "Name": "Little Woodrow's Rice Village",
    "Address": "5611 Morningside Dr, Houston, TX 77005",
    "City": "HOU",
    "State": "TX",
    "latitude": 29.7157306,
    "longitude": -95.4145859,
    "Phone": "713-521-2337",
    "Website": "https://littlewoodrows.com/watering-holes/houston/rice-village/"
  },
  {
    "Teams": "nbahou",
    "Name": "The Pub Galleria",
    "Address": "5636 Richmond Ave, Houston, TX 77057",
    "City": "HOU",
    "State": "TX",
    "latitude": 29.7320984,
    "longitude": -95.4781294,
    "Phone": "713-278-7272",
    "Website": "http://thepubgalleria.com/"
  },
  {
    "Teams": "ncaabosu;ncaafosu",
    "Name": "Sam's Boat",
    "Address": "5720 Richmond Ave, Houston, TX 77057",
    "City": "HOU",
    "State": "TX",
    "latitude": 29.732071,
    "longitude": -95.479706,
    "Phone": "713-781-2628",
    "Website": "http://www.samsboat.com/"
  },
  {
    "Teams": "mlshou",
    "Name": "El Toro Mexican Restaurant",
    "Address": "5810 Garth Rd, Baytown, TX 77521",
    "City": "HOU",
    "State": "TX",
    "latitude": 29.7861723,
    "longitude": -94.9774791,
    "Phone": "281-421-1919",
    "Website": "http://www.eltorotexmex.com/"
  },
  {
    "Teams": "ncaabbama;ncaafbama",
    "Name": "The Flying Pug Sports Pub",
    "Address": "592 Sawdust Rd, Spring, TX 77380",
    "City": "HOU",
    "State": "TX",
    "latitude": 30.1270904,
    "longitude": -95.4513256,
    "Phone": "832-510-2060",
    "Website": "http://flyingpugsportspub.com/"
  },
  {
    "Teams": "mlshou",
    "Name": "The Richmond Arms Pub",
    "Address": "5920 Richmond Ave, Houston, TX 77057",
    "City": "HOU",
    "State": "TX",
    "latitude": 29.7318861,
    "longitude": -95.4832998,
    "Phone": "713-784-7722",
    "Website": "http://www.richmondarmsonline.com/"
  },
  {
    "Teams": "mlbhou;nbahou;nflhou",
    "Name": "Chuck's Sports Bar and Memorabilia",
    "Address": "601 E Main St, League City, TX 77573",
    "City": "HOU",
    "State": "TX",
    "latitude": 29.5105745,
    "longitude": -95.0905027,
    "Phone": "832-632-1325",
    "Website": "https://www.facebook.com/Chucks-Sports-Bar-Memorabilia-1648088905507560/"
  },
  {
    "Teams": "nfldal;ncaabhou;ncaafhou;nflne",
    "Name": "Diablo Loco Sports Bar",
    "Address": "6025 Richmond Ave, Houston, TX 77057",
    "City": "HOU",
    "State": "TX",
    "latitude": 29.7313163,
    "longitude": -95.4864246,
    "Phone": "713-266-4244",
    "Website": "http://www.diablolocotexas.com/"
  },
  {
    "Teams": "ncaabtcu;ncaaftcu",
    "Name": "Beaver's West",
    "Address": "6025 Westheimer Rd, Houston, TX 77057",
    "City": "HOU",
    "State": "TX",
    "latitude": 29.7367943,
    "longitude": -95.4892876,
    "Phone": "713-714-4111",
    "Website": "http://beavershtx.com/"
  },
  {
    "Teams": "ncaabfsu;ncaaffsu",
    "Name": "242 Pub & Grill",
    "Address": "6062 Farm to Market 2920, Spring, TX 77379",
    "City": "HOU",
    "State": "TX",
    "latitude": 30.0745163,
    "longitude": -95.5179806,
    "Phone": "281-251-0863",
    "Website": "http://242pub.com/"
  },
  {
    "Teams": "mlbhou;nflhou;nflten",
    "Name": "PJ's Sports Bar",
    "Address": "614 W Gray St, Houston, TX 77019",
    "City": "HOU",
    "State": "TX",
    "latitude": 29.753597,
    "longitude": -95.388758,
    "Phone": "713-520-1748",
    "Website": "https://pjs-sports-bar.business.site/"
  },
  {
    "Teams": "nbahou;nflhou;ncaabtenn;ncaaftenn",
    "Name": "Bubbas Bar & Grill LLC",
    "Address": "6225 Washington Ave, Houston, TX 77007",
    "City": "HOU",
    "State": "TX",
    "latitude": 29.7730621,
    "longitude": -95.4250351,
    "Phone": "281-888-4215",
    "Website": "http://www.bubbasonwashington.com/"
  },
  {
    "Teams": "nflkc",
    "Name": "Big Ben Tavern",
    "Address": "636 Hwy 6 Suite 1000, Sugar Land, TX 77478",
    "City": "HOU",
    "State": "TX",
    "latitude": 29.60708,
    "longitude": -95.642551,
    "Phone": "832-532-7855",
    "Website": "http://www.thebigbentavern.com/"
  },
  {
    "Teams": "ncaabariz;ncaafariz;ncaabokst;ncaafokst;ncaabtcu;ncaaftcu",
    "Name": "Revolver Houston",
    "Address": "6502 Washington Ave, Houston, TX 77007",
    "City": "HOU",
    "State": "TX",
    "latitude": 29.7762453,
    "longitude": -95.4270416,
    "Phone": "713-862-4555",
    "Website": "http://www.revolverhouston.com/"
  },
  {
    "Teams": "ncaabtuln;ncaaftuln",
    "Name": "Canyon Creek",
    "Address": "6603 Westcott St, Houston, TX 77007",
    "City": "HOU",
    "State": "TX",
    "latitude": 29.7748872,
    "longitude": -95.4276997,
    "Phone": "713-864-5885",
    "Website": "http://www.canyoncreekcafe.com/"
  },
  {
    "Teams": "nflden",
    "Name": "Porch Swing Pub",
    "Address": "69 Heights Blvd, Houston, TX 77007",
    "City": "HOU",
    "State": "TX",
    "latitude": 29.770039,
    "longitude": -95.3976707,
    "Phone": "713-880-8700",
    "Website": "http://www.porchswingpub.com/"
  },
  {
    "Teams": "ncaabxu",
    "Name": "Irish Pub Kenneally's",
    "Address": "7009, 2111 S Shepherd Dr, Houston, TX 77019",
    "City": "HOU",
    "State": "TX",
    "latitude": 29.7464955,
    "longitude": -95.4105279,
    "Phone": "713-630-0486",
    "Website": "http://www.irishpubkenneallys.com/"
  },
  {
    "Teams": "ncaabmsst;ncaafmsst",
    "Name": "On the Rox - Atascocita",
    "Address": "7054 FM 1960, Humble, TX 77346",
    "City": "HOU",
    "State": "TX",
    "latitude": 29.9968124,
    "longitude": -95.1706344,
    "Phone": "832-644-8757",
    "Website": "http://www.ontheroxbar.com/"
  },
  {
    "Teams": "mlbhou;nbahou;nflhou;ncaablsu;ncaaflsu;ncaabwake;ncaafwake",
    "Name": "Little Woodrow's Shepherd",
    "Address": "720 Shepherd Dr, Houston, TX 77007",
    "City": "HOU",
    "State": "TX",
    "latitude": 29.7687875,
    "longitude": -95.4090445,
    "Phone": "832-804-9941",
    "Website": "http://shepherd.littlewoodrows.com/"
  },
  {
    "Teams": "nfldal;ncaabhou;ncaafhou",
    "Name": "Big City Wings",
    "Address": "7620 Katy Fwy Suite 460, Houston, TX 77024",
    "City": "HOU",
    "State": "TX",
    "latitude": 29.7853591,
    "longitude": -95.4637266,
    "Phone": "713-239-2092",
    "Website": "http://www.bigcitywings.com/"
  },
  {
    "Teams": "ncaabmoh;ncaafmoh;ncaabvu",
    "Name": "Hugh O'Connors",
    "Address": "7620 Katy Fwy Unit #350, Houston, TX 77024",
    "City": "HOU",
    "State": "TX",
    "latitude": 29.785512,
    "longitude": -95.4641301,
    "Phone": "832-430-4961",
    "Website": "https://hughoconnors.com/"
  },
  {
    "Teams": "mlbchc",
    "Name": "Johnny Mcelroy's Irish Pub",
    "Address": "770193905, 1223 Waugh Dr, Houston, TX 77019",
    "City": "HOU",
    "State": "TX",
    "latitude": 29.7557759,
    "longitude": -95.3977865,
    "Phone": "713-523-2444",
    "Website": "http://johnnymcelroys.com/"
  },
  {
    "Teams": "nbahou",
    "Name": "Molly Malone's Pub",
    "Address": "7824 Louetta Rd, Spring, TX 77379",
    "City": "HOU",
    "State": "TX",
    "latitude": 30.0171735,
    "longitude": -95.5320786,
    "Phone": "281-370-4949",
    "Website": "http://www.houstonirishpubs.com/listofpubs/#/molly-malones-pub/"
  },
  {
    "Teams": "mlbbos;ncaabuga;ncaafuga;mlbhou;ncaabhou;ncaafhou;mlshou;nbahou;nflhou;ncaabsyr;ncaafsyr",
    "Name": "Lucky's Pub",
    "Address": "801 St Emanuel St, Houston, TX 77003",
    "City": "HOU",
    "State": "TX",
    "latitude": 29.7524613,
    "longitude": -95.3543636,
    "Phone": "713-522-2010",
    "Website": "http://www.luckyspub.com/locations/downtown/"
  },
  {
    "Teams": "ncaabou;ncaafou",
    "Name": "Fuego's Saloon",
    "Address": "817 Durham Dr, Houston, TX 77007",
    "City": "HOU",
    "State": "TX",
    "latitude": 29.7694042,
    "longitude": -95.4109577,
    "Phone": "713-384-4541",
    "Website": "http://fuegos-saloon.business.site/"
  },
  {
    "Teams": "ncaabosu;ncaafosu",
    "Name": "242 Pub & Grill",
    "Address": "8540 TX-242, Conroe, TX 77385",
    "City": "HOU",
    "State": "TX",
    "latitude": 30.207576,
    "longitude": -95.445507,
    "Phone": "936-271-4400",
    "Website": "http://242pub.com/"
  },
  {
    "Teams": "nflmin",
    "Name": "King's Court Bar and Kitchen",
    "Address": "903 Hutchins St, Houston, TX 77003",
    "City": "HOU",
    "State": "TX",
    "latitude": 29.751209,
    "longitude": -95.35396,
    "Phone": "281-974-3496",
    "Website": "http://kingscourthouston.com/"
  },
  {
    "Teams": "ncaabusf;ncaafusf",
    "Name": "Henderson Heights Pub",
    "Address": "908 Henderson St, Houston, TX 77007",
    "City": "HOU",
    "State": "TX",
    "latitude": 29.7675188,
    "longitude": -95.3792523,
    "Phone": "713-714-8367",
    "Website": "http://www.hendersonheightstx.com/"
  },
  {
    "Teams": "mlbhou",
    "Name": "Shay McElroy's Irish Pub",
    "Address": "909 Texas St # A, Houston, TX 77002",
    "City": "HOU",
    "State": "TX",
    "latitude": 29.7604205,
    "longitude": -95.3624151,
    "Phone": "713-223-2444",
    "Website": "http://www.mcelroyspub.com/"
  },
  {
    "Teams": "mlbhou;nflhou;ncaabpur;ncaafpur;ncaabvu;ncaabvt;ncaafvt;ncaabwvu;ncaafwvu;ncaabwis;ncaafwis",
    "Name": "Beer Market Co.",
    "Address": "920 Studemont St #900, Houston, TX 77007",
    "City": "HOU",
    "State": "TX",
    "latitude": 29.7671842,
    "longitude": -95.3917273,
    "Phone": "713-426-9035",
    "Website": "http://www.beermarketco.com/studemont/index.html"
  },
  {
    "Teams": "ncaabusf;ncaafusf",
    "Name": "The Brass Tap",
    "Address": "922 Holman St, Houston, TX 77002",
    "City": "HOU",
    "State": "TX",
    "latitude": 29.7400368,
    "longitude": -95.3793944,
    "Phone": "281-501-0319",
    "Website": "https://www.thebrasstap.com/houston"
  },
  {
    "Teams": "ncaabgt;ncaafgt;ncaabuva;ncaafuva",
    "Name": "Eureka Heights Brew Co",
    "Address": "941 W 18th St, Houston, TX 77008",
    "City": "HOU",
    "State": "TX",
    "latitude": 29.8018313,
    "longitude": -95.416249,
    "Phone": "832-953-4677",
    "Website": "http://eurekaheights.com/"
  },
  {
    "Teams": "ncaabpit;ncaafpit",
    "Name": "Buffalo Wild Wings",
    "Address": "9435 Katy Fwy, Houston, TX 77024",
    "City": "HOU",
    "State": "TX",
    "latitude": 29.7834972,
    "longitude": -95.5273032,
    "Phone": "281-833-8300",
    "Website": "https://buffalowildwings.com/en/locations/detail/3654/"
  },
  {
    "Teams": "ncaabnavy;ncaafnavy;ncaabusc;ncaafusc",
    "Name": "Wakefield Crowbar",
    "Address": "954 Wakefield Dr, Houston, TX 77018",
    "City": "HOU",
    "State": "TX",
    "latitude": 29.8220596,
    "longitude": -95.4230431,
    "Phone": "713-686-8388",
    "Website": "http://www.wakefieldcrowbar.com/"
  },
  {
    "Teams": "ncaabusc;ncaafusc",
    "Name": "Walking Stick Brewing Co.",
    "Address": "956 Judiway St, Houston, TX 77018",
    "City": "HOU",
    "State": "TX",
    "latitude": 29.8209985,
    "longitude": -95.4233603,
    "Phone": "",
    "Website": "https://walkingstickbrewing.com/"
  },
  {
    "Teams": "ncaabhou;ncaafhou;mlbhou",
    "Name": "Big City Wings",
    "Address": "9721 Broadway St, Pearland, TX 77584",
    "City": "HOU",
    "State": "TX",
    "latitude": 29.5571955,
    "longitude": -95.3710679,
    "Phone": "346-754-5980",
    "Website": "https://bigcitywings.com/"
  },
  {
    "Teams": "nflpit",
    "Name": "Frank 'n' Steins Bar & Grill",
    "Address": "9907 S Texas 6, Sugar Land, TX 77498",
    "City": "HOU",
    "State": "TX",
    "latitude": 29.671422,
    "longitude": -95.6425508,
    "Phone": "281-568-5593",
    "Website": "https://www.facebook.com/franknsteinsbarngrill/"
  },
  {
    "Teams": "nfldal",
    "Name": "Sam's Boat",
    "Address": "9955 Barker Cypress Rd #100, Cypress, TX 77433",
    "City": "HOU",
    "State": "TX",
    "latitude": 29.9224404,
    "longitude": -95.6886103,
    "Phone": "832-334-5490",
    "Website": "http://www.samsboat.com/"
  },
  {
    "Teams": "nbahou;ncaabttu;ncaafttu",
    "Name": "Scotty's Pub on the Bay",
    "Address": "f, 3202 Marina Bay Dr, League City, TX 77573",
    "City": "HOU",
    "State": "TX",
    "latitude": 29.5430085,
    "longitude": -95.0557621,
    "Phone": "281-339-7474",
    "Website": "http://scottyspubhouston.com/"
  },
  {
    "Teams": "nbahou",
    "Name": "Twin Peaks",
    "Address": "Interstate 10 Frontage Rd, Houston, TX 77079",
    "City": "HOU",
    "State": "TX",
    "latitude": 29.784052,
    "longitude": -95.5836612,
    "Phone": "",
    "Website": "https://twinpeaksrestaurant.com/"
  }
]