[
  {
    "Teams": "ncaabosu;ncaafosu",
    "Name": "PIZZA FACTORY",
    "Address": "33312 Santiago Rd, Acton, CA 93510",
    "City": "LA",
    "State": "CA",
    "latitude": 34.4900059,
    "longitude": -118.1608742,
    "Phone": "661-526-6766",
    "Website": "http://pizzafactory.com/locations/acton/"
  },
  {
    "Teams": "mlblad;ncaabstan;ncaafstan",
    "Name": "Tavern 101 Grill & Tap House",
    "Address": "28434 Roadside Dr, Agoura Hills, CA 91301",
    "City": "LA",
    "State": "CA",
    "latitude": 34.1430224,
    "longitude": -118.7469434,
    "Phone": "818-991-7227",
    "Website": "https://www.taverngrills.com/agoura-hills/"
  },
  {
    "Teams": "ncaabstan;ncaafstan",
    "Name": "Islands Restaurant Agoura Hills",
    "Address": "29271 Agoura Rd, Agoura Hills, CA 91301",
    "City": "LA",
    "State": "CA",
    "latitude": 34.143774,
    "longitude": -118.762049,
    "Phone": "818-879-8550",
    "Website": "https://www.islandsrestaurants.com/locations/agoura-hills"
  },
  {
    "Teams": "mlblad;ncaabucla;ncaafucla;ncaabuw;ncaafuw",
    "Name": "Cronies Sports Grill",
    "Address": "5687 Kanan Rd, Agoura Hills, CA 91301",
    "City": "LA",
    "State": "CA",
    "latitude": 34.1542105,
    "longitude": -118.7587585,
    "Phone": "818-889-0889",
    "Website": "http://cronies.com/"
  },
  {
    "Teams": "nbalal",
    "Name": "38 Degrees Ale House & Grill",
    "Address": "100 W Main St, Alhambra, CA 91801",
    "City": "LA",
    "State": "CA",
    "latitude": 34.0943808,
    "longitude": -118.1279421,
    "Phone": "626-282-2038",
    "Website": "http://38degreesalehouse.com/"
  },
  {
    "Teams": "ncaabcal;ncaafcal",
    "Name": "28 WEST SPORTS BAR",
    "Address": "28 W Main St, Alhambra, CA 91801",
    "City": "LA",
    "State": "CA",
    "latitude": 34.0946468,
    "longitude": -118.1272596,
    "Phone": "626-281-1777",
    "Website": "https://28-west-sports-bar.business.site/"
  },
  {
    "Teams": "mlblad",
    "Name": "Villa Catrina",
    "Address": "251 N Santa Anita Ave, Arcadia, CA 91006",
    "City": "LA",
    "State": "CA",
    "latitude": 34.1428777,
    "longitude": -118.0319469,
    "Phone": "626-294-1973",
    "Website": "http://www.villacatrina.com/"
  },
  {
    "Teams": "mlblad",
    "Name": "Matt Denny's Ale House Restaurant",
    "Address": "3212, 145 Huntington Dr, Arcadia, CA 91006",
    "City": "LA",
    "State": "CA",
    "latitude": 34.1402563,
    "longitude": -118.0263825,
    "Phone": "626-462-0250",
    "Website": "http://www.mattdennys.com/"
  },
  {
    "Teams": "ncaabcal;ncaafcal;nfllac",
    "Name": "Dave & Buster's",
    "Address": "400 S Baldwin Ave Ste 930U, Arcadia, CA 91007",
    "City": "LA",
    "State": "CA",
    "latitude": 34.1347001,
    "longitude": -118.0515879,
    "Phone": "626-802-6115",
    "Website": "https://www.daveandbusters.com/locations/arcadia-santa-anita"
  },
  {
    "Teams": "mlblad",
    "Name": "Baldwin Park Pizza Company",
    "Address": "4744 Maine Ave, Baldwin Park, CA 91706",
    "City": "LA",
    "State": "CA",
    "latitude": 34.099004,
    "longitude": -117.960255,
    "Phone": "626-337-6090",
    "Website": "http://www.baldwinparkpizzaco.com/"
  },
  {
    "Teams": "nflsf",
    "Name": "Krazy Wings",
    "Address": "7016 Atlantic Ave, Bell, CA 90201",
    "City": "LA",
    "State": "CA",
    "latitude": 33.9716702,
    "longitude": -118.1875697,
    "Phone": "323-773-6000",
    "Website": ""
  },
  {
    "Teams": "mlblad",
    "Name": "Uncle Reds Pizzeria",
    "Address": "13762 Clark Ave, Bellflower, CA 90706",
    "City": "LA",
    "State": "CA",
    "latitude": 33.9048682,
    "longitude": -118.1338747,
    "Phone": "562-925-8413",
    "Website": "http://www.uncleredspizzeriamenu.com/"
  },
  {
    "Teams": "ncaabcin;ncaafcin",
    "Name": "Fronk's - Burgers - Cocktails - Craft Beer - & More",
    "Address": "16922 Bellflower Blvd, Bellflower, CA 90706",
    "City": "LA",
    "State": "CA",
    "latitude": 33.8803803,
    "longitude": -118.1250687,
    "Phone": "562-804-2222",
    "Website": "http://www.fronks.com/"
  },
  {
    "Teams": "ncaabmsu;ncaafmsu",
    "Name": "The Hollywood Way",
    "Address": "1333 N Hollywood Way, Burbank, CA 91505",
    "City": "LA",
    "State": "CA",
    "latitude": 34.1742046,
    "longitude": -118.3496339,
    "Phone": "818-845-4400",
    "Website": "http://thehollywoodwaybbq.com/"
  },
  {
    "Teams": "nflsf",
    "Name": "Gordon Biersch",
    "Address": "145 S San Fernando Blvd, Burbank, CA 91502",
    "City": "LA",
    "State": "CA",
    "latitude": 34.180097,
    "longitude": -118.3081,
    "Phone": "818-569-5240",
    "Website": "http://gordonbiersch.com/locations/burbank"
  },
  {
    "Teams": "mlblad",
    "Name": "Tony's Darts Away",
    "Address": "1710 W Magnolia Blvd, Burbank, CA 91506",
    "City": "LA",
    "State": "CA",
    "latitude": 34.1744292,
    "longitude": -118.3269333,
    "Phone": "818-253-1710",
    "Website": "http://www.tonysda.com/"
  },
  {
    "Teams": "nflgb;mlblad",
    "Name": "The Park Bar & Grill",
    "Address": "2007 W Burbank Blvd, Burbank, CA 91506",
    "City": "LA",
    "State": "CA",
    "latitude": 34.1807113,
    "longitude": -118.33298,
    "Phone": "818-557-6561",
    "Website": "http://theparkbarandgrill.com/"
  },
  {
    "Teams": "ncaabasu;ncaafasu;ncaabcolo;ncaafcolo;ncaabuga;ncaafuga;mlblad;nbalal;ncaabutah;ncaafutah;ncaabwsu;ncaafwsu",
    "Name": "Barney's Beanery Burbank",
    "Address": "250 N 1st St, Burbank, CA 91502",
    "City": "LA",
    "State": "CA",
    "latitude": 34.1811708,
    "longitude": -118.3117051,
    "Phone": "818-524-2912",
    "Website": "http://www.barneysbeanery.com/"
  },
  {
    "Teams": "nflchi;mlbchc",
    "Name": "Tinhorn Flats Saloon & Grill",
    "Address": "2623 W Magnolia Blvd, Burbank, CA 91505",
    "City": "LA",
    "State": "CA",
    "latitude": 34.1714246,
    "longitude": -118.3367929,
    "Phone": "818-567-2470",
    "Website": "http://www.tinhornflats.com/"
  },
  {
    "Teams": "ncaabarmy;ncaafarmy;nflkc;nbalal;nflpit",
    "Name": "Champs Sports Pub",
    "Address": "4103 W Burbank Blvd, Burbank, CA 91505",
    "City": "LA",
    "State": "CA",
    "latitude": 34.1733552,
    "longitude": -118.354871,
    "Phone": "818-840-9493",
    "Website": "http://champssportspub.com/"
  },
  {
    "Teams": "nflmia",
    "Name": "The Snug Burbank",
    "Address": "4108 W Magnolia Blvd, Burbank, CA 91505",
    "City": "LA",
    "State": "CA",
    "latitude": 34.1662058,
    "longitude": -118.3513444,
    "Phone": "818-557-0018",
    "Website": "https://www.thesnugburbank.com/"
  },
  {
    "Teams": "mlblad",
    "Name": "El Rey Cantina",
    "Address": "2302 Ventura Blvd, Camarillo, CA 93010",
    "City": "LA",
    "State": "CA",
    "latitude": 34.2162204,
    "longitude": -119.0391659,
    "Phone": "805-419-1043",
    "Website": "http://www.elreycamarillo.com/"
  },
  {
    "Teams": "mlblad",
    "Name": "Cronies Sports Grill",
    "Address": "370 N Lantana St, Camarillo, CA 93010",
    "City": "LA",
    "State": "CA",
    "latitude": 34.2196172,
    "longitude": -119.0541752,
    "Phone": "805-482-5900",
    "Website": "http://www.cronies.com/"
  },
  {
    "Teams": "mlblad",
    "Name": "Schoonerville Sports Bar & Grill",
    "Address": "8901 De Soto Ave, Canoga Park, CA 91304",
    "City": "LA",
    "State": "CA",
    "latitude": 34.2320647,
    "longitude": -118.5889401,
    "Phone": "818-527-1231",
    "Website": "http://schoonerville.com/"
  },
  {
    "Teams": "mlblad",
    "Name": "Bergie's",
    "Address": "16404 Delone St, Canyon Country, CA 91387",
    "City": "LA",
    "State": "CA",
    "latitude": 34.4242361,
    "longitude": -118.4225768,
    "Phone": "661-251-3133",
    "Website": "http://www.bergiesbar.com/"
  },
  {
    "Teams": "mlblad",
    "Name": "Drifters Cocktails",
    "Address": "18240 Soledad Canyon Rd, Canyon Country, CA 91387",
    "City": "LA",
    "State": "CA",
    "latitude": 34.4159336,
    "longitude": -118.4512988,
    "Phone": "661-252-2471",
    "Website": "http://www.facebook.com/drifterscocktails"
  },
  {
    "Teams": "nfldal",
    "Name": "The Canyon Cowboy",
    "Address": "31504 Railroad Canyon Rd #1, Canyon Lake, CA 92587",
    "City": "LA",
    "State": "CA",
    "latitude": 33.6729306,
    "longitude": -117.2514695,
    "Phone": "951-723-2201",
    "Website": "http://www.bargrillcanyonlake.com/"
  },
  {
    "Teams": "ncaabucla;ncaafucla",
    "Name": "Buffalo Wild Wings",
    "Address": "736 E Del Amo Blvd, Carson, CA 90746",
    "City": "LA",
    "State": "CA",
    "latitude": 33.8470385,
    "longitude": -118.2623344,
    "Phone": "310-436-7793",
    "Website": "http://buffalowildwings.com/"
  },
  {
    "Teams": "mlblad;nflsf",
    "Name": "Hacienda Heights Pizza Co",
    "Address": "15239 Gale Ave # A, City of Industry, CA 91745",
    "City": "LA",
    "State": "CA",
    "latitude": 34.0150096,
    "longitude": -117.9738654,
    "Phone": "626-855-2590",
    "Website": "http://originalpizzaco.com/"
  },
  {
    "Teams": "mlslafc",
    "Name": "La Chuperia #2",
    "Address": "3702 Medford St, City Terrace, CA 90063",
    "City": "LA",
    "State": "CA",
    "latitude": 34.0595658,
    "longitude": -118.1859029,
    "Phone": "323-685-5099",
    "Website": ""
  },
  {
    "Teams": "nflsea",
    "Name": "Backstage Bar & Grill",
    "Address": "10400 Culver Blvd, Culver City, CA 90232",
    "City": "LA",
    "State": "CA",
    "latitude": 34.016325,
    "longitude": -118.4002269,
    "Phone": "310-839-3892",
    "Website": "http://www.backstageculvercity.com/"
  },
  {
    "Teams": "mlblad;mlslafc;ncaabvt;ncaafvt;ncaabuw;ncaafuw",
    "Name": "Joxer Daly's",
    "Address": "11168 Washington Blvd, Culver City, CA 90232",
    "City": "LA",
    "State": "CA",
    "latitude": 34.0077928,
    "longitude": -118.4123389,
    "Phone": "310-838-3745",
    "Website": ""
  },
  {
    "Teams": "ncaabcin;ncaafcin;nflnyg;ncaabstan;ncaafstan",
    "Name": "Rocco's Tavern",
    "Address": "3843 Main St, Culver City, CA 90232",
    "City": "LA",
    "State": "CA",
    "latitude": 34.0246029,
    "longitude": -118.3945813,
    "Phone": "310-559-5500",
    "Website": "http://roccostavern.com/"
  },
  {
    "Teams": "ncaabucla;ncaafucla",
    "Name": "Maple Block Meat Co.",
    "Address": "3973 Sepulveda Blvd, Culver City, CA 90230",
    "City": "LA",
    "State": "CA",
    "latitude": 34.009227,
    "longitude": -118.414674,
    "Phone": "310-313-6328",
    "Website": "http://www.mapleblockmeat.com/"
  },
  {
    "Teams": "nflgb",
    "Name": "Tattle Tale Room",
    "Address": "5401 Sepulveda Blvd, Culver City, CA 90230",
    "City": "LA",
    "State": "CA",
    "latitude": 33.9949424,
    "longitude": -118.3957651,
    "Phone": "310-390-2489",
    "Website": "https://www.thetattletaleroom.com/"
  },
  {
    "Teams": "nflno",
    "Name": "Scarlet Lady Saloon",
    "Address": "5411 Sepulveda Blvd, Culver City, CA 90230",
    "City": "LA",
    "State": "CA",
    "latitude": 33.994589,
    "longitude": -118.395847,
    "Phone": "310-391-9079",
    "Website": "http://scarletladysaloon1.wix.com/sportsbar"
  },
  {
    "Teams": "ncaabarmy;ncaafarmy;nflchi;mlbchc;nfldal;ncaabduke;ncaafduke;ncaabgt;ncaafgt;mlblad;nbalal;ncaabnw;ncaafnw;ncaabstan;ncaafstan;ncaabtcu;ncaaftcu;ncaabtamu;ncaaftamu;ncaabtlsa;ncaaftlsa;ncaabvan;ncaafvan;ncaabuw;ncaafuw",
    "Name": "Rush Street",
    "Address": "9546 Washington Blvd, Culver City, CA 90232",
    "City": "LA",
    "State": "CA",
    "latitude": 34.0230496,
    "longitude": -118.3948184,
    "Phone": "310-837-9546",
    "Website": "http://www.rushstreetculvercity.com/"
  },
  {
    "Teams": "nflatl",
    "Name": "City Tavern Culver City",
    "Address": "9739 Culver Blvd, Culver City, CA 90232",
    "City": "LA",
    "State": "CA",
    "latitude": 34.0219077,
    "longitude": -118.3965615,
    "Phone": "310-838-9739",
    "Website": "http://www.citytavernculvercity.com/"
  },
  {
    "Teams": "nflsf",
    "Name": "The Aviator Casino",
    "Address": "1225 Airport Dr, Delano, CA 93215",
    "City": "LA",
    "State": "CA",
    "latitude": 35.745049,
    "longitude": -119.239855,
    "Phone": "661-721-7770",
    "Website": "http://theaviatorcasino.com/"
  },
  {
    "Teams": "nflbuf",
    "Name": "Playoffs Sports Bar",
    "Address": "12105 Palm Dr, Desert Hot Springs, CA 92240",
    "City": "LA",
    "State": "CA",
    "latitude": 33.9606533,
    "longitude": -116.5015991,
    "Phone": "760-251-2644",
    "Website": "http://playoffsdhs.com/"
  },
  {
    "Teams": "ncaabucla;ncaafucla",
    "Name": "Downey Brewing Co",
    "Address": "10924 Paramount Blvd, Downey, CA 90241",
    "City": "LA",
    "State": "CA",
    "latitude": 33.9445896,
    "longitude": -118.1362148,
    "Phone": "562-862-1711",
    "Website": "http://www.thedowneybrewing.com/"
  },
  {
    "Teams": "nfllac;ncaabucla;ncaafucla",
    "Name": "Joseph's Bar & Grill",
    "Address": "11032 Downey Ave, Downey, CA 90241",
    "City": "LA",
    "State": "CA",
    "latitude": 33.9411919,
    "longitude": -118.1321028,
    "Phone": "562-869-1255",
    "Website": "https://www.josephsdowney.com/home"
  },
  {
    "Teams": "mlblad",
    "Name": "Maria's Grill",
    "Address": "13232 Woodruff Ave, Downey, CA 90242",
    "City": "LA",
    "State": "CA",
    "latitude": 33.910724,
    "longitude": -118.116197,
    "Phone": "562-803-5384",
    "Website": "https://mariasgrill.business.site/"
  },
  {
    "Teams": "mlblad;mlslafc",
    "Name": "Rock & Brews Downey",
    "Address": "467 Stonewood St, Downey, CA 90241",
    "City": "LA",
    "State": "CA",
    "latitude": 33.9345165,
    "longitude": -118.1185023,
    "Phone": "562-418-6428",
    "Website": "https://www.rockandbrews.com/downey/"
  },
  {
    "Teams": "mlslafc",
    "Name": "La Perla Del Mar Bar & Grill",
    "Address": "8803 Imperial Hwy, Downey, CA 90242",
    "City": "LA",
    "State": "CA",
    "latitude": 33.9176513,
    "longitude": -118.1391916,
    "Phone": "562-923-8913",
    "Website": ""
  },
  {
    "Teams": "mlblad",
    "Name": "The Post Pizza",
    "Address": "4368 Peck Rd, El Monte, CA 91732",
    "City": "LA",
    "State": "CA",
    "latitude": 34.0837652,
    "longitude": -118.0176762,
    "Phone": "626-444-2631",
    "Website": "http://www.thepostpizza.com/"
  },
  {
    "Teams": "ncaabtuln;ncaaftuln",
    "Name": "The Tavern on Main",
    "Address": "123 Main St, El Segundo, CA 90245",
    "City": "LA",
    "State": "CA",
    "latitude": 33.9172795,
    "longitude": -118.4162137,
    "Phone": "310-322-3645",
    "Website": "http://www.thetavernonmain.com/"
  },
  {
    "Teams": "mlslag",
    "Name": "Brewport Tap House",
    "Address": "204 Main St, El Segundo, CA 90245",
    "City": "LA",
    "State": "CA",
    "latitude": 33.9180549,
    "longitude": -118.4157355,
    "Phone": "310-648-8972",
    "Website": "http://www.brewporttaphouse.com/"
  },
  {
    "Teams": "mlblad;ncaabpit;ncaafpit;ncaabucla;ncaafucla",
    "Name": "Standard Station Sports Bar & Grill",
    "Address": "226 Standard St, El Segundo, CA 90245",
    "City": "LA",
    "State": "CA",
    "latitude": 33.9185764,
    "longitude": -118.4145298,
    "Phone": "310-322-2255",
    "Website": "http://www.standardstation.com/"
  },
  {
    "Teams": "mlblad",
    "Name": "Bar 1045",
    "Address": "1045 Rosecrans Ave, Gardena, CA 90247",
    "City": "LA",
    "State": "CA",
    "latitude": 33.9024439,
    "longitude": -118.2932739,
    "Phone": "310-352-3400",
    "Website": "http://www.luckyladyla.com/index.php"
  },
  {
    "Teams": "nflsf",
    "Name": "Paradise L.A. Restaurant & Bar",
    "Address": "889 W 190th St, Gardena, CA 90248",
    "City": "LA",
    "State": "CA",
    "latitude": 33.8596162,
    "longitude": -118.2898447,
    "Phone": "310-324-4800",
    "Website": "http://www.paradisedine.com/"
  },
  {
    "Teams": "mlblad",
    "Name": "Clubhouse 66",
    "Address": "1200 E Rte 66, Glendora, CA 91740",
    "City": "LA",
    "State": "CA",
    "latitude": 34.1284988,
    "longitude": -117.8422793,
    "Phone": "626-914-0066",
    "Website": "http://www.clubhouse66.com/"
  },
  {
    "Teams": "mlblad",
    "Name": "Coach's Corner Bar & Grill",
    "Address": "13708 S Inglewood Ave, Hawthorne, CA 90250",
    "City": "LA",
    "State": "CA",
    "latitude": 33.9076693,
    "longitude": -118.3610912,
    "Phone": "424-456-4849",
    "Website": ""
  },
  {
    "Teams": "ncaabarmy;ncaafarmy;ncaabucla;ncaafucla",
    "Name": "Common Space Brewery and Tasting Room",
    "Address": "3411 W El Segundo Blvd, Hawthorne, CA 90250",
    "City": "LA",
    "State": "CA",
    "latitude": 33.9167848,
    "longitude": -118.333462,
    "Phone": "424-456-4355",
    "Website": "https://www.commonspace.la/"
  },
  {
    "Teams": "mlblad",
    "Name": "Flights Beer Bar",
    "Address": "5119 W El Segundo Blvd, Hawthorne, CA 90250",
    "City": "LA",
    "State": "CA",
    "latitude": 33.9167333,
    "longitude": -118.3676197,
    "Phone": "310-676-8228",
    "Website": "http://flightsbeerbar.com/"
  },
  {
    "Teams": "mlblad",
    "Name": "The Deck",
    "Address": "1272 The Strand, Hermosa Beach, CA 90254",
    "City": "LA",
    "State": "CA",
    "latitude": 33.8625082,
    "longitude": -118.4017891,
    "Phone": "310-921-8226",
    "Website": "http://thedeckhermosa.com/"
  },
  {
    "Teams": "mlblad",
    "Name": "The Standing Room Restaurant",
    "Address": "1320 Hermosa Ave, Hermosa Beach, CA 90254",
    "City": "LA",
    "State": "CA",
    "latitude": 33.8633236,
    "longitude": -118.4000783,
    "Phone": "310-318-1272",
    "Website": "https://www.thestandingroomrestaurant.com/"
  },
  {
    "Teams": "ncaabwsu;ncaafwsu;nflgb;mlslag;mlblad;ncaabvt;ncaafvt;ncaabwis;ncaafwis",
    "Name": "Pedone's Pizza & Italian Food",
    "Address": "1332 Hermosa Ave, Hermosa Beach, CA 90254",
    "City": "LA",
    "State": "CA",
    "latitude": 33.8635796,
    "longitude": -118.4002236,
    "Phone": "310-376-0949",
    "Website": "http://www.pedonespizza.com/"
  },
  {
    "Teams": "ncaabneb;ncaafneb",
    "Name": "Chelsea Pub and Lounge",
    "Address": "1334 Hermosa Ave, Hermosa Beach, CA 90254",
    "City": "LA",
    "State": "CA",
    "latitude": 33.8636324,
    "longitude": -118.4002002,
    "Phone": "310-937-2598",
    "Website": "http://www.chelseapubandlounge.com/"
  },
  {
    "Teams": "nhlchi",
    "Name": "Silvio's Brazilian BBQ",
    "Address": "20 Pier Ave, Hermosa Beach, CA 90254",
    "City": "LA",
    "State": "CA",
    "latitude": 33.8618132,
    "longitude": -118.4013041,
    "Phone": "310-376-6855",
    "Website": "https://silviosbbq.com/"
  },
  {
    "Teams": "ncaabuga;ncaafuga;nflpit",
    "Name": "Hermosa Saloon",
    "Address": "211 Pacific Coast Hwy, Hermosa Beach, CA 90254",
    "City": "LA",
    "State": "CA",
    "latitude": 33.856685,
    "longitude": -118.390925,
    "Phone": "310-374-9060",
    "Website": "http://www.thehermosasaloon.com/"
  },
  {
    "Teams": "nfljax",
    "Name": "North End Bar & Grill",
    "Address": "2626 Hermosa Ave, Hermosa Beach, CA 90254",
    "City": "LA",
    "State": "CA",
    "latitude": 33.8724962,
    "longitude": -118.4052426,
    "Phone": "310-379-5379",
    "Website": "http://www.northendbar.com/"
  },
  {
    "Teams": "nflnyg;ncaabnd;ncaafnd",
    "Name": "Patrick Molloy's Sports Pub",
    "Address": "50 Pier Ave, Hermosa Beach, CA 90254",
    "City": "LA",
    "State": "CA",
    "latitude": 33.8617242,
    "longitude": -118.4007685,
    "Phone": "310-798-9762",
    "Website": "http://patrickmolloys.com/"
  },
  {
    "Teams": "ncaabill;ncaafill;nfllac;mlblad;ncaabpur;ncaafpur",
    "Name": "Baja Sharkeez",
    "Address": "52 Pier Ave, Hermosa Beach, CA 90254",
    "City": "LA",
    "State": "CA",
    "latitude": 33.8618193,
    "longitude": -118.4006026,
    "Phone": "310-318-0004",
    "Website": "http://www.sharkeez.net/"
  },
  {
    "Teams": "ncaabpur;ncaafpur",
    "Name": "Tower 12",
    "Address": "53 Pier Ave, Hermosa Beach, CA 90254",
    "City": "LA",
    "State": "CA",
    "latitude": 33.8623135,
    "longitude": -118.4007931,
    "Phone": "310-379-6400",
    "Website": "http://tower12hb.com/"
  },
  {
    "Teams": "ncaabasu;ncaafasu;nflbuf;mlslag;ncaabosu;ncaafosu",
    "Name": "American Junkie",
    "Address": "68 Pier Ave, Hermosa Beach, CA 90254",
    "City": "LA",
    "State": "CA",
    "latitude": 33.8619694,
    "longitude": -118.4005154,
    "Phone": "310-376-4412",
    "Website": "http://www.americanjunkiehb.com/"
  },
  {
    "Teams": "nflsea",
    "Name": "Hennessey's Tavern",
    "Address": "8 Pier Ave, Hermosa Beach, CA 90254",
    "City": "LA",
    "State": "CA",
    "latitude": 33.8617814,
    "longitude": -118.4015617,
    "Phone": "310-372-5759",
    "Website": "http://www.hennesseystavern.com/"
  },
  {
    "Teams": "nfldal;nflsf",
    "Name": "Whiskey Barrel Saloon",
    "Address": "12055 Mariposa Rd, Hesperia, CA 92345",
    "City": "LA",
    "State": "CA",
    "latitude": 34.4693777,
    "longitude": -117.3430616,
    "Phone": "760-244-1115",
    "Website": "https://www.facebook.com/whiskeybarrelbar/"
  },
  {
    "Teams": "nbacle;mlbcle;ncaabosu;ncaafosu",
    "Name": "Saint Felix",
    "Address": "1602 N Cahuenga Blvd, Hollywood, CA 90028",
    "City": "LA",
    "State": "CA",
    "latitude": 34.0999856,
    "longitude": -118.3293909,
    "Phone": "323-469-5001",
    "Website": "http://saintfelix.net/"
  },
  {
    "Teams": "nflpit",
    "Name": "Hooters",
    "Address": "6922 Hollywood Blvd #109, Hollywood, CA 90028",
    "City": "LA",
    "State": "CA",
    "latitude": 34.1014108,
    "longitude": -118.3408965,
    "Phone": "323-962-3373",
    "Website": "http://www.hooters.com/"
  },
  {
    "Teams": "ncaabucla;ncaafucla",
    "Name": "Millan's Ranchito Restaurant",
    "Address": "5803 Soto St, Huntington Park, CA 90255",
    "City": "LA",
    "State": "CA",
    "latitude": 33.9900745,
    "longitude": -118.2195388,
    "Phone": "323-587-6669",
    "Website": ""
  },
  {
    "Teams": "ncaabvu",
    "Name": "Three Weavers Brewing Company",
    "Address": "1031 W Manchester Blvd A-B, Inglewood, CA 90301",
    "City": "LA",
    "State": "CA",
    "latitude": 33.961158,
    "longitude": -118.374778,
    "Phone": "310-400-5830",
    "Website": "http://www.threeweavers.la/"
  },
  {
    "Teams": "ncaabcal;ncaafcal",
    "Name": "Burgers & Beer",
    "Address": "101 79-815, CA-111, La Quinta, CA 92253",
    "City": "LA",
    "State": "CA",
    "latitude": 33.7057413,
    "longitude": -116.2715828,
    "Phone": "760-775-6494",
    "Website": "http://www.burgersandbeer.com/"
  },
  {
    "Teams": "ncaabcu;mlblad;ncaabmich;ncaafmich;ncaabnw;ncaafnw;ncaabou;ncaafou;ncaabucla;ncaafucla",
    "Name": "The Beer Hunter",
    "Address": "78-483 CA-111, La Quinta, CA 92253",
    "City": "LA",
    "State": "CA",
    "latitude": 33.714829,
    "longitude": -116.295274,
    "Phone": "760-564-7442",
    "Website": "https://www.thebeerhunter.com/"
  },
  {
    "Teams": "nfldal",
    "Name": "Tuscanos brewery and pizza",
    "Address": "78772 CA-111, La Quinta, CA 92253",
    "City": "LA",
    "State": "CA",
    "latitude": 33.7121419,
    "longitude": -116.2907629,
    "Phone": "760-625-1129",
    "Website": ""
  },
  {
    "Teams": "mlslafc;ncaabore;ncaafore",
    "Name": "R Bar",
    "Address": "106 W 3rd St, Long Beach, CA 90802",
    "City": "LA",
    "State": "CA",
    "latitude": 33.7703576,
    "longitude": -118.1928222,
    "Phone": "562-432-0411",
    "Website": "http://rbarlbc.com/"
  },
  {
    "Teams": "mlslag",
    "Name": "Lona's City Limits Cantina",
    "Address": "1174 E Wardlow Rd, Long Beach, CA 90807",
    "City": "LA",
    "State": "CA",
    "latitude": 33.8187232,
    "longitude": -118.1769784,
    "Phone": "562-427-4630",
    "Website": ""
  },
  {
    "Teams": "mlslafc",
    "Name": "Shannon's On Pine Irish Pub & Sports Bar",
    "Address": "209 Pine Ave, Long Beach, CA 90802",
    "City": "LA",
    "State": "CA",
    "latitude": 33.769525,
    "longitude": -118.1925915,
    "Phone": "562-436-4363",
    "Website": "https://shannonscorner.com/"
  },
  {
    "Teams": "mlslag;ncaabosu;ncaafosu;nflsf",
    "Name": "Gallagher's Pub & Grill",
    "Address": "2751 E Broadway, Long Beach, CA 90803",
    "City": "LA",
    "State": "CA",
    "latitude": 33.7657088,
    "longitude": -118.1593848,
    "Phone": "562-856-8000",
    "Website": "http://www.gallagherslongbeach.com/"
  },
  {
    "Teams": "mlslag",
    "Name": "SteelCraft",
    "Address": "3768 Long Beach Blvd, Long Beach, CA 90807",
    "City": "LA",
    "State": "CA",
    "latitude": 33.8264255,
    "longitude": -118.1891755,
    "Phone": "",
    "Website": "http://www.steelcraftlb.com/"
  },
  {
    "Teams": "mlblad",
    "Name": "The Red Leprechaun",
    "Address": "4000 E Anaheim St, Long Beach, CA 90804",
    "City": "LA",
    "State": "CA",
    "latitude": 33.7824245,
    "longitude": -118.1457368,
    "Phone": "562-343-5560",
    "Website": "http://www.redleprechaun.com/"
  },
  {
    "Teams": "ncaabucla;ncaafucla",
    "Name": "The Dog House",
    "Address": "4111 N Viking Way, Long Beach, CA 90808",
    "City": "LA",
    "State": "CA",
    "latitude": 33.8327352,
    "longitude": -118.1268004,
    "Phone": "562-982-4081",
    "Website": "http://www.thedoghouselb.com/"
  },
  {
    "Teams": "mlblad;ncaabnev;ncaafnev",
    "Name": "Roundin' 3rd Sports Bar & Grill",
    "Address": "4133 E Anaheim St, Long Beach, CA 90804",
    "City": "LA",
    "State": "CA",
    "latitude": 33.7827235,
    "longitude": -118.144032,
    "Phone": "562-498-9900",
    "Website": "http://www.roundin3rd.com/"
  },
  {
    "Teams": "nflgb",
    "Name": "the Eldo",
    "Address": "4259, 3014 N Studebaker Rd Ste C, Long Beach, CA 90808",
    "City": "LA",
    "State": "CA",
    "latitude": 33.811084,
    "longitude": -118.098513,
    "Phone": "562-421-4595",
    "Website": "http://eldobar.com/"
  },
  {
    "Teams": "ncaabucla;ncaafucla",
    "Name": "EJ's Pub - Bixby Knolls",
    "Address": "4306 Atlantic Ave, Long Beach, CA 90807",
    "City": "LA",
    "State": "CA",
    "latitude": 33.8344464,
    "longitude": -118.1847135,
    "Phone": "562-424-5000",
    "Website": "http://ejspubbk.com/"
  },
  {
    "Teams": "mlblad",
    "Name": "Iguana Kelley's",
    "Address": "4306 E Anaheim St, Long Beach, CA 90804",
    "City": "LA",
    "State": "CA",
    "latitude": 33.78241,
    "longitude": -118.142425,
    "Phone": "562-434-0447",
    "Website": "https://www.facebook.com/IguanaKelleys"
  },
  {
    "Teams": "ncaabusc;ncaafusc",
    "Name": "Parkers' Lighthouse",
    "Address": "435 Shoreline Village Drive, Long Beach, CA 90802",
    "City": "LA",
    "State": "CA",
    "latitude": 33.759934,
    "longitude": -118.191886,
    "Phone": "562-432-6500",
    "Website": "http://www.parkerslighthouse.com/"
  },
  {
    "Teams": "ncaaborst;ncaaforst;ncaabtamu;ncaaftamu",
    "Name": "Panama Joe's",
    "Address": "5100 E 2nd St, Long Beach, CA 90803",
    "City": "LA",
    "State": "CA",
    "latitude": 33.7604039,
    "longitude": -118.1359033,
    "Phone": "562-434-7417",
    "Website": "http://www.panamajoes.net/"
  },
  {
    "Teams": "ncaabariz;ncaafariz;mlslag;mlblad;nhllak;nfllar;ncaabucla;ncaafucla;ncaabuw;ncaafuw",
    "Name": "Legends Restaurant & Sports Bar",
    "Address": "5236 E 2nd St, Long Beach, CA 90803",
    "City": "LA",
    "State": "CA",
    "latitude": 33.7597377,
    "longitude": -118.1343123,
    "Phone": "562-433-5743",
    "Website": "http://www.legendssportsbar.com/"
  },
  {
    "Teams": "ncaabusc;ncaafusc",
    "Name": "Rance's Chicago Pizza",
    "Address": "5258 E 2nd St, Long Beach, CA 90803",
    "City": "LA",
    "State": "CA",
    "latitude": 33.7594818,
    "longitude": -118.1336375,
    "Phone": "562-786-5566",
    "Website": "http://www.rancespizza.com/"
  },
  {
    "Teams": "mlblad;nfllar;ncaablou;ncaaflou;ncaabusc;ncaafusc",
    "Name": "EJ Malloy's - Los Altos",
    "Address": "5506 E Britton Dr, Long Beach, CA 90815",
    "City": "LA",
    "State": "CA",
    "latitude": 33.7936575,
    "longitude": -118.1248685,
    "Phone": "562-594-8771",
    "Website": "http://ejmalloyspub.com/"
  },
  {
    "Teams": "ncaabucla;ncaafucla;ncaabusc;ncaafusc",
    "Name": "On The Rocks Bar & Grill",
    "Address": "5755 Pacific Coast Hwy, Long Beach, CA 90803",
    "City": "LA",
    "State": "CA",
    "latitude": 33.7735612,
    "longitude": -118.1194431,
    "Phone": "562-375-7979",
    "Website": "http://ontherockslb.com/"
  },
  {
    "Teams": "mlslag",
    "Name": "The Auld Dubliner",
    "Address": "71 S Pine Ave, Long Beach, CA 90813",
    "City": "LA",
    "State": "CA",
    "latitude": 33.764837,
    "longitude": -118.1926367,
    "Phone": "562-437-8300",
    "Website": "http://www.aulddubliner.com/"
  },
  {
    "Teams": "mlslag",
    "Name": "The Stache Bar",
    "Address": "941 E 4th St, Long Beach, CA 90802",
    "City": "LA",
    "State": "CA",
    "latitude": 33.771842,
    "longitude": -118.18045,
    "Phone": "562-606-2529",
    "Website": "http://www.thestachebar.net/"
  },
  {
    "Teams": "mlblad",
    "Name": "Philippe The Original",
    "Address": "1001 North Alameda, Los Angeles, CA 90012",
    "City": "LA",
    "State": "CA",
    "latitude": 34.059768,
    "longitude": -118.237035,
    "Phone": "213-628-3781",
    "Website": "http://www.philippes.com/"
  },
  {
    "Teams": "mlslag;nfllac;mlslafc;ncaabmich;ncaafmich;ncaabtamu;ncaaftamu",
    "Name": "Tom's Urban",
    "Address": "1011 S Figueroa St b101, Los Angeles, CA 90015",
    "City": "LA",
    "State": "CA",
    "latitude": 34.0442252,
    "longitude": -118.2653348,
    "Phone": "213-746-8667",
    "Website": "https://tomsurban.com/los-angeles/"
  },
  {
    "Teams": "nfldal;mlblad;nbalal;ncaabmiz;ncaafmiz",
    "Name": "Barney's Beanery",
    "Address": "1037 Broxton Ave, Los Angeles, CA 90024",
    "City": "LA",
    "State": "CA",
    "latitude": 34.0617022,
    "longitude": -118.446657,
    "Phone": "310-443-7777",
    "Website": "https://barneysbeanery.com/location/westwood/"
  },
  {
    "Teams": "mlslafc;ncaabosu;ncaafosu",
    "Name": "The Stalking Horse Brewery & Freehouse",
    "Address": "10543 W Pico Blvd, Los Angeles, CA 90064",
    "City": "LA",
    "State": "CA",
    "latitude": 34.0446941,
    "longitude": -118.4204041,
    "Phone": "424-832-7511",
    "Website": "http://www.thestalkinghorsepub.com/"
  },
  {
    "Teams": "ncaabusc;ncaafusc",
    "Name": "The Proud Bird Food Bazaar & Events Center",
    "Address": "11022 Aviation Blvd, Los Angeles, CA 90045",
    "City": "LA",
    "State": "CA",
    "latitude": 33.9355791,
    "longitude": -118.3773878,
    "Phone": "310-670-3093",
    "Website": "http://www.theproudbird.com/"
  },
  {
    "Teams": "mlblad;ncaabpit;ncaafpit;ncaabuva;ncaafuva;ncaabuw;ncaafuw",
    "Name": "The Nickel Mine",
    "Address": "11363 Santa Monica Blvd, Los Angeles, CA 90025",
    "City": "LA",
    "State": "CA",
    "latitude": 34.0460468,
    "longitude": -118.4507368,
    "Phone": "310-231-0239",
    "Website": "http://www.nickelmine.com/"
  },
  {
    "Teams": "nflsf",
    "Name": "San Francisco Saloon",
    "Address": "11501 Pico Blvd, Los Angeles, CA 90064",
    "City": "LA",
    "State": "CA",
    "latitude": 34.0334315,
    "longitude": -118.4427341,
    "Phone": "310-478-0152",
    "Website": "http://sfsaloon.com/"
  },
  {
    "Teams": "mlblad;ncaabtex;ncaaftex",
    "Name": "Cabo Cantina",
    "Address": "11829 Wilshire Blvd, Los Angeles, CA 90025",
    "City": "LA",
    "State": "CA",
    "latitude": 34.0477975,
    "longitude": -118.4632247,
    "Phone": "310-312-5840",
    "Website": "http://www.cabocantina.com/"
  },
  {
    "Teams": "ncaabnc;ncaafnc;ncaabwis;ncaafwis",
    "Name": "BR�� HAUS",
    "Address": "11831 Wilshire Blvd, Los Angeles, CA 90025",
    "City": "LA",
    "State": "CA",
    "latitude": 34.047708,
    "longitude": -118.4633227,
    "Phone": "310-473-2337",
    "Website": "http://www.bruhauspub.com/"
  },
  {
    "Teams": "ncaabariz;ncaafariz;nfldal;ncaabuga;ncaafuga;ncaabgt;ncaafgt;mlblad;ncaabmich;ncaafmich;ncaabniu;ncaafniu;ncaabsmu;ncaafsmu;ncaabtenn;ncaaftenn;ncaabucla;ncaafucla;ncaabuva;ncaafuva",
    "Name": "Q's Billiard Club & Restaurant",
    "Address": "11835 Wilshire Blvd, Los Angeles, CA 90025",
    "City": "LA",
    "State": "CA",
    "latitude": 34.0476857,
    "longitude": -118.4634832,
    "Phone": "310-477-7550",
    "Website": "http://www.qsbilliardclub.com/"
  },
  {
    "Teams": "mlblad",
    "Name": "Justice Urban Tavern",
    "Address": "120 S Los Angeles St, Los Angeles, CA 90012",
    "City": "LA",
    "State": "CA",
    "latitude": 34.0509697,
    "longitude": -118.242325,
    "Phone": "213-253-9235",
    "Website": "http://www.justicela.com/"
  },
  {
    "Teams": "mlslafc",
    "Name": "Thunderbird Bar",
    "Address": "12217 Wilshire Blvd, Los Angeles, CA 90025",
    "City": "LA",
    "State": "CA",
    "latitude": 34.0433825,
    "longitude": -118.4688547,
    "Phone": "424-293-8830",
    "Website": "http://thunderbirdbarla.com/"
  },
  {
    "Teams": "nflgb",
    "Name": "Mom's",
    "Address": "12238 Santa Monica Blvd, Los Angeles, CA 90025",
    "City": "LA",
    "State": "CA",
    "latitude": 34.0396027,
    "longitude": -118.4649415,
    "Phone": "310-820-6667",
    "Website": "http://www.momsbar.com/"
  },
  {
    "Teams": "ncaabmich;ncaafmich;ncaabtamu;ncaaftamu",
    "Name": "First Draft Taproom & Kitchen",
    "Address": "1230 S Olive St, Los Angeles, CA 90015",
    "City": "LA",
    "State": "CA",
    "latitude": 34.0383726,
    "longitude": -118.2629857,
    "Phone": "213-536-5267",
    "Website": "https://www.firstdraft.beer/"
  },
  {
    "Teams": "mlslag;mlblad",
    "Name": "The Holloway",
    "Address": "1320 Echo Park Ave, Los Angeles, CA 90026",
    "City": "LA",
    "State": "CA",
    "latitude": 34.0773454,
    "longitude": -118.256776,
    "Phone": "213-221-7615",
    "Website": "https://www.thehollowayla.com/"
  },
  {
    "Teams": "ncaabshu",
    "Name": "Berkshire House",
    "Address": "143 N La Brea Ave, Los Angeles, CA 90036",
    "City": "LA",
    "State": "CA",
    "latitude": 34.0747873,
    "longitude": -118.3443472,
    "Phone": "323-297-3006",
    "Website": "https://www.berkshirehousela.com/"
  },
  {
    "Teams": "mlblad",
    "Name": "The Short Stop",
    "Address": "1455 Sunset Blvd, Los Angeles, CA 90026",
    "City": "LA",
    "State": "CA",
    "latitude": 34.0752934,
    "longitude": -118.2535811,
    "Phone": "213-482-4942",
    "Website": "https://m.facebook.com/pages/Shortstop-Bar/131614286889756"
  },
  {
    "Teams": "mlslafc",
    "Name": "Gold Room",
    "Address": "1558 Sunset Blvd, Los Angeles, CA 90026",
    "City": "LA",
    "State": "CA",
    "latitude": 34.076406,
    "longitude": -118.2571075,
    "Phone": "213-482-5859",
    "Website": "https://www.facebook.com/The-Gold-Room-204677952897397/"
  },
  {
    "Teams": "ncaabcle;ncaafcle;ncaabucf;ncaafucf;ncaabvt;ncaafvt",
    "Name": "Elbow Room",
    "Address": "1634 N Cahuenga Blvd, Los Angeles, CA 90028",
    "City": "LA",
    "State": "CA",
    "latitude": 34.10092,
    "longitude": -118.3293722,
    "Phone": "323-645-7119",
    "Website": "https://www.elbowroomla.com/"
  },
  {
    "Teams": "ncaabfsu;ncaaffsu;nflgb;nhlpit",
    "Name": "Rusty Mullet",
    "Address": "1708 N Las Palmas Ave, Los Angeles, CA 90028",
    "City": "LA",
    "State": "CA",
    "latitude": 34.1017196,
    "longitude": -118.3360369,
    "Phone": "323-533-0765",
    "Website": "http://www.rustymullet.com/"
  },
  {
    "Teams": "mlblad;nfllar",
    "Name": "1739 Public House",
    "Address": "1739 North Vermont, Los Angeles, CA 90027",
    "City": "LA",
    "State": "CA",
    "latitude": 34.102855,
    "longitude": -118.2920546,
    "Phone": "323-663-1739",
    "Website": "http://1739publichouse.com/"
  },
  {
    "Teams": "nflbuf;ncaabbuff;ncaafbuff",
    "Name": "Ye Rustic Inn",
    "Address": "1831 Hillhurst Ave, Los Angeles, CA 90027",
    "City": "LA",
    "State": "CA",
    "latitude": 34.104352,
    "longitude": -118.287857,
    "Phone": "323-662-5757",
    "Website": "http://yerusticinn.com/"
  },
  {
    "Teams": "nflphi",
    "Name": "Philly West Bar & Grill",
    "Address": "1870 Westwood Blvd, Los Angeles, CA 90027",
    "City": "LA",
    "State": "CA",
    "latitude": 34.0486649,
    "longitude": -118.4356774,
    "Phone": "310-474-9787",
    "Website": "http://www.phillywestbarandgrill.com/"
  },
  {
    "Teams": "mlblad;mlslafc;nbalal",
    "Name": "BiergartenLA",
    "Address": "206 N Western Ave, Los Angeles, CA 90004",
    "City": "LA",
    "State": "CA",
    "latitude": 34.0748582,
    "longitude": -118.3090211,
    "Phone": "323-466-4860",
    "Website": "http://www.biergartenla.com/"
  },
  {
    "Teams": "nflcin",
    "Name": "5 Line Tavern",
    "Address": "2136 Colorado Blvd, Los Angeles, CA 90041",
    "City": "LA",
    "State": "CA",
    "latitude": 34.1388641,
    "longitude": -118.2133131,
    "Phone": "323-238-3838",
    "Website": "http://5linetavern.com/"
  },
  {
    "Teams": "mlblad",
    "Name": "Mohawk Bend",
    "Address": "2141 Sunset Blvd, Los Angeles, CA 90026",
    "City": "LA",
    "State": "CA",
    "latitude": 34.0776643,
    "longitude": -118.2647904,
    "Phone": "213-483-2337",
    "Website": "http://mohawk.la/"
  },
  {
    "Teams": "mlslag",
    "Name": "Angel City Brewery",
    "Address": "216 Alameda St, Los Angeles, CA 90012",
    "City": "LA",
    "State": "CA",
    "latitude": 34.0462613,
    "longitude": -118.237693,
    "Phone": "213-622-1261",
    "Website": "http://www.angelcitybrewery.com/"
  },
  {
    "Teams": "mlslafc",
    "Name": "Golden State - DTLA",
    "Address": "241 San Pedro St, Los Angeles, CA 90012",
    "City": "LA",
    "State": "CA",
    "latitude": 34.0484434,
    "longitude": -118.2423498,
    "Phone": "213-988-7236",
    "Website": "http://eatgoldenstate.com/"
  },
  {
    "Teams": "mlblad",
    "Name": "The office cocktails",
    "Address": "2412 N Broadway, Los Angeles, CA 90031",
    "City": "LA",
    "State": "CA",
    "latitude": 34.0733225,
    "longitude": -118.216465,
    "Phone": "323-221-5897",
    "Website": ""
  },
  {
    "Teams": "ncaablsu;ncaaflsu",
    "Name": "Hyperion Public",
    "Address": "2538 Hyperion Ave, Los Angeles, CA 90027",
    "City": "LA",
    "State": "CA",
    "latitude": 34.1053532,
    "longitude": -118.2727156,
    "Phone": "323-761-6440",
    "Website": "http://www.hyperionpublic.com/"
  },
  {
    "Teams": "mlblad;nfllar;ncaabusc;ncaafusc",
    "Name": "901 Bar and Grill",
    "Address": "2902 S Figueroa St, Los Angeles, CA 90007",
    "City": "LA",
    "State": "CA",
    "latitude": 34.025583,
    "longitude": -118.2773206,
    "Phone": "213-745-7900",
    "Website": ""
  },
  {
    "Teams": "nflpit",
    "Name": "Gabes",
    "Address": "2965 S Sepulveda Blvd, Los Angeles, CA 90064",
    "City": "LA",
    "State": "CA",
    "latitude": 34.0277384,
    "longitude": -118.429159,
    "Phone": "310-473-1667",
    "Website": ""
  },
  {
    "Teams": "mlblad;nhllak",
    "Name": "Link N Hops",
    "Address": "3111 Glendale Blvd, Los Angeles, CA 90039",
    "City": "LA",
    "State": "CA",
    "latitude": 34.1165565,
    "longitude": -118.2630499,
    "Phone": "323-426-9049",
    "Website": "http://www.linknhops.com/"
  },
  {
    "Teams": "nflchi",
    "Name": "The Irish Times Pub & Restaurant",
    "Address": "3267 Motor Ave, Los Angeles, CA 90034",
    "City": "LA",
    "State": "CA",
    "latitude": 34.029606,
    "longitude": -118.411296,
    "Phone": "310-559-9648",
    "Website": "http://www.theirishtimesla.com/"
  },
  {
    "Teams": "mlslafc",
    "Name": "La Cita Bar",
    "Address": "336 S Hill St, Los Angeles, CA 90013",
    "City": "LA",
    "State": "CA",
    "latitude": 34.0507765,
    "longitude": -118.2497875,
    "Phone": "213-687-7111",
    "Website": "http://www.lacitabar.com/"
  },
  {
    "Teams": "ncaabgonz;mlblad;mlslafc;ncaabsc;ncaafsc;ncaabucla;ncaafucla;ncaabvu;ncaabwake;ncaafwake;ncaabxu",
    "Name": "The Garage on Motor Ave",
    "Address": "3387 Motor Ave, Los Angeles, CA 90034",
    "City": "LA",
    "State": "CA",
    "latitude": 34.0276719,
    "longitude": -118.4099436,
    "Phone": "310-559-3400",
    "Website": ""
  },
  {
    "Teams": "ncaabfsu;ncaaffsu",
    "Name": "Trophy Wife",
    "Address": "3701-3847 Evans St W, Los Angeles, CA 90027",
    "City": "LA",
    "State": "CA",
    "latitude": 34.1058302,
    "longitude": -118.2728987,
    "Phone": "323-284-8525",
    "Website": "http://trophywifela.com/"
  },
  {
    "Teams": "ncaabaub;ncaafaub;mlblad;mlslafc;nbalal;ncaabtuln;ncaaftuln;ncaabuw;ncaafuw",
    "Name": "33 Taps Silver Lake",
    "Address": "3725 Sunset Blvd, Los Angeles, CA 90026",
    "City": "LA",
    "State": "CA",
    "latitude": 34.0909087,
    "longitude": -118.2782655,
    "Phone": "323-338-7777",
    "Website": "https://www.33tapssilverlake.com/"
  },
  {
    "Teams": "nhllak",
    "Name": "Bonaventure Brewing Co.",
    "Address": "404 S Figueroa St, Los Angeles, CA 90071",
    "City": "LA",
    "State": "CA",
    "latitude": 34.0525714,
    "longitude": -118.2560081,
    "Phone": "213-236-0802",
    "Website": "http://www.bonaventurebrewing.com/"
  },
  {
    "Teams": "mlslafc",
    "Name": "Amalia's Restaurant",
    "Address": "4210 Beverly Blvd, Los Angeles, CA 90004",
    "City": "LA",
    "State": "CA",
    "latitude": 34.0759151,
    "longitude": -118.3008845,
    "Phone": "323-644-1515",
    "Website": ""
  },
  {
    "Teams": "nfllac;nflphi",
    "Name": "Gamez DTLA",
    "Address": "500 S Spring St, Los Angeles, CA 90013",
    "City": "LA",
    "State": "CA",
    "latitude": 34.0472263,
    "longitude": -118.2495883,
    "Phone": "213-243-5831",
    "Website": "http://www.gamezdtla.com/"
  },
  {
    "Teams": "mlslafc",
    "Name": "The Down and Out",
    "Address": "501 S Spring St, Los Angeles, CA 90013",
    "City": "LA",
    "State": "CA",
    "latitude": 34.0474123,
    "longitude": -118.2498813,
    "Phone": "213-935-8042",
    "Website": "http://www.downandoutbar.com/"
  },
  {
    "Teams": "mlslafc",
    "Name": "The Hermosillo",
    "Address": "5125 York Blvd, Los Angeles, CA 90042",
    "City": "LA",
    "State": "CA",
    "latitude": 34.1210868,
    "longitude": -118.2037947,
    "Phone": "323-739-6459",
    "Website": "http://thehermosillo.com/"
  },
  {
    "Teams": "mlblad",
    "Name": "Brack Shop Tavern",
    "Address": "525 W 7th St, Los Angeles, CA 90014",
    "City": "LA",
    "State": "CA",
    "latitude": 34.0472682,
    "longitude": -118.2560921,
    "Phone": "213-232-8657",
    "Website": "http://www.brackshoptavern.com/"
  },
  {
    "Teams": "nfllar",
    "Name": "Big Wangs",
    "Address": "5300 Lankershim Blvd #130, Los Angeles, CA 91601",
    "City": "LA",
    "State": "CA",
    "latitude": 34.1675395,
    "longitude": -118.376017,
    "Phone": "818-985-2449",
    "Website": "http://www.bigwangs.com/"
  },
  {
    "Teams": "nbalal",
    "Name": "Busby's East",
    "Address": "5364 Wilshire Blvd, Los Angeles, CA 90036",
    "City": "LA",
    "State": "CA",
    "latitude": 34.0620699,
    "longitude": -118.3458448,
    "Phone": "323-823-4890",
    "Website": "http://www.busbysla.com/"
  },
  {
    "Teams": "mlblad;nbalal;nflphi",
    "Name": "The Greyhound Bar & Grill",
    "Address": "5570 N Figueroa St, Los Angeles, CA 90042",
    "City": "LA",
    "State": "CA",
    "latitude": 34.108813,
    "longitude": -118.1940406,
    "Phone": "323-900-0300",
    "Website": "http://the-greyhound.com/"
  },
  {
    "Teams": "nflcar",
    "Name": "6th & La Brea Brewery & Restaurant",
    "Address": "600 South La Brea Ave, Los Angeles, CA 90036",
    "City": "LA",
    "State": "CA",
    "latitude": 34.0646794,
    "longitude": -118.343706,
    "Phone": "323-998-8565",
    "Website": "http://www.6thlabrea.com/"
  },
  {
    "Teams": "ncaabmu",
    "Name": "Karl Strauss Brewing Company",
    "Address": "600 Wilshire Blvd #100, Los Angeles, CA 90017",
    "City": "LA",
    "State": "CA",
    "latitude": 34.0479431,
    "longitude": -118.2562378,
    "Phone": "213-228-2739",
    "Website": "https://www.karlstrauss.com/visit/downtown-los-angeles/"
  },
  {
    "Teams": "mlslafc",
    "Name": "The Bunker Hill Bar & Grill",
    "Address": "601 W 5th St R 201, Los Angeles, CA 90071",
    "City": "LA",
    "State": "CA",
    "latitude": 34.0507938,
    "longitude": -118.2538957,
    "Phone": "213-688-2988",
    "Website": "http://www.bunkerhillbar.com/"
  },
  {
    "Teams": "nhllak",
    "Name": "Dave & Buster's",
    "Address": "6081 Center Dr, Los Angeles, CA 90045",
    "City": "LA",
    "State": "CA",
    "latitude": 33.977609,
    "longitude": -118.39155,
    "Phone": "310-846-9950",
    "Website": "https://www.daveandbusters.com/locations/los-angeles-westchester"
  },
  {
    "Teams": "mlblad",
    "Name": "Bludso's Bar & Que",
    "Address": "609 N La Brea Ave, Los Angeles, CA 90036",
    "City": "LA",
    "State": "CA",
    "latitude": 34.0822363,
    "longitude": -118.3443921,
    "Phone": "323-931-2583",
    "Website": "http://www.barandque.com/"
  },
  {
    "Teams": "ncaabusc;ncaafusc",
    "Name": "Public School 213",
    "Address": "612 Flower Street, Los Angeles, CA 90017",
    "City": "LA",
    "State": "CA",
    "latitude": 34.049851,
    "longitude": -118.257422,
    "Phone": "213-622-4500",
    "Website": "http://psontap.com/locations/ps213/"
  },
  {
    "Teams": "nflpit",
    "Name": "Blue Palms Brewhouse",
    "Address": "6124 Hollywood Blvd, Los Angeles, CA 90028",
    "City": "LA",
    "State": "CA",
    "latitude": 34.1014649,
    "longitude": -118.3231621,
    "Phone": "323-464-2337",
    "Website": "http://www.bluepalmsbrewhouse.com/index.html"
  },
  {
    "Teams": "mlslag;nbalal;ncaabucla;ncaafucla",
    "Name": "Casey's Irish Pub",
    "Address": "613 S Grand Ave, Los Angeles, CA 90017",
    "City": "LA",
    "State": "CA",
    "latitude": 34.0484808,
    "longitude": -118.2557888,
    "Phone": "213-629-2353",
    "Website": "http://caseysirishpub.com/"
  },
  {
    "Teams": "mlblad",
    "Name": "Rock & Reilly's DTLA",
    "Address": "615 S Flower St, Los Angeles, CA 90017",
    "City": "LA",
    "State": "CA",
    "latitude": 34.0497311,
    "longitude": -118.2580046,
    "Phone": "213-537-0554",
    "Website": "http://www.rockandreillys.com/"
  },
  {
    "Teams": "mlblad",
    "Name": "Spring St. Bar",
    "Address": "626 S Spring St B, Los Angeles, CA 90014",
    "City": "LA",
    "State": "CA",
    "latitude": 34.0450978,
    "longitude": -118.2513307,
    "Phone": "213-622-5859",
    "Website": "http://www.springstbar.com/"
  },
  {
    "Teams": "nflsea",
    "Name": "Te'Kila",
    "Address": "6541 Hollywood Blvd, Los Angeles, CA 90028",
    "City": "LA",
    "State": "CA",
    "latitude": 34.1017494,
    "longitude": -118.3325787,
    "Phone": "323-960-2404",
    "Website": "http://tekilahollywood.com/"
  },
  {
    "Teams": "mlblad",
    "Name": "Baja Beach Bar",
    "Address": "6613 Hollywood Blvd, Los Angeles, CA 90028",
    "City": "LA",
    "State": "CA",
    "latitude": 34.1018479,
    "longitude": -118.333887,
    "Phone": "323-378-6151",
    "Website": "https://bajabeachbar.net/"
  },
  {
    "Teams": "nflhou;mlblad;ncaabtex;ncaaftex",
    "Name": "Cabo Cantina Hollywood",
    "Address": "6669 Hollywood Blvd, Los Angeles, CA 90028",
    "City": "LA",
    "State": "CA",
    "latitude": 34.1017351,
    "longitude": -118.3355503,
    "Phone": "323-366-2565",
    "Website": "http://www.cabocantina.com/"
  },
  {
    "Teams": "mlblad",
    "Name": "Jameson's Irish Pub",
    "Address": "6681 Hollywood Blvd, Los Angeles, CA 90028",
    "City": "LA",
    "State": "CA",
    "latitude": 34.101728,
    "longitude": -118.3358682,
    "Phone": "323-798-5360",
    "Website": "http://www.jamesonsirishpub.com/"
  },
  {
    "Teams": "ncaabhou;ncaafhou;nflsf",
    "Name": "Dave & Buster's",
    "Address": "6801 Hollywood Blvd #343, Los Angeles, CA 90028",
    "City": "LA",
    "State": "CA",
    "latitude": 34.102157,
    "longitude": -118.339154,
    "Phone": "323-603-2400",
    "Website": "https://www.daveandbusters.com/locations/los-angeles-hollywood"
  },
  {
    "Teams": "ncaabucla;ncaafucla",
    "Name": "Boomtown Brewery",
    "Address": "700 Jackson St, Los Angeles, CA 90012",
    "City": "LA",
    "State": "CA",
    "latitude": 34.050791,
    "longitude": -118.2332283,
    "Phone": "213-617-8497",
    "Website": "http://www.boomtownbrew.com/"
  },
  {
    "Teams": "mlblad;ncaabmsu;ncaafmsu;ncaabneb;ncaafneb;ncaabosu;ncaafosu",
    "Name": "Sycamore Tavern",
    "Address": "7038 Sunset Blvd, Los Angeles, CA 90028",
    "City": "LA",
    "State": "CA",
    "latitude": 34.0977873,
    "longitude": -118.3428537,
    "Phone": "323-467-7038",
    "Website": "https://www.sycamoretavern.com/"
  },
  {
    "Teams": "ncaabgonz",
    "Name": "Cinco",
    "Address": "7241 W Manchester Ave, Los Angeles, CA 90045",
    "City": "LA",
    "State": "CA",
    "latitude": 33.9600369,
    "longitude": -118.4205349,
    "Phone": "310-910-0895",
    "Website": "http://www.cincola.com/"
  },
  {
    "Teams": "nflbal;ncaabcle;ncaafcle;ncaabind;ncaafind;ncaabisu;ncaafisu;ncaabku;ncaafku;ncaabuk;ncaafuk;mlslafc;ncaabumd;ncaafumd;ncaabmich;ncaafmich;ncaabnd;ncaafnd;ncaabpur;ncaafpur;ncaabsyr;ncaafsyr;ncaabuva;ncaafuva;ncaabwvu;ncaafwvu;ncaabwmu;ncaafwmu",
    "Name": "The Parlor",
    "Address": "7250 Melrose Ave, Los Angeles, CA 90046",
    "City": "LA",
    "State": "CA",
    "latitude": 34.083372,
    "longitude": -118.3477102,
    "Phone": "323-930-2100",
    "Website": "http://theparlorca.com/"
  },
  {
    "Teams": "ncaabneb;ncaafneb",
    "Name": "The Darkroom",
    "Address": "7302 Melrose Ave, Los Angeles, CA 90036",
    "City": "LA",
    "State": "CA",
    "latitude": 34.0834274,
    "longitude": -118.3488914,
    "Phone": "",
    "Website": "http://www.instagram.com/thedarkroom_la"
  },
  {
    "Teams": "mlslag;nhllak;ncaabusc;ncaafusc",
    "Name": "Los Angeles Biergarten",
    "Address": "750 S Broadway, Los Angeles, CA 90014",
    "City": "LA",
    "State": "CA",
    "latitude": 34.0438233,
    "longitude": -118.254385,
    "Phone": "213-628-3737",
    "Website": "http://www.labiergarten.com/"
  },
  {
    "Teams": "nbalal",
    "Name": "Yard House",
    "Address": "800 W Olympic Blvd A-115, Los Angeles, CA 90015",
    "City": "LA",
    "State": "CA",
    "latitude": 34.044938,
    "longitude": -118.2657809,
    "Phone": "213-745-9273",
    "Website": "http://www.yardhouse.com/locations/ca/los-angeles/los-angeles-la-live/8321"
  },
  {
    "Teams": "ncaabfsu;ncaaffsu",
    "Name": "Cleo L.A. Live",
    "Address": "800 W Olympic Blvd, Los Angeles, CA 90015",
    "City": "LA",
    "State": "CA",
    "latitude": 34.0444329,
    "longitude": -118.2648765,
    "Phone": "424-888-7818",
    "Website": "http://www.sbe.com/restaurants/locations/cleo-la-live/"
  },
  {
    "Teams": "nbalac;mlblad;mlslafc;nfllar",
    "Name": "Wangs Tavern",
    "Address": "801 S Grand Ave, Los Angeles, CA 90017",
    "City": "LA",
    "State": "CA",
    "latitude": 34.045336,
    "longitude": -118.258884,
    "Phone": "213-629-2449",
    "Website": "http://www.bigwangs.com/"
  },
  {
    "Teams": "mlslag;mlslafc;ncaabusc;ncaafusc",
    "Name": "Dublin's Irish Whiskey Pub",
    "Address": "815 W 7th St, Los Angeles, CA 90017",
    "City": "LA",
    "State": "CA",
    "latitude": 34.0491141,
    "longitude": -118.2590567,
    "Phone": "213-439-9931",
    "Website": "https://www.dublinson7th.com/"
  },
  {
    "Teams": "ncaabusc;ncaafusc",
    "Name": "40 Love",
    "Address": "829 N La Cienega Blvd, Los Angeles, CA 90069",
    "City": "LA",
    "State": "CA",
    "latitude": 34.0861593,
    "longitude": -118.376694,
    "Phone": "310-855-7221",
    "Website": "https://www.the40love.com/"
  },
  {
    "Teams": "ncaabuga;ncaafuga;nhllak",
    "Name": "Goal",
    "Address": "8334 W 3rd St, Los Angeles, CA 90048",
    "City": "LA",
    "State": "CA",
    "latitude": 34.072582,
    "longitude": -118.371261,
    "Phone": "323-655-5955",
    "Website": "http://www.goalsportscafe.com/"
  },
  {
    "Teams": "nfllar",
    "Name": "Tom Bergin's",
    "Address": "840 S Fairfax Ave, Los Angeles, CA 90036",
    "City": "LA",
    "State": "CA",
    "latitude": 34.0600552,
    "longitude": -118.3627377,
    "Phone": "323-936-7151",
    "Website": "http://www.tombergins.com/"
  },
  {
    "Teams": "ncaabasu;ncaafasu;ncaabcle;ncaafcle",
    "Name": "The Shelby",
    "Address": "8445 W 3rd St, Los Angeles, CA 90048",
    "City": "LA",
    "State": "CA",
    "latitude": 34.0734089,
    "longitude": -118.3748005,
    "Phone": "323-424-3230",
    "Website": "https://theshelbyla.com/"
  },
  {
    "Teams": "nflne",
    "Name": "The Little Bar",
    "Address": "S, 757 South La Brea Ave, Los Angeles, CA 90036",
    "City": "LA",
    "State": "CA",
    "latitude": 34.0607098,
    "longitude": -118.3447913,
    "Phone": "323-937-9210",
    "Website": "http://www.littlebarlounge.com/"
  },
  {
    "Teams": "nflgb",
    "Name": "The Hangar Inn",
    "Address": "1001 N Aviation Blvd, Manhattan Beach, CA 90266",
    "City": "LA",
    "State": "CA",
    "latitude": 33.8856907,
    "longitude": -118.3788538,
    "Phone": "310-379-0836",
    "Website": "http://www.hangarinn.com/"
  },
  {
    "Teams": "mlslag;mlblad",
    "Name": "Shellback Tavern",
    "Address": "116 Manhattan Beach Blvd, Manhattan Beach, CA 90266",
    "City": "LA",
    "State": "CA",
    "latitude": 33.8843371,
    "longitude": -118.4111649,
    "Phone": "310-376-7857",
    "Website": "https://shellback-tavern.business.site/"
  },
  {
    "Teams": "ncaabcolo;ncaafcolo;ncaabku;ncaafku;mlblad",
    "Name": "Grunions Sports Bar & Grill",
    "Address": "1501 N Sepulveda Blvd, Manhattan Beach, CA 90266",
    "City": "LA",
    "State": "CA",
    "latitude": 33.8896848,
    "longitude": -118.396205,
    "Phone": "310-545-9910",
    "Website": "http://grunionssportsbarandgrill.com/"
  },
  {
    "Teams": "mlblad;nbalal;ncaabtamu;ncaaftamu;ncaabuw;ncaafuw",
    "Name": "Baja Sharkeez",
    "Address": "3600 Highland Ave, Manhattan Beach, CA 90266",
    "City": "LA",
    "State": "CA",
    "latitude": 33.900521,
    "longitude": -118.417395,
    "Phone": "310-545-8811",
    "Website": "http://www.sharkeez.net/"
  },
  {
    "Teams": "mlslag;mlblad;mlslafc;nfllar",
    "Name": "OB's Pub & Grill",
    "Address": "3610 North Highland Ave, Manhattan Beach, CA 90266",
    "City": "LA",
    "State": "CA",
    "latitude": 33.9006228,
    "longitude": -118.4175413,
    "Phone": "310-546-1542",
    "Website": "http://www.obsmb.com/"
  },
  {
    "Teams": "mlblad",
    "Name": "Cabo Cantina",
    "Address": "30 Washington Blvd, Marina Del Rey, CA 90292",
    "City": "LA",
    "State": "CA",
    "latitude": 33.9793696,
    "longitude": -118.4658563,
    "Phone": "310-306-2500",
    "Website": "http://www.cabocantina.com/"
  },
  {
    "Teams": "mlblad",
    "Name": "Firestone Walker Brewing Company - The Propagator",
    "Address": "3205 Washington Blvd, Marina Del Rey, CA 90292",
    "City": "LA",
    "State": "CA",
    "latitude": 33.98973,
    "longitude": -118.448621,
    "Phone": "310-439-8264",
    "Website": "http://www.firestonebeer.com/visit/venice.php"
  },
  {
    "Teams": "nflden;ncaabfsu;ncaaffsu;ncaabstan;ncaafstan",
    "Name": "Brennan's",
    "Address": "4089 Lincoln Blvd, Marina Del Rey, CA 90292",
    "City": "LA",
    "State": "CA",
    "latitude": 33.988312,
    "longitude": -118.446091,
    "Phone": "424-443-5119",
    "Website": "http://brennansla.com/"
  },
  {
    "Teams": "ncaabuf;ncaafuf;ncaabmsu;ncaafmsu",
    "Name": "Tony P's Dockside Grill",
    "Address": "4445 Admiralty Way, Marina Del Rey, CA 90292",
    "City": "LA",
    "State": "CA",
    "latitude": 33.983671,
    "longitude": -118.44785,
    "Phone": "310-823-4534",
    "Website": "http://www.tonyps.com/"
  },
  {
    "Teams": "mlblad",
    "Name": "3.99 Pizza Company",
    "Address": "4913 Moreno St, Montclair, CA 91763",
    "City": "LA",
    "State": "CA",
    "latitude": 34.0883529,
    "longitude": -117.6976801,
    "Phone": "909-624-2184",
    "Website": "http://399pizzaco.com/"
  },
  {
    "Teams": "nflsf",
    "Name": "Black Angus Steakhouse",
    "Address": "9415 Monte Vista Ave, Montclair, CA 91763",
    "City": "LA",
    "State": "CA",
    "latitude": 34.083015,
    "longitude": -117.697809,
    "Phone": "909-621-4821",
    "Website": "http://locations.blackangus.com/ll/us/ca/montclair/9415-monte-vista-ave_"
  },
  {
    "Teams": "mlslag",
    "Name": "El Pescador Bar and Grill",
    "Address": "116 W Beverly Blvd, Montebello, CA 90640",
    "City": "LA",
    "State": "CA",
    "latitude": 34.015689,
    "longitude": -118.0977837,
    "Phone": "323-246-4545",
    "Website": "http://www.elpescadormontebello.com/"
  },
  {
    "Teams": "mlblad",
    "Name": "Itech Pizza's",
    "Address": "2575 Via Campo, Montebello, CA 90640",
    "City": "LA",
    "State": "CA",
    "latitude": 34.030761,
    "longitude": -118.1247994,
    "Phone": "323-838-9888",
    "Website": "http://www.itechpizza.com/"
  },
  {
    "Teams": "mlblad;nflsf",
    "Name": "Mr M's Hot Wings and Things",
    "Address": "886 N Garfield Ave, Montebello, CA 90640",
    "City": "LA",
    "State": "CA",
    "latitude": 34.0321686,
    "longitude": -118.1293717,
    "Phone": "323-477-1345",
    "Website": "http://mrmshotwings.com/menu/"
  },
  {
    "Teams": "ncaabbay;ncaafbay",
    "Name": "Grinder Deli Restaurant and Sports Bar",
    "Address": "1820, 1 Los Angeles Ave, Moorpark, CA 93021",
    "City": "LA",
    "State": "CA",
    "latitude": 34.2793563,
    "longitude": -118.8823836,
    "Phone": "805-529-2288",
    "Website": "https://www.grinderdelica.com/"
  },
  {
    "Teams": "ncaabbay;ncaafbay",
    "Name": "Lucky Fools Pub",
    "Address": "75 E High St, Moorpark, CA 93021",
    "City": "LA",
    "State": "CA",
    "latitude": 34.2856231,
    "longitude": -118.881283,
    "Phone": "805-532-1500",
    "Website": "https://www.facebook.com/LuckyFoolsPub/"
  },
  {
    "Teams": "nflkc",
    "Name": "The Bar-B-Que Bar",
    "Address": "10863 W Magnolia Blvd, North Hollywood, CA 91601",
    "City": "LA",
    "State": "CA",
    "latitude": 34.1652108,
    "longitude": -118.367913,
    "Phone": "818-754-0030",
    "Website": ""
  },
  {
    "Teams": "mlbhou;mlslafc;ncaabtex;ncaaftex",
    "Name": "El Tejano",
    "Address": "11122 W Magnolia Blvd, North Hollywood, CA 91601",
    "City": "LA",
    "State": "CA",
    "latitude": 34.1646285,
    "longitude": -118.3732686,
    "Phone": "818-985-8787",
    "Website": "http://eltejanotexmex.com/"
  },
  {
    "Teams": "mlblad;mlslafc",
    "Name": "Big Wangs North Hollywood",
    "Address": "5300 Lankershim Blvd, North Hollywood, CA 91601",
    "City": "LA",
    "State": "CA",
    "latitude": 34.167584,
    "longitude": -118.375598,
    "Phone": "818-985-2449",
    "Website": "http://www.bigwangs.com/"
  },
  {
    "Teams": "mlblad",
    "Name": "Lee's 4 Cocktails",
    "Address": "17040 Devonshire St, Northridge, CA 91325",
    "City": "LA",
    "State": "CA",
    "latitude": 34.2571162,
    "longitude": -118.5036504,
    "Phone": "747-300-9331",
    "Website": "http://lees4cocktails.com/"
  },
  {
    "Teams": "nfllac;mlblad",
    "Name": "Paragon Bar and Grill",
    "Address": "8319 Louise Ave, Northridge, CA 91325",
    "City": "LA",
    "State": "CA",
    "latitude": 34.2217041,
    "longitude": -118.5101007,
    "Phone": "818-996-3353",
    "Website": "http://paragonbarandgrill.com/"
  },
  {
    "Teams": "ncaabcal;ncaafcal;ncaabcin;ncaafcin",
    "Name": "Buffalo Wild Wings",
    "Address": "1000 S Fair Oaks Ave, Pasadena, CA 91105",
    "City": "LA",
    "State": "CA",
    "latitude": 34.1286568,
    "longitude": -118.1497313,
    "Phone": "626-993-6400",
    "Website": "https://www.buffalowildwings.com/en/locations/detail/3562/"
  },
  {
    "Teams": "nflbuf;ncaabstan;ncaafstan",
    "Name": "ix Tapa Cantina",
    "Address": "119 E Colorado Blvd, Pasadena, CA 91105",
    "City": "LA",
    "State": "CA",
    "latitude": 34.1459541,
    "longitude": -118.14781,
    "Phone": "626-304-1000",
    "Website": "http://www.cantinaixtapa.com/"
  },
  {
    "Teams": "mlslafc",
    "Name": "Lucky Baldwin's Pub",
    "Address": "17 S Raymond Ave, Pasadena, CA 91105",
    "City": "LA",
    "State": "CA",
    "latitude": 34.1454009,
    "longitude": -118.1490333,
    "Phone": "626-795-0652",
    "Website": "http://luckybaldwins.pub/"
  },
  {
    "Teams": "ncaabusc;ncaafusc",
    "Name": "El Cholo Caf̩ Pasadena",
    "Address": "300 E Colorado Blvd, Pasadena, CA 91101",
    "City": "LA",
    "State": "CA",
    "latitude": 34.1454403,
    "longitude": -118.1447293,
    "Phone": "626-795-5800",
    "Website": "http://www.elcholopasadena.com/"
  },
  {
    "Teams": "ncaabstan;ncaafstan",
    "Name": "T. Boyle's Tavern",
    "Address": "37 N Catalina Ave, Pasadena, CA 91106",
    "City": "LA",
    "State": "CA",
    "latitude": 34.146653,
    "longitude": -118.1299433,
    "Phone": "626-578-0957",
    "Website": ""
  },
  {
    "Teams": "ncaabgonz;nbalal;nflsea",
    "Name": "Rocco's Tavern",
    "Address": "44 W Green St, Pasadena, CA 91105",
    "City": "LA",
    "State": "CA",
    "latitude": 34.144356,
    "longitude": -118.151521,
    "Phone": "626-765-6810",
    "Website": "http://roccostavern.com/"
  },
  {
    "Teams": "ncaabucla;ncaafucla",
    "Name": "Bar Celona",
    "Address": "46 E Colorado Blvd, Pasadena, CA 91105",
    "City": "LA",
    "State": "CA",
    "latitude": 34.1456526,
    "longitude": -118.1495879,
    "Phone": "626-405-1000",
    "Website": "http://www.pasadenasorriso.com/"
  },
  {
    "Teams": "ncaabnc;ncaafnc;ncaabstan;ncaafstan",
    "Name": "Slater's 50/50",
    "Address": "61 N Raymond Ave, Pasadena, CA 91103",
    "City": "LA",
    "State": "CA",
    "latitude": 34.1468939,
    "longitude": -118.1490767,
    "Phone": "626-765-9700",
    "Website": "http://www.slaters5050.com/"
  },
  {
    "Teams": "ncaabucla;ncaafucla",
    "Name": "dusitD2 Hotel Constance Pasadena",
    "Address": "928 E Colorado Blvd, Pasadena, CA 91106",
    "City": "LA",
    "State": "CA",
    "latitude": 34.1455276,
    "longitude": -118.1310129,
    "Phone": "626-898-7900",
    "Website": "http://www.dusit.com/dusitd2/pasadena"
  },
  {
    "Teams": "mlblad;nbalal;nflne;ncaaborst;ncaaforst;ncaabuw;ncaafuw",
    "Name": "Barney's Beanery",
    "Address": "99 E Colorado Blvd, Pasadena, CA 91105",
    "City": "LA",
    "State": "CA",
    "latitude": 34.1460584,
    "longitude": -118.1483901,
    "Phone": "626-405-9777",
    "Website": "http://www.barneysbeanery.com/"
  },
  {
    "Teams": "nflsf",
    "Name": "Metro Ale House & Grill",
    "Address": "197 E 2nd St, Pomona, CA 91766",
    "City": "LA",
    "State": "CA",
    "latitude": 34.0581165,
    "longitude": -117.7493083,
    "Phone": "909-565-4114",
    "Website": "http://www.metroalehouse.com/"
  },
  {
    "Teams": "ncaabwmu;ncaafwmu",
    "Name": "Mexicocina Restaurant & Tequileria",
    "Address": "12213 Poway Rd, Poway, CA 92064",
    "City": "LA",
    "State": "CA",
    "latitude": 32.9505686,
    "longitude": -117.0663103,
    "Phone": "858-748-6452",
    "Website": "https://www.mexicocinarestaurant.com/"
  },
  {
    "Teams": "ncaabou;ncaafou;ncaabusc;ncaafusc",
    "Name": "Kaminski's BBQ & Sports Lounge",
    "Address": "12735 Poway Rd, Poway, CA 92064",
    "City": "LA",
    "State": "CA",
    "latitude": 32.9553341,
    "longitude": -117.0551103,
    "Phone": "858-748-1106",
    "Website": "http://www.kaminskisbbq.com/"
  },
  {
    "Teams": "ncaabariz;ncaafariz;ncaabiowa;ncaafiowa;nbalal",
    "Name": "Barney's Beanery",
    "Address": "100 Fishermans Wharf H, Redondo Beach, CA 90277",
    "City": "LA",
    "State": "CA",
    "latitude": 33.8389235,
    "longitude": -118.390933,
    "Phone": "424-275-4820",
    "Website": "http://barneysbeanery.com/"
  },
  {
    "Teams": "mlblad",
    "Name": "Jersey's Bar & Grill",
    "Address": "1453 Aviation Blvd, Redondo Beach, CA 90278",
    "City": "LA",
    "State": "CA",
    "latitude": 33.8679692,
    "longitude": -118.3833228,
    "Phone": "310-374-2424",
    "Website": ""
  },
  {
    "Teams": "mlblad",
    "Name": "Naja's Place",
    "Address": "154 International Boardwalk, Redondo Beach, CA 90277",
    "City": "LA",
    "State": "CA",
    "latitude": 33.84256,
    "longitude": -118.3916432,
    "Phone": "310-376-9951",
    "Website": "http://www.najasplace.com/"
  },
  {
    "Teams": "ncaabunlv;ncaafunlv",
    "Name": "Rebel Republic",
    "Address": "1710 S Catalina Ave, Redondo Beach, CA 90277",
    "City": "LA",
    "State": "CA",
    "latitude": 33.8179928,
    "longitude": -118.3878374,
    "Phone": "424-352-2600",
    "Website": "http://www.rebelrepublicsocialhouse.com/"
  },
  {
    "Teams": "mlblad",
    "Name": "Redondo Beach Brew Co",
    "Address": "1814 S Catalina Ave, Redondo Beach, CA 90277",
    "City": "LA",
    "State": "CA",
    "latitude": 33.8169405,
    "longitude": -118.3870918,
    "Phone": "310-316-8477",
    "Website": "https://www.redondobeachbrewco.com/"
  },
  {
    "Teams": "mlslag",
    "Name": "Pitcher House Upper Deck",
    "Address": "409 N Pacific Coast Hwy #200, Redondo Beach, CA 90277",
    "City": "LA",
    "State": "CA",
    "latitude": 33.8478751,
    "longitude": -118.3896567,
    "Phone": "310-374-0001",
    "Website": "http://pitcherhouse.com/"
  },
  {
    "Teams": "mlblad;mlslafc;ncaabmich;ncaafmich",
    "Name": "Rock & Brews Redondo Beach",
    "Address": "6300 S Pacific Coast Hwy, Redondo Beach, CA 90277",
    "City": "LA",
    "State": "CA",
    "latitude": 33.8183872,
    "longitude": -118.3839411,
    "Phone": "310-928-2969",
    "Website": "http://www.rockandbrews.com/redondobeach/"
  },
  {
    "Teams": "mlblad",
    "Name": "Avenue A Bar and Grill",
    "Address": "800 S Pacific Coast Hwy, Redondo Beach, CA 90277",
    "City": "LA",
    "State": "CA",
    "latitude": 33.8281984,
    "longitude": -118.3852093,
    "Phone": "310-316-2832",
    "Website": "http://www.avenueabarandgrill.com/"
  },
  {
    "Teams": "mlblad;nfllar",
    "Name": "Zendejas Mexican Restaurant",
    "Address": "665 Arrow Hwy, San Dimas, CA 91773",
    "City": "LA",
    "State": "CA",
    "latitude": 34.106151,
    "longitude": -117.8182554,
    "Phone": "909-592-6762",
    "Website": "http://www.zendejasmexicanrestaurant.com/"
  },
  {
    "Teams": "ncaabarmy;ncaafarmy;nflden;ncaabnavy;ncaafnavy",
    "Name": "Brouwerij West",
    "Address": "110 E 22nd St, San Pedro, CA 90731",
    "City": "LA",
    "State": "CA",
    "latitude": 33.7274003,
    "longitude": -118.2801386,
    "Phone": "310-833-9330",
    "Website": "http://www.brouwerijwest.com/"
  },
  {
    "Teams": "mlblad",
    "Name": "MVP Pizza San Pedro",
    "Address": "2437, 525 S Gaffey St, San Pedro, CA 90731",
    "City": "LA",
    "State": "CA",
    "latitude": 33.7389374,
    "longitude": -118.2932466,
    "Phone": "310-832-7557",
    "Website": "https://www.mvppizzamenu.com/"
  },
  {
    "Teams": "mlslag",
    "Name": "The Whale & Ale",
    "Address": "327 W 7th St, San Pedro, CA 90731",
    "City": "LA",
    "State": "CA",
    "latitude": 33.7376395,
    "longitude": -118.2841787,
    "Phone": "310-832-0363",
    "Website": "http://www.whaleandale.com/"
  },
  {
    "Teams": "mlblad",
    "Name": "San Pedro Brewing Company",
    "Address": "331 W 6th St, San Pedro, CA 90731",
    "City": "LA",
    "State": "CA",
    "latitude": 33.7385347,
    "longitude": -118.2842157,
    "Phone": "310-831-5663",
    "Website": "http://sanpedrobrewing.com/"
  },
  {
    "Teams": "ncaabpit;ncaafpit;nflpit",
    "Name": "Iron City Tavern",
    "Address": "589 W 9th St, San Pedro, CA 90731",
    "City": "LA",
    "State": "CA",
    "latitude": 33.7359353,
    "longitude": -118.2898625,
    "Phone": "310-547-4766",
    "Website": "http://www.ironcitytavern.net/"
  },
  {
    "Teams": "nflsea",
    "Name": "1114 Crafthouse & Kitchen",
    "Address": "1114 State St, Santa Barbara, CA 93101",
    "City": "LA",
    "State": "CA",
    "latitude": 34.4228195,
    "longitude": -119.7033982,
    "Phone": "805-965-4770",
    "Website": "http://1114sb.com/"
  },
  {
    "Teams": "nbabos",
    "Name": "Lama Dog Tap Room + Bottle Shop - Craft Beer Store",
    "Address": "116 Santa Barbara St, Santa Barbara, CA 93101",
    "City": "LA",
    "State": "CA",
    "latitude": 34.415751,
    "longitude": -119.68852,
    "Phone": "805-880-3364",
    "Website": "https://www.lamadog.com/"
  },
  {
    "Teams": "ncaabmich;ncaafmich",
    "Name": "Foxtail Kitchen & Bar",
    "Address": "14 E Cota St, Santa Barbara, CA 93101",
    "City": "LA",
    "State": "CA",
    "latitude": 34.4180746,
    "longitude": -119.6962225,
    "Phone": "805-845-6226",
    "Website": "https://www.foxtailsb.com/"
  },
  {
    "Teams": "ncaabcolo;ncaafcolo;ncaabmich;ncaafmich;ncaabtcu;ncaaftcu",
    "Name": "The Creekside Restaurant & Bar",
    "Address": "1708, 4444 Hollister Ave, Santa Barbara, CA 93110",
    "City": "LA",
    "State": "CA",
    "latitude": 34.440093,
    "longitude": -119.771864,
    "Phone": "805-770-3200",
    "Website": "http://thecreeksidesb.com/"
  },
  {
    "Teams": "nflsea",
    "Name": "Mel's Lounge",
    "Address": "209 W Carrillo St, Santa Barbara, CA 93101",
    "City": "LA",
    "State": "CA",
    "latitude": 34.4189718,
    "longitude": -119.7041907,
    "Phone": "805-963-2211",
    "Website": "https://www.facebook.com/Mels-Lounge-232054286827463/"
  },
  {
    "Teams": "ncaabmich;ncaafmich;ncaabvu;ncaabuva;ncaafuva",
    "Name": "The Garden",
    "Address": "38 W Victoria St #101, Santa Barbara, CA 93101",
    "City": "LA",
    "State": "CA",
    "latitude": 34.4236009,
    "longitude": -119.7070713,
    "Phone": "805-770-7700",
    "Website": "https://www.thegardensb.com/"
  },
  {
    "Teams": "ncaabucla;ncaafucla",
    "Name": "Santa Barbara Public Market",
    "Address": "38 W Victoria St, Santa Barbara, CA 93101",
    "City": "LA",
    "State": "CA",
    "latitude": 34.4234188,
    "longitude": -119.706978,
    "Phone": "805-770-7702",
    "Website": "http://www.sbpublicmarket.com/"
  },
  {
    "Teams": "ncaabcal;ncaafcal;ncaabusc;ncaafusc",
    "Name": "Third Window Brewing",
    "Address": "406 E Haley St #3, Santa Barbara, CA 93101",
    "City": "LA",
    "State": "CA",
    "latitude": 34.4209742,
    "longitude": -119.6904425,
    "Phone": "805-979-5090",
    "Website": "https://www.thirdwindowbrewing.com/"
  },
  {
    "Teams": "nflkc",
    "Name": "Monty's Sports Bar",
    "Address": "5114 Hollister Ave, Santa Barbara, CA 93111",
    "City": "LA",
    "State": "CA",
    "latitude": 34.4355291,
    "longitude": -119.802874,
    "Phone": "805-683-1003",
    "Website": "http://www.montyssportsbar.com/"
  },
  {
    "Teams": "ncaabtamu;ncaaftamu",
    "Name": "Sandbar",
    "Address": "514 State St, Santa Barbara, CA 93101",
    "City": "LA",
    "State": "CA",
    "latitude": 34.4172154,
    "longitude": -119.6958472,
    "Phone": "805-966-1388",
    "Website": "http://www.sandbarsb.com/"
  },
  {
    "Teams": "nfllar",
    "Name": "O'Malleys Bar",
    "Address": "523 State St, Santa Barbara, CA 93101",
    "City": "LA",
    "State": "CA",
    "latitude": 34.4172957,
    "longitude": -119.6964284,
    "Phone": "805-564-8904",
    "Website": ""
  },
  {
    "Teams": "mlblad;nflpit;ncaabusc;ncaafusc",
    "Name": "Baja Sharkeez",
    "Address": "525 State St, Santa Barbara, CA 93101",
    "City": "LA",
    "State": "CA",
    "latitude": 34.4173528,
    "longitude": -119.6964858,
    "Phone": "805-845-9572",
    "Website": "http://sharkeez.net/"
  },
  {
    "Teams": "ncaabucla;ncaafucla",
    "Name": "Oggi's Pizza & Brewing Co",
    "Address": "18810 Soledad Canyon Rd, Santa Clarita, CA 91351",
    "City": "LA",
    "State": "CA",
    "latitude": 34.4153228,
    "longitude": -118.4634907,
    "Phone": "661-252-7883",
    "Website": "http://www.oggis.com/"
  },
  {
    "Teams": "mlblad",
    "Name": "Schooners Patio Grille",
    "Address": "22903 Soledad Canyon Rd, Santa Clarita, CA 91350",
    "City": "LA",
    "State": "CA",
    "latitude": 34.4223156,
    "longitude": -118.5366383,
    "Phone": "661-388-4765",
    "Website": "http://www.schoonerssantaclarita.com/index.php"
  },
  {
    "Teams": "mlblad",
    "Name": "Schoonerville",
    "Address": "26254 Bouquet Canyon Rd, Santa Clarita, CA 91350",
    "City": "LA",
    "State": "CA",
    "latitude": 34.4215984,
    "longitude": -118.5410091,
    "Phone": "661-254-1942",
    "Website": "http://schoonerville.cafes-usa.com/"
  },
  {
    "Teams": "mlslag",
    "Name": "Big Mouth Pizza",
    "Address": "33323 Agua Dulce Canyon Rd, Santa Clarita, CA 91390",
    "City": "LA",
    "State": "CA",
    "latitude": 34.4949532,
    "longitude": -118.326582,
    "Phone": "661-268-7500",
    "Website": "http://bigmouthpizza.com/"
  },
  {
    "Teams": "nfllar",
    "Name": "Maggie's Pub",
    "Address": "11900 Telegraph Rd, Santa Fe Springs, CA 90670",
    "City": "LA",
    "State": "CA",
    "latitude": 33.9440527,
    "longitude": -118.0795421,
    "Phone": "562-944-5399",
    "Website": "http://maggiespub.com/"
  },
  {
    "Teams": "nfllac;ncaabucla;ncaafucla",
    "Name": "S&P Restaurant & Sports Bar",
    "Address": "13225 Telegraph Rd, Santa Fe Springs, CA 90670",
    "City": "LA",
    "State": "CA",
    "latitude": 33.9421242,
    "longitude": -118.0504232,
    "Phone": "562-777-0201",
    "Website": "http://snprestaurantbar.com/"
  },
  {
    "Teams": "mlblad",
    "Name": "Ma'kai Restaurant & Lounge",
    "Address": "101 Broadway, Santa Monica, CA 90401",
    "City": "LA",
    "State": "CA",
    "latitude": 34.0129992,
    "longitude": -118.4964463,
    "Phone": "310-434-1511",
    "Website": "https://www.makailounge.com/"
  },
  {
    "Teams": "mlslag;mlslafc;ncaabvu",
    "Name": "Ye Olde King's Head",
    "Address": "116 Santa Monica Blvd, Santa Monica, CA 90401",
    "City": "LA",
    "State": "CA",
    "latitude": 34.014482,
    "longitude": -118.497251,
    "Phone": "310-451-1402",
    "Website": "http://www.yeoldekingshead.com/"
  },
  {
    "Teams": "mlblad",
    "Name": "Cabo Cantina",
    "Address": "1240 3rd Street Promenade, Santa Monica, CA 90401",
    "City": "LA",
    "State": "CA",
    "latitude": 34.0173298,
    "longitude": -118.4985077,
    "Phone": "310-393-5755",
    "Website": "http://www.cabocantina.com/"
  },
  {
    "Teams": "ncaabariz;ncaafariz;ncaabiowa;ncaafiowa;mlblad;nbalal;ncaabwsu;ncaafwsu",
    "Name": "Barney's Beanery",
    "Address": "1351 3rd St, Santa Monica, CA 90401",
    "City": "LA",
    "State": "CA",
    "latitude": 34.0162101,
    "longitude": -118.4962227,
    "Phone": "310-656-5777",
    "Website": "http://barneysbeanery.com/"
  },
  {
    "Teams": "ncaabcsu;ncaafcsu;mlslafc;nflnyg;mlbnym",
    "Name": "West 4th & Jane",
    "Address": "1432 4th St, Santa Monica, CA 90402",
    "City": "LA",
    "State": "CA",
    "latitude": 34.0156135,
    "longitude": -118.4946394,
    "Phone": "310-395-6765",
    "Website": "http://www.west4thjane.com/"
  },
  {
    "Teams": "nflchi",
    "Name": "TRIP Santa Monica",
    "Address": "2101 Lincoln Blvd, Santa Monica, CA 90405",
    "City": "LA",
    "State": "CA",
    "latitude": 34.0109379,
    "longitude": -118.4809564,
    "Phone": "310-396-9010",
    "Website": "http://www.tripsantamonica.com/calendar"
  },
  {
    "Teams": "ncaabcle;ncaafcle;mlblad;ncaabneb;ncaafneb;nflnyg;ncaabusc;ncaafusc",
    "Name": "O'Briens Irish Pub",
    "Address": "2226 Wilshire Blvd, Santa Monica, CA 90403",
    "City": "LA",
    "State": "CA",
    "latitude": 34.033163,
    "longitude": -118.480628,
    "Phone": "310-829-5303",
    "Website": "http://obriensla.com/"
  },
  {
    "Teams": "ncaabneb;ncaafneb;ncaabosu;ncaafosu",
    "Name": "Gramercy Santa Monica",
    "Address": "2460 Wilshire Blvd, Santa Monica, CA 90403",
    "City": "LA",
    "State": "CA",
    "latitude": 34.0350938,
    "longitude": -118.4781897,
    "Phone": "310-828-2115",
    "Website": "http://gramercysm.com/"
  },
  {
    "Teams": "nhlbos;nbabos;ncaabbc;ncaafbc;mlbbos;mlslafc;nflne;ncaabnd;ncaafnd;ncaabokst;ncaafokst",
    "Name": "Sonny McLean's Irish Pub",
    "Address": "2615 Wilshire Blvd, Santa Monica, CA 90403",
    "City": "LA",
    "State": "CA",
    "latitude": 34.0364965,
    "longitude": -118.4771634,
    "Phone": "310-449-1811",
    "Website": "http://www.sonnymcleans.com/"
  },
  {
    "Teams": "ncaablsu;ncaaflsu",
    "Name": "Jameson's Pub",
    "Address": "2702 Main St, Santa Monica, CA 90405",
    "City": "LA",
    "State": "CA",
    "latitude": 34.0007499,
    "longitude": -118.4825824,
    "Phone": "424-330-0069",
    "Website": "http://www.jamesonsirishpub.com/jamesons-pub-santa-monica/"
  },
  {
    "Teams": "ncaabuf;ncaafuf",
    "Name": "The Brixton",
    "Address": "2827 Pico Blvd, Santa Monica, CA 90405",
    "City": "LA",
    "State": "CA",
    "latitude": 34.0247819,
    "longitude": -118.4598503,
    "Phone": "310-449-4567",
    "Website": "http://thebrixtonsm.com/"
  },
  {
    "Teams": "nflpit",
    "Name": "Cock 'n Bull",
    "Address": "2947 Lincoln Blvd, Santa Monica, CA 90405",
    "City": "LA",
    "State": "CA",
    "latitude": 34.0040892,
    "longitude": -118.4722455,
    "Phone": "310-399-9696",
    "Website": "http://www.cocknbullbritishpub.com/"
  },
  {
    "Teams": "nflbuf;ncaabcal;ncaafcal;mlblad;mlslafc;nfllar;ncaabou;ncaafou;ncaabore;ncaafore;ncaabrutg;ncaafrutg;ncaabucla;ncaafucla;ncaabwsu;ncaafwsu",
    "Name": "Busby's West",
    "Address": "3110 Santa Monica Blvd, Santa Monica, CA 90404",
    "City": "LA",
    "State": "CA",
    "latitude": 34.037197,
    "longitude": -118.469125,
    "Phone": "310-828-4567",
    "Website": "http://www.busbyswest.com/"
  },
  {
    "Teams": "nflnyg",
    "Name": "Big Dean's Ocean Front Cafe",
    "Address": "3119, 1615 Ocean Front Walk, Santa Monica, CA 90401",
    "City": "LA",
    "State": "CA",
    "latitude": 34.0103344,
    "longitude": -118.4954638,
    "Phone": "310-393-2666",
    "Website": "http://bigdeansoceanfrontcafe.com/"
  },
  {
    "Teams": "mlslafc;ncaabpsu;ncaafpsu;nflphi",
    "Name": "Britannia Pub",
    "Address": "318 Santa Monica Blvd, Santa Monica, CA 90401",
    "City": "LA",
    "State": "CA",
    "latitude": 34.0159493,
    "longitude": -118.4954235,
    "Phone": "310-458-5350",
    "Website": "http://britanniapub.com/"
  },
  {
    "Teams": "ncaabfsu;ncaaffsu;mlblad",
    "Name": "The Woodman",
    "Address": "13615 Ventura Blvd, Sherman Oaks, CA 91423",
    "City": "LA",
    "State": "CA",
    "latitude": 34.1480104,
    "longitude": -118.43016,
    "Phone": "818-386-9401",
    "Website": "http://www.thewoodmanla.com/"
  },
  {
    "Teams": "ncaabminn;ncaafminn",
    "Name": "Robin Hood British Pub",
    "Address": "13640 Burbank Blvd, Sherman Oaks, CA 91401",
    "City": "LA",
    "State": "CA",
    "latitude": 34.1719974,
    "longitude": -118.430506,
    "Phone": "818-994-6045",
    "Website": "http://www.robinhoodbritishpub.com/"
  },
  {
    "Teams": "mlslafc",
    "Name": "Bluebird Brasserie - Brewery & Eatery",
    "Address": "13730 Ventura Blvd, Sherman Oaks, CA 91423",
    "City": "LA",
    "State": "CA",
    "latitude": 34.1480115,
    "longitude": -118.4320707,
    "Phone": "818-849-6970",
    "Website": "http://bluebirdbrasserie.com/"
  },
  {
    "Teams": "nflatl",
    "Name": "On The Thirty",
    "Address": "14622 Ventura Blvd #112, Sherman Oaks, CA 91403",
    "City": "LA",
    "State": "CA",
    "latitude": 34.151247,
    "longitude": -118.452073,
    "Phone": "818-788-0330",
    "Website": "http://www.onthethirty.com/"
  },
  {
    "Teams": "ncaabucla;ncaafucla;ncaabusc;ncaafusc",
    "Name": "Buffalo Wild Wings",
    "Address": "15301 Ventura Blvd, Suite P16, Sherman Oaks Galleria, Sherman Oaks, CA 91403",
    "City": "LA",
    "State": "CA",
    "latitude": 34.1553439,
    "longitude": -118.467014,
    "Phone": "818-728-9640",
    "Website": "http://buffalowildwings.com/"
  },
  {
    "Teams": "mlblad;ncaabminn;ncaafminn;nflmin;ncaabucla;ncaafucla",
    "Name": "Pineapple Hill Saloon & Grill",
    "Address": "4454 Van Nuys Blvd N, Sherman Oaks, CA 91403",
    "City": "LA",
    "State": "CA",
    "latitude": 34.1525187,
    "longitude": -118.4472605,
    "Phone": "818-789-0679",
    "Website": ""
  },
  {
    "Teams": "mlslafc",
    "Name": "Puchica Guatemalan Bar & Grill",
    "Address": "4523 Sepulveda Blvd, Sherman Oaks, CA 91403",
    "City": "LA",
    "State": "CA",
    "latitude": 34.1523327,
    "longitude": -118.4668594,
    "Phone": "818-990-1011",
    "Website": "http://www.puchicabarandgrill.com/"
  },
  {
    "Teams": "mlblad;nbalal",
    "Name": "Blue Dog Beer Tavern",
    "Address": "4524 Saugus Ave, Sherman Oaks, CA 91403",
    "City": "LA",
    "State": "CA",
    "latitude": 34.1519182,
    "longitude": -118.4659741,
    "Phone": "818-990-2583",
    "Website": "http://www.bluedogbeertavern.com/"
  },
  {
    "Teams": "ncaabbay;ncaafbay;mlblad",
    "Name": "The Dugout Sports Grill",
    "Address": "109 W Cochran St, Simi Valley, CA 93065",
    "City": "LA",
    "State": "CA",
    "latitude": 34.2818881,
    "longitude": -118.794266,
    "Phone": "805-955-9200",
    "Website": "http://www.dugoutsportsgrill.net/"
  },
  {
    "Teams": "mlblad",
    "Name": "Cronies Sports Grill",
    "Address": "2752 Cochran St, Simi Valley, CA 93065",
    "City": "LA",
    "State": "CA",
    "latitude": 34.2779373,
    "longitude": -118.7429324,
    "Phone": "805-583-9999",
    "Website": "http://cronies.com/"
  },
  {
    "Teams": "nfllac",
    "Name": "Harley's Simi Bowl",
    "Address": "480 E Los Angeles Ave, Simi Valley, CA 93065",
    "City": "LA",
    "State": "CA",
    "latitude": 34.270812,
    "longitude": -118.7885338,
    "Phone": "805-526-4212",
    "Website": "http://www.harleysbowl.com/"
  },
  {
    "Teams": "nflsf",
    "Name": "Saddle Bar",
    "Address": "123 Plaza St, Solana Beach, CA 92075",
    "City": "LA",
    "State": "CA",
    "latitude": 32.9913224,
    "longitude": -117.2722049,
    "Phone": "858-755-5007",
    "Website": "http://www.thesaddlebar.com/"
  },
  {
    "Teams": "ncaabcsu;ncaafcsu;nflden;ncaabore;ncaafore",
    "Name": "Chief's Burgers & Brew",
    "Address": "124 Lomas Santa Fe Dr #108, Solana Beach, CA 92075",
    "City": "LA",
    "State": "CA",
    "latitude": 32.9927791,
    "longitude": -117.2701364,
    "Phone": "858-755-2599",
    "Website": "http://www.chiefsburgersandbrew.com/"
  },
  {
    "Teams": "ncaabarmy;ncaafarmy;ncaabtcu;ncaaftcu",
    "Name": "Crust Pizzeria",
    "Address": "124 S Solana Hills Dr, Solana Beach, CA 92075",
    "City": "LA",
    "State": "CA",
    "latitude": 32.9954669,
    "longitude": -117.257814,
    "Phone": "858-356-9925",
    "Website": "http://www.crustpizzeriasb.com/"
  },
  {
    "Teams": "mlslafc;mlspor",
    "Name": "The Fox and Hounds",
    "Address": "11100 Ventura Blvd, Studio City, CA 91604",
    "City": "LA",
    "State": "CA",
    "latitude": 34.141053,
    "longitude": -118.37228,
    "Phone": "818-763-7837",
    "Website": "http://www.thefoxandhounds.com/"
  },
  {
    "Teams": "ncaabfsu;ncaaffsu;nflkc;ncaabtamu;ncaaftamu;ncaabusc;ncaafusc",
    "Name": "Jalapeno Pete's",
    "Address": "11618 Ventura Blvd, Studio City, CA 91604",
    "City": "LA",
    "State": "CA",
    "latitude": 34.140282,
    "longitude": -118.3853349,
    "Phone": "818-579-4264",
    "Website": "https://www.jalapenopetesla.com/"
  },
  {
    "Teams": "mlblad",
    "Name": "Laurel Tavern",
    "Address": "11938 Ventura Blvd, Studio City, CA 91604",
    "City": "LA",
    "State": "CA",
    "latitude": 34.143106,
    "longitude": -118.392053,
    "Phone": "818-506-0777",
    "Website": "http://www.laureltavern.com/"
  },
  {
    "Teams": "ncaabuf;ncaafuf;mlblad;ncaabball;ncaafball",
    "Name": "Rocco's Tavern",
    "Address": "12514 Ventura Blvd, Studio City, CA 91604",
    "City": "LA",
    "State": "CA",
    "latitude": 34.1426226,
    "longitude": -118.4057873,
    "Phone": "818-985-9876",
    "Website": "http://www.roccostavern.com/"
  },
  {
    "Teams": "ncaabuw;ncaafuw",
    "Name": "Timmy Nolan's Tavern & Grill",
    "Address": "10111 Riverside Dr, Toluca Lake, CA 91602",
    "City": "LA",
    "State": "CA",
    "latitude": 34.1523538,
    "longitude": -118.351051,
    "Phone": "818-985-3359",
    "Website": "http://timmynolans.net/"
  },
  {
    "Teams": "mlslag",
    "Name": "Yorkshire Square Brewery",
    "Address": "1109 Van Ness Ave, Torrance, CA 90501",
    "City": "LA",
    "State": "CA",
    "latitude": 33.8370359,
    "longitude": -118.3163623,
    "Phone": "424-376-5115",
    "Website": "http://yorkshiresquarebrewery.com/"
  },
  {
    "Teams": "mlblad",
    "Name": "Tortilla Cantina",
    "Address": "1225 El Prado Ave, Torrance, CA 90501",
    "City": "LA",
    "State": "CA",
    "latitude": 33.83535,
    "longitude": -118.3157256,
    "Phone": "310-533-9606",
    "Website": "http://www.tortillacantina.com/"
  },
  {
    "Teams": "mlblad",
    "Name": "Red Car",
    "Address": "1266 Sartori Ave, Torrance, CA 90501",
    "City": "LA",
    "State": "CA",
    "latitude": 33.8357074,
    "longitude": -118.3160403,
    "Phone": "310-782-0222",
    "Website": "http://redcarbrewery.com/"
  },
  {
    "Teams": "ncaabpsu;ncaafpsu",
    "Name": "The Crest Sports Bar & Grill",
    "Address": "1625 Cabrillo Ave, Torrance, CA 90501",
    "City": "LA",
    "State": "CA",
    "latitude": 33.8322487,
    "longitude": -118.3147372,
    "Phone": "310-320-9347",
    "Website": "http://thecrestsportsbarandgrill.com/"
  },
  {
    "Teams": "nflsf",
    "Name": "Bowlero Torrance",
    "Address": "21915 S Western Ave, Torrance, CA 90501",
    "City": "LA",
    "State": "CA",
    "latitude": 33.828509,
    "longitude": -118.309796,
    "Phone": "310-328-3700",
    "Website": "https://www.bowlero.com/location/bowlero-torrance"
  },
  {
    "Teams": "mlslag",
    "Name": "Strand Brewing Co",
    "Address": "2201 Dominguez St, Torrance, CA 90501",
    "City": "LA",
    "State": "CA",
    "latitude": 33.8413501,
    "longitude": -118.3214181,
    "Phone": "310-517-0900",
    "Website": "http://www.strandbrewing.com/"
  },
  {
    "Teams": "nhllak;ncaablsu;ncaaflsu",
    "Name": "Torrance Tavern",
    "Address": "22735 Hawthorne Blvd, Torrance, CA 90505",
    "City": "LA",
    "State": "CA",
    "latitude": 33.8211652,
    "longitude": -118.3517029,
    "Phone": "310-375-9158",
    "Website": "https://www.torrancetavern.com/"
  },
  {
    "Teams": "mlblad",
    "Name": "Lamppost Pizza",
    "Address": "2955 Rolling Hills Rd, Torrance, CA 90505",
    "City": "LA",
    "State": "CA",
    "latitude": 33.790699,
    "longitude": -118.341303,
    "Phone": "310-325-4864",
    "Website": "http://www.lampostpizzatorrance.com/"
  },
  {
    "Teams": "ncaabstan;ncaafstan",
    "Name": "Sports Harbour",
    "Address": "5150 W 190th St, Torrance, CA 90503",
    "City": "LA",
    "State": "CA",
    "latitude": 33.8577002,
    "longitude": -118.3674236,
    "Phone": "424-383-1286",
    "Website": ""
  },
  {
    "Teams": "mlslag",
    "Name": "Alpine Village",
    "Address": "833 W Torrance Blvd, Torrance, CA 90502",
    "City": "LA",
    "State": "CA",
    "latitude": 33.842159,
    "longitude": -118.2889967,
    "Phone": "310-327-4384",
    "Website": "http://www.alpinevillagecenter.com/"
  },
  {
    "Teams": "mlblad;nflnyg",
    "Name": "Pat's Cocktail Lounge",
    "Address": "12121 Riverside Dr, Valley Village, CA 91607",
    "City": "LA",
    "State": "CA",
    "latitude": 34.1578319,
    "longitude": -118.3973007,
    "Phone": "818-761-7340",
    "Website": "http://www.patscocktailslounge.com/"
  },
  {
    "Teams": "mlslafc;ncaabusc;ncaafusc",
    "Name": "The Thirsty Merchant",
    "Address": "12430 Riverside Dr #3510, Valley Village, CA 91607",
    "City": "LA",
    "State": "CA",
    "latitude": 34.1573692,
    "longitude": -118.404018,
    "Phone": "818-821-1169",
    "Website": "http://thethirstymerchant.com/"
  },
  {
    "Teams": "nflkc",
    "Name": "The Venice Whaler",
    "Address": "10 Washington Blvd, Venice, CA 90292",
    "City": "LA",
    "State": "CA",
    "latitude": 33.978979,
    "longitude": -118.466594,
    "Phone": "310-821-8737",
    "Website": "http://www.venicewhaler.com/"
  },
  {
    "Teams": "nflden",
    "Name": "On the Waterfront Cafe",
    "Address": "205 Ocean Front Walk, Venice, CA 90291",
    "City": "LA",
    "State": "CA",
    "latitude": 33.9951088,
    "longitude": -118.4805465,
    "Phone": "310-392-0322",
    "Website": "http://www.waterfrontcafe.com/"
  },
  {
    "Teams": "mlblad;ncaabucla;ncaafucla",
    "Name": "Cronies Sports Grill",
    "Address": "2855 Johnson Dr, Ventura, CA 93003",
    "City": "LA",
    "State": "CA",
    "latitude": 34.2484965,
    "longitude": -119.1970685,
    "Phone": "805-650-6026",
    "Website": "http://www.cronies.com/"
  },
  {
    "Teams": "ncaabusc;ncaafusc",
    "Name": "Anacapa Brewing Company",
    "Address": "472 E Main St, Ventura, CA 93001",
    "City": "LA",
    "State": "CA",
    "latitude": 34.2806759,
    "longitude": -119.2935844,
    "Phone": "805-643-2337",
    "Website": "http://anacapabrewing.com/"
  },
  {
    "Teams": "mlblad",
    "Name": "Anna's Pizza",
    "Address": "1240 Lakes Dr, West Covina, CA 91790",
    "City": "LA",
    "State": "CA",
    "latitude": 34.0707414,
    "longitude": -117.9227828,
    "Phone": "626-918-5929",
    "Website": "http://www.annaspizzas.com/"
  },
  {
    "Teams": "mlblad",
    "Name": "399 Pizza Co.",
    "Address": "2435 S Azusa Ave, West Covina, CA 91792",
    "City": "LA",
    "State": "CA",
    "latitude": 34.0325779,
    "longitude": -117.9157153,
    "Phone": "626-854-8484",
    "Website": "http://399pizzaco.com/"
  },
  {
    "Teams": "mlblad;ncaabuw;ncaafuw",
    "Name": "West Hills Pizza Company",
    "Address": "7543 Fallbrook Ave, West Hills, CA 91307",
    "City": "LA",
    "State": "CA",
    "latitude": 34.2076531,
    "longitude": -118.6236573,
    "Phone": "818-347-4992",
    "Website": "http://westhillspizza.com/"
  },
  {
    "Teams": "ncaabbay;ncaafbay",
    "Name": "The Naughty Pig",
    "Address": "8264 Sunset Blvd, West Hollywood, CA 90046",
    "City": "LA",
    "State": "CA",
    "latitude": 34.096737,
    "longitude": -118.3694547,
    "Phone": "323-450-9478",
    "Website": "http://thenaughtypig.com/"
  },
  {
    "Teams": "mlblad",
    "Name": "Cabo Cantina",
    "Address": "8301 Sunset Blvd, West Hollywood, CA 90069",
    "City": "LA",
    "State": "CA",
    "latitude": 34.0965994,
    "longitude": -118.3705157,
    "Phone": "323-822-7820",
    "Website": "http://www.cabocantina.com/"
  },
  {
    "Teams": "ncaabasu;ncaafasu;ncaabfiu;ncaaffiu;ncaabhou;ncaafhou;nflhou;mlblad;nbalal;ncaabmia;ncaafmia",
    "Name": "Barney's Beanery",
    "Address": "8447 Santa Monica Blvd, West Hollywood, CA 90069",
    "City": "LA",
    "State": "CA",
    "latitude": 34.0908597,
    "longitude": -118.3746307,
    "Phone": "323-654-2287",
    "Website": "http://www.barneysbeanery.com/"
  },
  {
    "Teams": "ncaabbama;ncaafbama;ncaabcle;ncaafcle;mlblad;nbalal",
    "Name": "Rock & Reilly's Irish Pub",
    "Address": "8911 Sunset Blvd, West Hollywood, CA 90069",
    "City": "LA",
    "State": "CA",
    "latitude": 34.090853,
    "longitude": -118.3859333,
    "Phone": "310-360-1400",
    "Website": "http://rockandreillys.com/"
  },
  {
    "Teams": "mlslafc",
    "Name": "Hi Tops",
    "Address": "8933 Santa Monica Blvd, West Hollywood, CA 90069",
    "City": "LA",
    "State": "CA",
    "latitude": 34.0845069,
    "longitude": -118.3852114,
    "Phone": "",
    "Website": "http://www.hitopsla.com/"
  },
  {
    "Teams": "ncaabusc;ncaafusc",
    "Name": "Westlake Brewing & Libations",
    "Address": "31111 Via Colinas #202, Westlake Village, CA 91362",
    "City": "LA",
    "State": "CA",
    "latitude": 34.1539111,
    "longitude": -118.8024726,
    "Phone": "747-222-7231",
    "Website": "http://westlakebrewingcompany.com/"
  },
  {
    "Teams": "mlblad",
    "Name": "Embers Lounge",
    "Address": "11332 Washington Blvd, Whittier, CA 90606",
    "City": "LA",
    "State": "CA",
    "latitude": 33.9712154,
    "longitude": -118.0698576,
    "Phone": "562-699-4138",
    "Website": ""
  },
  {
    "Teams": "ncaabucla;ncaafucla",
    "Name": "GRUB BURGER BAR",
    "Address": "13815 Whittier Blvd, Whittier, CA 90605",
    "City": "LA",
    "State": "CA",
    "latitude": 33.9602128,
    "longitude": -118.0269236,
    "Phone": "562-781-7878",
    "Website": "https://grubburgerbar.com/stores/whittier/"
  },
  {
    "Teams": "nfldal",
    "Name": "Sage Restaurant & Lounge",
    "Address": "6511 Greenleaf Ave, Whittier, CA 90601",
    "City": "LA",
    "State": "CA",
    "latitude": 33.9823501,
    "longitude": -118.0375206,
    "Phone": "562-325-0049",
    "Website": "http://sagewhittier.com/"
  },
  {
    "Teams": "ncaabnd;ncaafnd",
    "Name": "Turnbull's Tavern",
    "Address": "7011 Greenleaf Ave, Whittier, CA 90602",
    "City": "LA",
    "State": "CA",
    "latitude": 33.9786866,
    "longitude": -118.0376532,
    "Phone": "562-693-7773",
    "Website": "https://facebook.com/Turnbulls-Tavern-139981203228291"
  },
  {
    "Teams": "mlblad",
    "Name": "Poor Denny's Saloon",
    "Address": "8020 Boer Ave, Whittier, CA 90606",
    "City": "LA",
    "State": "CA",
    "latitude": 33.9711593,
    "longitude": -118.071797,
    "Phone": "562-695-4090",
    "Website": ""
  },
  {
    "Teams": "mlblad",
    "Name": "Crazy Harry's Bar",
    "Address": "20112 Saticoy St, Winnetka, CA 91306",
    "City": "LA",
    "State": "CA",
    "latitude": 34.208188,
    "longitude": -118.571555,
    "Phone": "",
    "Website": "http://locallosers.org/"
  },
  {
    "Teams": "mlblad;nflpit",
    "Name": "Beers N Wings",
    "Address": "20141 Roscoe Blvd, Winnetka, CA 91306",
    "City": "LA",
    "State": "CA",
    "latitude": 34.2210499,
    "longitude": -118.5724691,
    "Phone": "818-678-9470",
    "Website": "http://beersnwings.com/"
  },
  {
    "Teams": "ncaabosu;ncaafosu",
    "Name": "HQ Gastropub",
    "Address": "20969 Ventura Blvd, Woodland Hills, CA 91364",
    "City": "LA",
    "State": "CA",
    "latitude": 34.166901,
    "longitude": -118.5905232,
    "Phone": "818-887-2337",
    "Website": "http://hqgastropub.com/"
  },
  {
    "Teams": "nflgb",
    "Name": "Pickwick's Pub",
    "Address": "21010 Ventura Blvd, Woodland Hills, CA 91364",
    "City": "LA",
    "State": "CA",
    "latitude": 34.1665364,
    "longitude": -118.5913109,
    "Phone": "818-340-9673",
    "Website": "http://www.pickwickpub.com/"
  },
  {
    "Teams": "ncaabariz;ncaafariz",
    "Name": "Tipsy Cow",
    "Address": "21028 Ventura Blvd, Woodland Hills, CA 91364",
    "City": "LA",
    "State": "CA",
    "latitude": 34.1665109,
    "longitude": -118.5916687,
    "Phone": "818-914-5451",
    "Website": "http://www.tipsycowla.com/"
  },
  {
    "Teams": "mlblad;nfllar;ncaabosu;ncaafosu",
    "Name": "Dirty Bull Tavern",
    "Address": "21797 Ventura Blvd, Woodland Hills, CA 91364",
    "City": "LA",
    "State": "CA",
    "latitude": 34.1696404,
    "longitude": -118.6022484,
    "Phone": "818-610-8308",
    "Website": "http://www.dirtybulltavern.com/"
  }
]