[
  {
    "Teams": "ncaabfau;ncaaffau;ncaabind;ncaafind;ncaabmia;ncaafmia;ncaabwvu;ncaafwvu",
    "Name": "Miller's Ale House - East Boca",
    "Address": "1200 Yamato Rd, Boca Raton, FL 33431",
    "City": "MIA",
    "State": "FL",
    "latitude": 26.393253,
    "longitude": -80.112011,
    "Phone": "561-988-9142",
    "Website": "https://millersalehouse.com/locations/east-boca/"
  },
  {
    "Teams": "nhlfla;ncaabcle;ncaafcle",
    "Name": "Hijinks Sports Bar & Grill",
    "Address": "133 SE Mizner Blvd, Boca Raton, FL 33432",
    "City": "MIA",
    "State": "FL",
    "latitude": 26.3484383,
    "longitude": -80.0845731,
    "Phone": "561-465-3077",
    "Website": "http://www.hijinkssportsgrill.com/menu/"
  },
  {
    "Teams": "nflcar;nhlfla;nflwas",
    "Name": "Irishmen",
    "Address": "1745 NW Boca Raton Blvd, Boca Raton, FL 33432",
    "City": "MIA",
    "State": "FL",
    "latitude": 26.3657884,
    "longitude": -80.0905894,
    "Phone": "561-368-1129",
    "Website": "http://irishmenpub.com/"
  },
  {
    "Teams": "ncaabcmu;ncaafcmu;ncaabcle;ncaafcle;ncaabfau;ncaaffau;ncaabminn;ncaafminn;ncaabnd;ncaafnd;ncaabtem;ncaaftem;ncaabtuln;ncaaftuln",
    "Name": "Duffy's Sports Grill",
    "Address": "21212 St Andrews Blvd, Boca Raton, FL 33433",
    "City": "MIA",
    "State": "FL",
    "latitude": 26.3617316,
    "longitude": -80.1366311,
    "Phone": "561-869-0552",
    "Website": "https://www.duffysmvp.com/"
  },
  {
    "Teams": "ncaabneb;ncaafneb",
    "Name": "Our Place",
    "Address": "2901 N Federal Hwy, Boca Raton, FL 33431",
    "City": "MIA",
    "State": "FL",
    "latitude": 26.3779492,
    "longitude": -80.0766769,
    "Phone": "561-750-9745",
    "Website": "http://www.ourplacebocaraton.com/"
  },
  {
    "Teams": "ncaabmia;ncaafmia",
    "Name": "Biergarten",
    "Address": "309 Via De Palmas #90, Boca Raton, FL 33432",
    "City": "MIA",
    "State": "FL",
    "latitude": 26.3463761,
    "longitude": -80.0859392,
    "Phone": "561-395-7462",
    "Website": "http://www.biergartenboca.com/"
  },
  {
    "Teams": "nhlfla",
    "Name": "Whistle Stop",
    "Address": "395 NE Spanish River Blvd, Boca Raton, FL 33431",
    "City": "MIA",
    "State": "FL",
    "latitude": 26.3867412,
    "longitude": -80.0802576,
    "Phone": "561-750-7867",
    "Website": "http://www.whistlestoppublichouse.com/"
  },
  {
    "Teams": "ncaabuk;ncaafuk",
    "Name": "Johnny Malloys",
    "Address": "10347 Bonita Beach Rd SE #101, Bonita Springs, FL 34135",
    "City": "MIA",
    "State": "FL",
    "latitude": 26.3305427,
    "longitude": -81.7801445,
    "Phone": "239-992-5000",
    "Website": "http://www.johnnymalloysflorida.com/"
  },
  {
    "Teams": "nflbuf",
    "Name": "Buffalo Chips Restaurant",
    "Address": "26620 Old 41 Rd, Bonita Springs, FL 34135",
    "City": "MIA",
    "State": "FL",
    "latitude": 26.3502275,
    "longitude": -81.7793754,
    "Phone": "239-947-1000",
    "Website": "http://www.buffalochipsrestaurant.tv/"
  },
  {
    "Teams": "mlbchc",
    "Name": "Doc's Beach House",
    "Address": "27908 Hickory Blvd, Bonita Springs, FL 34134",
    "City": "MIA",
    "State": "FL",
    "latitude": 26.3319338,
    "longitude": -81.8459196,
    "Phone": "239-992-6444",
    "Website": "http://www.docsbeachhouse.com/"
  },
  {
    "Teams": "ncaabosu;ncaafosu",
    "Name": "Bru's Room Sports Grill",
    "Address": "1333 N Congress Ave, Boynton Beach, FL 33426",
    "City": "MIA",
    "State": "FL",
    "latitude": 26.5386753,
    "longitude": -80.0913119,
    "Phone": "561-739-9332",
    "Website": "http://www.brusroom.com/"
  },
  {
    "Teams": "ncaabusf;ncaafusf",
    "Name": "Buffalo Wild Wings",
    "Address": "1401 N Congress Ave, Boynton Beach, FL 33426",
    "City": "MIA",
    "State": "FL",
    "latitude": 26.5399736,
    "longitude": -80.0912239,
    "Phone": "561-736-8697",
    "Website": "https://buffalowildwings.com/en"
  },
  {
    "Teams": "ncaabmich;ncaafmich",
    "Name": "Bar Louie",
    "Address": "1500 Gateway Blvd Ste 100, Boynton Beach, FL 33426",
    "City": "MIA",
    "State": "FL",
    "latitude": 26.5455538,
    "longitude": -80.0880376,
    "Phone": "561-853-0090",
    "Website": "http://barlouie.com/locations/states/florida/boynton-beach"
  },
  {
    "Teams": "nflsf",
    "Name": "Miller's Ale House - Boynton",
    "Address": "2212 N Congress Ave, Boynton Beach, FL 33426",
    "City": "MIA",
    "State": "FL",
    "latitude": 26.5472713,
    "longitude": -80.0887348,
    "Phone": "561-735-0591",
    "Website": "https://millersalehouse.com/locations/boynton/"
  },
  {
    "Teams": "nhlfla;nflsf",
    "Name": "Carolina Ale House",
    "Address": "365 N Congress Ave, Boynton Beach, FL 33426",
    "City": "MIA",
    "State": "FL",
    "latitude": 26.5297577,
    "longitude": -80.0910838,
    "Phone": "561-735-7848",
    "Website": "http://www.carolinaalehouse.com/"
  },
  {
    "Teams": "nflbuf",
    "Name": "Duffy's Sports Grill",
    "Address": "4746 N Congress Ave, Boynton Beach, FL 33426",
    "City": "MIA",
    "State": "FL",
    "latitude": 26.570549,
    "longitude": -80.088283,
    "Phone": "561-963-3234",
    "Website": "https://www.duffysmvp.com/"
  },
  {
    "Teams": "ncaabmich;ncaafmich",
    "Name": "The Brass Tap",
    "Address": "950 N Congress Ave, Boynton Beach, FL 33426",
    "City": "MIA",
    "State": "FL",
    "latitude": 26.536038,
    "longitude": -80.0897919,
    "Phone": "561-413-3782",
    "Website": "http://www.thebrasstap.com/boyntonbeach"
  },
  {
    "Teams": "nflgb",
    "Name": "Mr. Brew's Taphouse",
    "Address": "2384 Surfside Blvd suite a-101, Cape Coral, FL 33991",
    "City": "MIA",
    "State": "FL",
    "latitude": 26.60766,
    "longitude": -82.025933,
    "Phone": "239-558-5001",
    "Website": "http://www.mrbrewstaphousecapecoral.com/"
  },
  {
    "Teams": "nflbal",
    "Name": "FINS Seafood & Dive Bar",
    "Address": "3422 Del Prado Blvd S, Cape Coral, FL 33904",
    "City": "MIA",
    "State": "FL",
    "latitude": 26.5877829,
    "longitude": -81.9422456,
    "Phone": "239-984-5449",
    "Website": "http://www.finsdivebar.com/"
  },
  {
    "Teams": "nhlfla",
    "Name": "BRGR STOP",
    "Address": "4301 Coconut Creek Pkwy, Coconut Creek, FL 33066",
    "City": "MIA",
    "State": "FL",
    "latitude": 26.2451661,
    "longitude": -80.1822017,
    "Phone": "954-975-8459",
    "Website": "http://www.brgrstop.com/"
  },
  {
    "Teams": "ncaabvu",
    "Name": "Duffy's Sports Grill",
    "Address": "4800 W Hillsboro Blvd, Coconut Creek, FL 33073",
    "City": "MIA",
    "State": "FL",
    "latitude": 26.317024,
    "longitude": -80.1892809,
    "Phone": "954-422-9789",
    "Website": "https://www.duffysmvp.com/"
  },
  {
    "Teams": "nflmia;ncaabpur;ncaafpur;ncaabsyr;ncaafsyr",
    "Name": "Bru's Room Sports Grill - Coconut Creek",
    "Address": "5460 W Hillsboro Blvd, Coconut Creek, FL 33073",
    "City": "MIA",
    "State": "FL",
    "latitude": 26.3168221,
    "longitude": -80.1992024,
    "Phone": "954-571-6999",
    "Website": "https://brusroom.com/locations/coconut-creek/"
  },
  {
    "Teams": "ncaabfiu;ncaaffiu",
    "Name": "Wings in Cooper City",
    "Address": "10006 Griffin Rd, Cooper City, FL 33328",
    "City": "MIA",
    "State": "FL",
    "latitude": 26.0630499,
    "longitude": -80.2806034,
    "Phone": "954-434-7255",
    "Website": "http://www.wingsincoopercity.com/"
  },
  {
    "Teams": "ncaabusf;ncaafusf",
    "Name": "Miller's Ale House - Coral Gables",
    "Address": "101 Miracle Mile, Coral Gables, FL 33134",
    "City": "MIA",
    "State": "FL",
    "latitude": 25.7498707,
    "longitude": -80.2568395,
    "Phone": "305-444-3600",
    "Website": "https://millersalehouse.com/locations/coral-gables/"
  },
  {
    "Teams": "ncaabmia;ncaafmia",
    "Name": "Rathskeller",
    "Address": "1330 Miller Dr, Coral Gables, FL 33146",
    "City": "MIA",
    "State": "FL",
    "latitude": 25.7193063,
    "longitude": -80.2797522,
    "Phone": "305-284-6310",
    "Website": "http://rathskeller.studentaffairs.miami.edu/"
  },
  {
    "Teams": "ncaabbama;ncaafbama",
    "Name": "77 Sportbar",
    "Address": "180 Giralda Ave, Coral Gables, FL 33134",
    "City": "MIA",
    "State": "FL",
    "latitude": 25.751186,
    "longitude": -80.258551,
    "Phone": "305-735-1477",
    "Website": "http://77sportbar.godaddysites.com/"
  },
  {
    "Teams": "ncaabucf;ncaafucf",
    "Name": "The Globe",
    "Address": "377 Alhambra Cir, Coral Gables, FL 33134",
    "City": "MIA",
    "State": "FL",
    "latitude": 25.752072,
    "longitude": -80.2623,
    "Phone": "305-445-3555",
    "Website": "http://theglobecafe.com/"
  },
  {
    "Teams": "ncaabosu;ncaafosu;ncaabou;ncaafou",
    "Name": "Bru's Room Sports Grill",
    "Address": "1000 N University Dr, Coral Springs, FL 33071",
    "City": "MIA",
    "State": "FL",
    "latitude": 26.2438734,
    "longitude": -80.2542733,
    "Phone": "954-656-8041",
    "Website": "http://brusroom.com/locations/coral-springs/"
  },
  {
    "Teams": "nhlfla",
    "Name": "Wings Plus",
    "Address": "1235 N University Dr, Coral Springs, FL 33071",
    "City": "MIA",
    "State": "FL",
    "latitude": 26.2444565,
    "longitude": -80.2515165,
    "Phone": "954-757-4950",
    "Website": "http://www.wingsplus.com/"
  },
  {
    "Teams": "nhlfla",
    "Name": "Panthers Point Bar & Grill",
    "Address": "3299 Sportsplex Dr, Coral Springs, FL 33065",
    "City": "MIA",
    "State": "FL",
    "latitude": 26.2707802,
    "longitude": -80.2921935,
    "Phone": "954-341-9956",
    "Website": "http://panthersiceden.com/panthers-point.html"
  },
  {
    "Teams": "nhlfla",
    "Name": "Lefty's Tavern & Grille",
    "Address": "5771 Coral Ridge Dr, Coral Springs, FL 33076",
    "City": "MIA",
    "State": "FL",
    "latitude": 26.3007489,
    "longitude": -80.2779185,
    "Phone": "954-752-3525",
    "Website": "http://leftystaverncoralsprings.com/"
  },
  {
    "Teams": "ncaabbc;ncaafbc",
    "Name": "Hurricane Grill & Wings",
    "Address": "6240 Coral Ridge Dr, Coral Springs, FL 33076",
    "City": "MIA",
    "State": "FL",
    "latitude": 26.307522,
    "longitude": -80.2804709,
    "Phone": "954-346-3535",
    "Website": "http://www.hurricanewings.com/"
  },
  {
    "Teams": "ncaabtenn;ncaaftenn",
    "Name": "Shenanigans East Side Pub and Barbecue",
    "Address": "1300 S Federal Hwy, Dania Beach, FL 33004",
    "City": "MIA",
    "State": "FL",
    "latitude": 26.036194,
    "longitude": -80.143579,
    "Phone": "954-923-3008",
    "Website": "http://shenaniganseastsidepub.com/"
  },
  {
    "Teams": "ncaabuf;ncaafuf",
    "Name": "Twin Peaks Davie",
    "Address": "2000 S University Dr, Davie, FL 33317",
    "City": "MIA",
    "State": "FL",
    "latitude": 26.0954847,
    "longitude": -80.2502735,
    "Phone": "954-306-6191",
    "Website": "https://twinpeaksrestaurant.com/locations/davie-fl"
  },
  {
    "Teams": "nhlfla;ncaabmia;ncaafmia;ncaabwvu;ncaafwvu",
    "Name": "Miller's Ale House - Davie",
    "Address": "2080 S University Dr, Davie, FL 33324",
    "City": "MIA",
    "State": "FL",
    "latitude": 26.094852,
    "longitude": -80.250313,
    "Phone": "954-236-0062",
    "Website": "https://millersalehouse.com/locations/davie/"
  },
  {
    "Teams": "nhlfla",
    "Name": "Ye Olde Falcon Pub",
    "Address": "2867 S University Dr, Davie, FL 33328",
    "City": "MIA",
    "State": "FL",
    "latitude": 26.0849144,
    "longitude": -80.2517333,
    "Phone": "954-424-0300",
    "Website": "http://www.yeoldefalconpub.com/"
  },
  {
    "Teams": "nflnyj",
    "Name": "Wunderbar Sports Bar & Grill",
    "Address": "4995 SW 148th Ave, Davie, FL 33331",
    "City": "MIA",
    "State": "FL",
    "latitude": 26.059163,
    "longitude": -80.346956,
    "Phone": "954-530-9215",
    "Website": "http://wunderbarsportsbar.com/"
  },
  {
    "Teams": "nflpit",
    "Name": "Billy's Tavern",
    "Address": "8580 W State Rd 84, Davie, FL 33324",
    "City": "MIA",
    "State": "FL",
    "latitude": 26.1013253,
    "longitude": -80.2629482,
    "Phone": "954-475-9464",
    "Website": "http://billystaverndavie.com/"
  },
  {
    "Teams": "ncaabusc;ncaafusc",
    "Name": "Buffalo Wild Wings",
    "Address": "1219 S Federal Hwy, Deerfield Beach, FL 33441",
    "City": "MIA",
    "State": "FL",
    "latitude": 26.3018628,
    "longitude": -80.0939137,
    "Phone": "954-570-0405",
    "Website": "http://buffalowildwings.com/"
  },
  {
    "Teams": "nhlbos;mlbbos;nflne",
    "Name": "Cabin Sports Bar",
    "Address": "154 N Federal Hwy, Deerfield Beach, FL 33441",
    "City": "MIA",
    "State": "FL",
    "latitude": 26.320046,
    "longitude": -80.0901509,
    "Phone": "954-428-6438",
    "Website": ""
  },
  {
    "Teams": "ncaabvt;ncaafvt",
    "Name": "Two Georges at The Cove Restaurant & Marina",
    "Address": "1754 SE 3rd Ct, Deerfield Beach, FL 33441",
    "City": "MIA",
    "State": "FL",
    "latitude": 26.313601,
    "longitude": -80.081628,
    "Phone": "954-421-9272",
    "Website": "http://www.twogeorgesrestaurant.com/thecove/"
  },
  {
    "Teams": "ncaabaub;ncaafaub;nflmin",
    "Name": "Tailgators Sports Bar and Grille",
    "Address": "1825 W Hillsboro Blvd, Deerfield Beach, FL 33442",
    "City": "MIA",
    "State": "FL",
    "latitude": 26.3188576,
    "longitude": -80.1290576,
    "Phone": "954-420-9787",
    "Website": "https://tailgatorssportsbargrille.com/"
  },
  {
    "Teams": "nfljax",
    "Name": "JByrd's Muddy Waters Restaurant & Raw Bar",
    "Address": "2237 W Hillsboro Blvd, Deerfield Beach, FL 33442",
    "City": "MIA",
    "State": "FL",
    "latitude": 26.31823,
    "longitude": -80.133882,
    "Phone": "954-428-6577",
    "Website": "http://muddywatersrestaurant.com/"
  },
  {
    "Teams": "ncaabaub;ncaafaub;ncaabcle;ncaafcle;nflmin",
    "Name": "Duffy's Sports Grill",
    "Address": "401 N Federal Hwy, Deerfield Beach, FL 33441",
    "City": "MIA",
    "State": "FL",
    "latitude": 26.3228643,
    "longitude": -80.0913942,
    "Phone": "954-429-8820",
    "Website": "https://www.duffysmvp.com/"
  },
  {
    "Teams": "ncaabumd;ncaafumd",
    "Name": "Turtle Tavern",
    "Address": "14414 S Military Trail, Delray Beach, FL 33484",
    "City": "MIA",
    "State": "FL",
    "latitude": 26.4631572,
    "longitude": -80.1216166,
    "Phone": "561-865-1444",
    "Website": "http://turtletaverndelray.com/"
  },
  {
    "Teams": "ncaabwis;ncaafwis",
    "Name": "Beer Trade Co",
    "Address": "145 Northeast 4th Avenue #561-808-7304, Delray Beach, FL 33483",
    "City": "MIA",
    "State": "FL",
    "latitude": 26.464326,
    "longitude": -80.068874,
    "Phone": "561-808-7304",
    "Website": "https://www.facebook.com/beertradecompany"
  },
  {
    "Teams": "nflcar;ncaabuf;ncaafuf",
    "Name": "Batch Gastropub",
    "Address": "14813 Lyons Rd, Delray Beach, FL 33446",
    "City": "MIA",
    "State": "FL",
    "latitude": 26.4564613,
    "longitude": -80.1892937,
    "Phone": "561-877-0000",
    "Website": "http://www.batchgastropub.com/delray/"
  },
  {
    "Teams": "nhlfla",
    "Name": "SaltWater Brewery",
    "Address": "1566, 1701 W Atlantic Ave, Delray Beach, FL 33444",
    "City": "MIA",
    "State": "FL",
    "latitude": 26.4618771,
    "longitude": -80.0913603,
    "Phone": "561-865-5373",
    "Website": "http://www.saltwaterbrewery.com/"
  },
  {
    "Teams": "ncaabuconn;ncaafuconn",
    "Name": "Duffy's Sports Grill",
    "Address": "1750 S Federal Hwy, Delray Beach, FL 33483",
    "City": "MIA",
    "State": "FL",
    "latitude": 26.4403058,
    "longitude": -80.0715925,
    "Phone": "561-276-3332",
    "Website": "https://www.duffysmvp.com/"
  },
  {
    "Teams": "ncaabfsu;ncaaffsu",
    "Name": "Mellow Mushroom",
    "Address": "25 SE 6th Ave, Delray Beach, FL 33483",
    "City": "MIA",
    "State": "FL",
    "latitude": 26.461168,
    "longitude": -80.066851,
    "Phone": "561-330-3040",
    "Website": "http://mellowmushroom.com/store/fl-delray-beach-25-se-6th-ave-33483/"
  },
  {
    "Teams": "nflbal;ncaabsyr;ncaafsyr",
    "Name": "Bru's Room Sports Grill - Delray Beach",
    "Address": "35 NE 2nd Ave, Delray Beach, FL 33444",
    "City": "MIA",
    "State": "FL",
    "latitude": 26.4622625,
    "longitude": -80.0704351,
    "Phone": "561-276-3663",
    "Website": "https://brusroom.com/locations/delray-beach/"
  },
  {
    "Teams": "nhlbos;mlbbos;nflne",
    "Name": "Boston's on the Beach",
    "Address": "40 S Ocean Blvd, Delray Beach, FL 33483",
    "City": "MIA",
    "State": "FL",
    "latitude": 26.4609097,
    "longitude": -80.0587275,
    "Phone": "561-278-3364",
    "Website": "http://www.bostonsonthebeach.com/"
  },
  {
    "Teams": "nflphi",
    "Name": "Hurricane Bar and Lounge",
    "Address": "640 E Atlantic Ave, Delray Beach, FL 33483",
    "City": "MIA",
    "State": "FL",
    "latitude": 26.461195,
    "longitude": -80.066255,
    "Phone": "561-278-0282",
    "Website": "https://m.facebook.com/hurricaneloungedelray/"
  },
  {
    "Teams": "nhlfla;ncaabfsu;ncaaffsu",
    "Name": "Carolina Ale House",
    "Address": "8669 NW 36th St, Doral, FL 33166",
    "City": "MIA",
    "State": "FL",
    "latitude": 25.8108915,
    "longitude": -80.3365065,
    "Phone": "786-401-6650",
    "Website": "http://www.carolinaalehouse.com/"
  },
  {
    "Teams": "ncaabcle;ncaafcle",
    "Name": "Ford's Garage",
    "Address": "10801 Corkscrew Rd Suite 519, Estero, FL 33928",
    "City": "MIA",
    "State": "FL",
    "latitude": 26.4384135,
    "longitude": -81.7724984,
    "Phone": "239-495-3673",
    "Website": "https://www.fordsgarageusa.com/locations/estero/"
  },
  {
    "Teams": "ncaabaub;ncaafaub;ncaabou;ncaafou;ncaabtol;ncaaftol;ncaabucf;ncaafucf",
    "Name": "Duffy's Sports Grill",
    "Address": "21253 Stoneybrook Golf Blvd, Estero, FL 33928",
    "City": "MIA",
    "State": "FL",
    "latitude": 26.4355497,
    "longitude": -81.7686967,
    "Phone": "239-301-0944",
    "Website": "https://www.duffysmvp.com/"
  },
  {
    "Teams": "nhlfla;ncaabind;ncaafind;ncaabmia;ncaafmia",
    "Name": "Bokampers Sports Bar & Grill",
    "Address": "8001 Plaza del Lago Dr, Estero, FL 33928",
    "City": "MIA",
    "State": "FL",
    "latitude": 26.406778,
    "longitude": -81.80879,
    "Phone": "239-992-7611",
    "Website": "https://bokampers.com/estero/"
  },
  {
    "Teams": "ncaabuk;ncaafuk;ncaablou;ncaaflou;ncaabmia;ncaafmia;nflmin",
    "Name": "The DownTowner",
    "Address": "10 S New River Dr E, Fort Lauderdale, FL 33301",
    "City": "MIA",
    "State": "FL",
    "latitude": 26.1175054,
    "longitude": -80.1428939,
    "Phone": "954-463-9800",
    "Website": "http://downtownersaloon.com/"
  },
  {
    "Teams": "nhlfla;nhlfla",
    "Name": "America's Backyard",
    "Address": "100 SW 3rd Ave, Fort Lauderdale, FL 33312",
    "City": "MIA",
    "State": "FL",
    "latitude": 26.1211876,
    "longitude": -80.1462152,
    "Phone": "954-449-1025",
    "Website": "http://myamericasbackyard.com/"
  },
  {
    "Teams": "nhlfla",
    "Name": "B Square Burgers",
    "Address": "1021 E Las Olas Blvd, Fort Lauderdale, FL 33301",
    "City": "MIA",
    "State": "FL",
    "latitude": 26.119477,
    "longitude": -80.13236,
    "Phone": "954-999-5216",
    "Website": "http://bsquareburger.com/"
  },
  {
    "Teams": "ncaabuf;ncaafuf",
    "Name": "Quarterdeck Restaurants",
    "Address": "1035 SE 17th St, Fort Lauderdale, FL 33316",
    "City": "MIA",
    "State": "FL",
    "latitude": 26.101907,
    "longitude": -80.1325215,
    "Phone": "954-524-6163",
    "Website": "https://quarterdeckrestaurants.com/"
  },
  {
    "Teams": "nhlfla",
    "Name": "Stache Drinking Den + Coffee Bar",
    "Address": "109 SW 2nd Ave, Fort Lauderdale, FL 33301",
    "City": "MIA",
    "State": "FL",
    "latitude": 26.1212824,
    "longitude": -80.1457585,
    "Phone": "954-449-1025",
    "Website": "http://www.stacheftl.com/"
  },
  {
    "Teams": "mlbbos;nflne",
    "Name": "Kelly's Landing New England Seafood",
    "Address": "1305 SE 17th St, Fort Lauderdale, FL 33316",
    "City": "MIA",
    "State": "FL",
    "latitude": 26.1017307,
    "longitude": -80.1303379,
    "Phone": "954-760-7009",
    "Website": "http://www.kellyslanding.com/"
  },
  {
    "Teams": "nhlfla",
    "Name": "The Balcony",
    "Address": "1309 E Las Olas Blvd, Fort Lauderdale, FL 33301",
    "City": "MIA",
    "State": "FL",
    "latitude": 26.1196116,
    "longitude": -80.1295553,
    "Phone": "754-200-6344",
    "Website": "http://thebalconylasolas.com/"
  },
  {
    "Teams": "ncaabohio;ncaafohio",
    "Name": "Manor Lanes Bowling and Sports Den Pub",
    "Address": "1517 NE 26th St, Fort Lauderdale, FL 33305",
    "City": "MIA",
    "State": "FL",
    "latitude": 26.160055,
    "longitude": -80.12707,
    "Phone": "954-566-7457",
    "Website": "http://manorlanesfl.com/"
  },
  {
    "Teams": "ncaabcin;ncaafcin;nflmia;ncaabxu",
    "Name": "Duffy's Sports Grill",
    "Address": "1804 Cordova Rd, Fort Lauderdale, FL 33316",
    "City": "MIA",
    "State": "FL",
    "latitude": 26.0988157,
    "longitude": -80.1303983,
    "Phone": "954-713-6363",
    "Website": "https://www.duffysmvp.com/"
  },
  {
    "Teams": "ncaabduke;ncaafduke;ncaabfiu;ncaaffiu;nhlfla;ncaabucf;ncaafucf",
    "Name": "Himmarshee Public House",
    "Address": "201 SW 2nd St, Fort Lauderdale, FL 33301",
    "City": "MIA",
    "State": "FL",
    "latitude": 26.1207111,
    "longitude": -80.1458553,
    "Phone": "954-616-5275",
    "Website": "http://www.publichouseftl.com/"
  },
  {
    "Teams": "nhlfla",
    "Name": "TacoCraft Taqueria & Tequila Bar",
    "Address": "204 SW 2nd St, Fort Lauderdale, FL 33301",
    "City": "MIA",
    "State": "FL",
    "latitude": 26.120342,
    "longitude": -80.145891,
    "Phone": "954-463-2003",
    "Website": "http://tacocraft.com/"
  },
  {
    "Teams": "nhlfla",
    "Name": "Lucky's Tavern",
    "Address": "214 SW 2nd St, Fort Lauderdale, FL 33301",
    "City": "MIA",
    "State": "FL",
    "latitude": 26.1203224,
    "longitude": -80.1461956,
    "Phone": "954-356-8140",
    "Website": "https://m.facebook.com/luckysdowntown/"
  },
  {
    "Teams": "nhlfla",
    "Name": "Township FTL",
    "Address": "219 S Andrews Ave, Fort Lauderdale, FL 33301",
    "City": "MIA",
    "State": "FL",
    "latitude": 26.1198608,
    "longitude": -80.143638,
    "Phone": "954-338-4070",
    "Website": "http://www.townshipftl.com/"
  },
  {
    "Teams": "nflphi",
    "Name": "Marina 84 Sports Bar & Grill",
    "Address": "2440 W State Rd 84, Fort Lauderdale, FL 33312",
    "City": "MIA",
    "State": "FL",
    "latitude": 26.086295,
    "longitude": -80.173749,
    "Phone": "954-734-2424",
    "Website": "http://www.marina84.com/"
  },
  {
    "Teams": "nhlfla",
    "Name": "Tarpon River Brewing",
    "Address": "280 SW 6th St, Fort Lauderdale, FL 33301",
    "City": "MIA",
    "State": "FL",
    "latitude": 26.114597,
    "longitude": -80.1446683,
    "Phone": "954-353-3193",
    "Website": "http://tarponriverbrewing.com/"
  },
  {
    "Teams": "nflne",
    "Name": "Miller's Ale House - Ft. Lauderdale",
    "Address": "2861 N Federal Hwy, Fort Lauderdale, FL 33306",
    "City": "MIA",
    "State": "FL",
    "latitude": 26.1635448,
    "longitude": -80.1161624,
    "Phone": "954-565-5747",
    "Website": "https://millersalehouse.com/locations/ft-lauderdale/"
  },
  {
    "Teams": "ncaabbama;ncaafbama",
    "Name": "Black Pearl Tavern",
    "Address": "2948 E Commercial Blvd, Fort Lauderdale, FL 33308",
    "City": "MIA",
    "State": "FL",
    "latitude": 26.1894103,
    "longitude": -80.1072742,
    "Phone": "954-491-7711",
    "Website": "https://www.facebook.com/Black-Pearl-Tavern-174675375881900/"
  },
  {
    "Teams": "ncaabcle;ncaafcle;nflnyg",
    "Name": "Kelly Brothers Irish Pub",
    "Address": "3045 N Federal Hwy, Fort Lauderdale, FL 33306",
    "City": "MIA",
    "State": "FL",
    "latitude": 26.166216,
    "longitude": -80.117078,
    "Phone": "954-630-2856",
    "Website": "http://www.kellybrothersirishpub.com/"
  },
  {
    "Teams": "ncaabasu;ncaafasu;ncaabcsu;ncaafcsu;nhlfla;ncaabuk;ncaafuk;ncaablou;ncaaflou;ncaabmoh;ncaafmoh;nflmia;ncaabnc;ncaafnc;ncaabpit;ncaafpit;ncaabuva;ncaafuva;ncaabwvu;ncaafwvu",
    "Name": "Bokampers Sports Bar & Grill",
    "Address": "3115 NE 32nd Ave, Fort Lauderdale, FL 33308",
    "City": "MIA",
    "State": "FL",
    "latitude": 26.1682099,
    "longitude": -80.1034311,
    "Phone": "954-900-5584",
    "Website": "https://bokampers.com/fort-lauderdale/"
  },
  {
    "Teams": "nhlfla",
    "Name": "Original Fat Cats",
    "Address": "320 Himmarshee St, Fort Lauderdale, FL 33312",
    "City": "MIA",
    "State": "FL",
    "latitude": 26.1202813,
    "longitude": -80.1466095,
    "Phone": "954-467-5867",
    "Website": "https://www.facebook.com/originalfatcats"
  },
  {
    "Teams": "nhlfla",
    "Name": "Pizza Craft Artisan Pizzeria & Cocktail Bar",
    "Address": "330 Himmarshee St #1, Fort Lauderdale, FL 33312",
    "City": "MIA",
    "State": "FL",
    "latitude": 26.1203071,
    "longitude": -80.147038,
    "Phone": "954-616-8028",
    "Website": "http://www.pizzacraftpizzeria.com/"
  },
  {
    "Teams": "ncaablou;ncaaflou;ncaabnd;ncaafnd;ncaabsyr;ncaafsyr",
    "Name": "Stout Bar & Grill",
    "Address": "3419 N Andrews Ave, Fort Lauderdale, FL 33309",
    "City": "MIA",
    "State": "FL",
    "latitude": 26.1698793,
    "longitude": -80.1468477,
    "Phone": "754-223-5678",
    "Website": "http://stoutbarandgrill.com/"
  },
  {
    "Teams": "nhlfla",
    "Name": "Royal Pig Pub & Kitchen",
    "Address": "350 E Las Olas Blvd, Fort Lauderdale, FL 33301",
    "City": "MIA",
    "State": "FL",
    "latitude": 26.1190141,
    "longitude": -80.1395747,
    "Phone": "954-617-7447",
    "Website": "http://www.royalpigpub.com/"
  },
  {
    "Teams": "ncaabuva;ncaafuva",
    "Name": "Good Spirit's Fifth & Fed",
    "Address": "476 N Federal Hwy, Fort Lauderdale, FL 33301",
    "City": "MIA",
    "State": "FL",
    "latitude": 26.1278713,
    "longitude": -80.1368777,
    "Phone": "954-523-2580",
    "Website": "https://goodspiritsrestaurant.com/"
  },
  {
    "Teams": "nflcle;ncaabmia;ncaafmia;ncaabttu;ncaafttu",
    "Name": "The Brass Tap",
    "Address": "551 N Federal Hwy #600, Fort Lauderdale, FL 33301",
    "City": "MIA",
    "State": "FL",
    "latitude": 26.129283,
    "longitude": -80.1378179,
    "Phone": "754-200-8648",
    "Website": "http://brasstapbeerbar.com/"
  },
  {
    "Teams": "ncaablsu;ncaaflsu;nflno",
    "Name": "Shuck N Dive",
    "Address": "650 N Federal Hwy, Fort Lauderdale, FL 33304",
    "City": "MIA",
    "State": "FL",
    "latitude": 26.1303229,
    "longitude": -80.1363227,
    "Phone": "954-462-0088",
    "Website": "http://www.shuck-n-dive.com/"
  },
  {
    "Teams": "ncaabcolo;ncaafcolo",
    "Name": "Rank & File Social Club",
    "Address": "704 NE 1st Ave, Fort Lauderdale, FL 33304",
    "City": "MIA",
    "State": "FL",
    "latitude": 26.1318953,
    "longitude": -80.1426654,
    "Phone": "954-928-8794",
    "Website": "http://www.rankandfilesocialclub.com/"
  },
  {
    "Teams": "nhlfla;ncaabfsu;ncaaffsu;nflmia;nflnyg",
    "Name": "American Social",
    "Address": "721 E Las Olas Blvd, Fort Lauderdale, FL 33301",
    "City": "MIA",
    "State": "FL",
    "latitude": 26.1195686,
    "longitude": -80.1355747,
    "Phone": "954-764-7005",
    "Website": "https://americansocialbar.com/las-olas/"
  },
  {
    "Teams": "nhlfla",
    "Name": "27 Bar & Lounge",
    "Address": "835 NE 3rd Ave, Fort Lauderdale, FL 33304",
    "City": "MIA",
    "State": "FL",
    "latitude": 26.1345959,
    "longitude": -80.1416078,
    "Phone": "954-257-0026",
    "Website": "http://twentysevenbar.com/"
  },
  {
    "Teams": "ncaabpsu;ncaafpsu;nflphi;ncaabvu",
    "Name": "Parrot Lounge",
    "Address": "911 Sunrise Ln, Fort Lauderdale, FL 33304",
    "City": "MIA",
    "State": "FL",
    "latitude": 26.137181,
    "longitude": -80.103997,
    "Phone": "954-563-1493",
    "Website": "http://www.parrotlounge.com/"
  },
  {
    "Teams": "ncaabfsu;ncaaffsu;nflgb;ncaabwsu;ncaafwsu",
    "Name": "Slackers Bar & Grill",
    "Address": "995 W State Rd 84, Fort Lauderdale, FL 33315",
    "City": "MIA",
    "State": "FL",
    "latitude": 26.0932748,
    "longitude": -80.1559676,
    "Phone": "954-530-4758",
    "Website": ""
  },
  {
    "Teams": "ncaabmich;ncaafmich;ncaabusf;ncaafusf",
    "Name": "World of Beer",
    "Address": "10041 University Plaza Dr #170, Fort Myers, FL 33913",
    "City": "MIA",
    "State": "FL",
    "latitude": 26.491318,
    "longitude": -81.7851012,
    "Phone": "239-561-0773",
    "Website": "http://worldofbeer.com/Locations/UniversityPlaza"
  },
  {
    "Teams": "ncaabwvu;ncaafwvu",
    "Name": "Buffalo Wings & Rings",
    "Address": "11751 S Cleveland Ave, Fort Myers, FL 33907",
    "City": "MIA",
    "State": "FL",
    "latitude": 26.5698008,
    "longitude": -81.871307,
    "Phone": "239-204-3100",
    "Website": "https://www.buffalowingsandrings.com/locations/fort-myers"
  },
  {
    "Teams": "ncaabtenn;ncaaftenn",
    "Name": "Famous Dave's Bar-B-Que",
    "Address": "12148 S Cleveland Ave, Fort Myers, FL 33907",
    "City": "MIA",
    "State": "FL",
    "latitude": 26.5648623,
    "longitude": -81.8726069,
    "Phone": "239-690-3283",
    "Website": "http://www.famousdaves.com/"
  },
  {
    "Teams": "ncaabksu;ncaafksu;ncaabnw;ncaafnw;ncaabosu;ncaafosu",
    "Name": "Shoeless Joe's Sports Cafe",
    "Address": "13051 Bell Tower Dr, Fort Myers, FL 33907",
    "City": "MIA",
    "State": "FL",
    "latitude": 26.5514726,
    "longitude": -81.8686594,
    "Phone": "239-437-0650",
    "Website": "http://www.shoeless-joes.com/"
  },
  {
    "Teams": "ncaabvt;ncaafvt",
    "Name": "Duffy's Sports Grill",
    "Address": "13721 S Tamiami Trail, Fort Myers, FL 33912",
    "City": "MIA",
    "State": "FL",
    "latitude": 26.5437709,
    "longitude": -81.8706698,
    "Phone": "239-590-8631",
    "Website": "http://duffysmvp.com/"
  },
  {
    "Teams": "ncaabku;ncaafku",
    "Name": "Nick & Stella Pizza Perfecto",
    "Address": "15271 McGregor Blvd # 14, Fort Myers, FL 33908",
    "City": "MIA",
    "State": "FL",
    "latitude": 26.5198527,
    "longitude": -81.9392859,
    "Phone": "239-466-9493",
    "Website": "http://www.nickandstellas.com/"
  },
  {
    "Teams": "nflbuf;ncaabiowa;ncaafiowa;ncaabnd;ncaafnd",
    "Name": "RonDao's Pizzeria & Sports Bar",
    "Address": "15320 McGregor Blvd, Fort Myers, FL 33908",
    "City": "MIA",
    "State": "FL",
    "latitude": 26.5190855,
    "longitude": -81.9434118,
    "Phone": "239-481-1882",
    "Website": "http://rondaos.com/"
  },
  {
    "Teams": "nbabos;nbacle;nbagsw;nbahou",
    "Name": "Twin Peaks Fort Myers",
    "Address": "16411 Corporate Commerce Way, Fort Myers, FL 33913",
    "City": "MIA",
    "State": "FL",
    "latitude": 26.4943086,
    "longitude": -81.7843396,
    "Phone": "239-245-9559",
    "Website": "https://twinpeaksrestaurant.com/locations/fort-myers-fl"
  },
  {
    "Teams": "ncaabfsu;ncaaffsu",
    "Name": "The Lodge",
    "Address": "2278 First St, Fort Myers, FL 33901",
    "City": "MIA",
    "State": "FL",
    "latitude": 26.644585,
    "longitude": -81.8690052,
    "Phone": "239-433-2739",
    "Website": "http://thelodgefl.com/"
  },
  {
    "Teams": "ncaabfsu;ncaaffsu",
    "Name": "Edison Restaurant, Bar & Banquet Center",
    "Address": "3583 McGregor Blvd, Fort Myers, FL 33901",
    "City": "MIA",
    "State": "FL",
    "latitude": 26.610565,
    "longitude": -81.884118,
    "Phone": "239-936-9348",
    "Website": "http://www.edisonrestaurantfortmyers.com/"
  },
  {
    "Teams": "nflpit",
    "Name": "Sidelines Sports Bar & Grill",
    "Address": "4451 Veronica S Shoemaker Blvd, Fort Myers, FL 33916",
    "City": "MIA",
    "State": "FL",
    "latitude": 26.5982764,
    "longitude": -81.8405237,
    "Phone": "239-939-3003",
    "Website": "http://sidelinesftmyers.com/"
  },
  {
    "Teams": "ncaabtenn;ncaaftenn",
    "Name": "The Sandbar and Grille",
    "Address": "4606 S Cleveland Ave, Fort Myers, FL 33907",
    "City": "MIA",
    "State": "FL",
    "latitude": 26.5947611,
    "longitude": -81.8723002,
    "Phone": "239-500-5520",
    "Website": "http://sandbarfmb.com/"
  },
  {
    "Teams": "ncaabuf;ncaafuf",
    "Name": "Glory Days Grill",
    "Address": "5056 Daniels Pkwy, Fort Myers, FL 33912",
    "City": "MIA",
    "State": "FL",
    "latitude": 26.5457066,
    "longitude": -81.8695343,
    "Phone": "239-690-3287",
    "Website": "https://www.glorydaysgrill.com/"
  },
  {
    "Teams": "ncaabtamu;ncaaftamu;ncaabucf;ncaafucf",
    "Name": "Marlins Brewhouse",
    "Address": "5611 Six Mile Commercial Ct suite 4, Fort Myers, FL 33912",
    "City": "MIA",
    "State": "FL",
    "latitude": 26.5288954,
    "longitude": -81.8635393,
    "Phone": "239-220-5918",
    "Website": "https://marlins-brewhouse.business.site/"
  },
  {
    "Teams": "ncaabisu;ncaafisu",
    "Name": "Buckett's Wings & More",
    "Address": "6301 South Pointe Blvd, Fort Myers, FL 33919",
    "City": "MIA",
    "State": "FL",
    "latitude": 26.5523931,
    "longitude": -81.9052759,
    "Phone": "239-481-7311",
    "Website": "http://www.buckettswingsandmore.com/"
  },
  {
    "Teams": "nflmin;ncaabneb;ncaafneb;nflnyg",
    "Name": "Pott's Sports Cafe",
    "Address": "6900 Daniels Pkwy #26, Fort Myers, FL 33912",
    "City": "MIA",
    "State": "FL",
    "latitude": 26.5440216,
    "longitude": -81.8418657,
    "Phone": "239-768-5500",
    "Website": ""
  },
  {
    "Teams": "ncaabuf;ncaafuf;ncaabuga;ncaafuga;nflind;ncaabmu;ncaabmsu;ncaafmsu;ncaabpur;ncaafpur",
    "Name": "Stevie Tomato's Sports Page",
    "Address": "9510 Marketplace Rd, Fort Myers, FL 33912",
    "City": "MIA",
    "State": "FL",
    "latitude": 26.5482023,
    "longitude": -81.7971939,
    "Phone": "239-939-7211",
    "Website": "http://www.stevietomato.com/"
  },
  {
    "Teams": "ncaabpur;ncaafpur",
    "Name": "Rusty's Raw Bar & Grill - Fort Myers",
    "Address": "9520 Marketplace Rd, Fort Myers, FL 33912",
    "City": "MIA",
    "State": "FL",
    "latitude": 26.5488013,
    "longitude": -81.7967652,
    "Phone": "239-225-9776",
    "Website": "http://rustysraw.com/"
  },
  {
    "Teams": "ncaabucf;ncaafucf",
    "Name": "Pineapple Joe's Grill & Raw Bar",
    "Address": "6297 US-1, Fort Pierce, FL 34946",
    "City": "MIA",
    "State": "FL",
    "latitude": 27.548256,
    "longitude": -80.3688,
    "Phone": "772-465-6930",
    "Website": "https://pineapplejoesgrillandrawbar.com/"
  },
  {
    "Teams": "ncaabuf;ncaafuf",
    "Name": "World of Beer",
    "Address": "13499 South Cleveland Avenue #111, Ft. Myers, FL 33907",
    "City": "MIA",
    "State": "FL",
    "latitude": 26.549637,
    "longitude": -81.870029,
    "Phone": "239-437-2411",
    "Website": "http://worldofbeer.com/Locations/BellTower"
  },
  {
    "Teams": "ncaabmich;ncaafmich;ncaabwis;ncaafwis",
    "Name": "Upper Deck Ale and Sports Grille",
    "Address": "906 E Hallandale Beach Blvd, Hallandale Beach, FL 33009",
    "City": "MIA",
    "State": "FL",
    "latitude": 25.985294,
    "longitude": -80.1391348,
    "Phone": "954-454-8878",
    "Website": "http://upperdeckhallandalebeach.com/"
  },
  {
    "Teams": "ncaabtenn;ncaaftenn",
    "Name": "Frankey's Sports Bar",
    "Address": "Building 1720, 900 Silks Run, Hallandale Beach, FL 33009",
    "City": "MIA",
    "State": "FL",
    "latitude": 25.976876,
    "longitude": -80.140104,
    "Phone": "954-464-2333",
    "Website": "http://www.frankeysbar.com/"
  },
  {
    "Teams": "nflchi",
    "Name": "Capone's Flicker Lite",
    "Address": "1014 N Ocean Dr, Hollywood, FL 33019",
    "City": "MIA",
    "State": "FL",
    "latitude": 26.0180447,
    "longitude": -80.1173905,
    "Phone": "954-922-4232",
    "Website": ""
  },
  {
    "Teams": "nflbuf",
    "Name": "The Greek Joint",
    "Address": "1925 Hollywood Blvd, Hollywood, FL 33020",
    "City": "MIA",
    "State": "FL",
    "latitude": 26.011788,
    "longitude": -80.1460662,
    "Phone": "954-929-9966",
    "Website": "http://thegreekjoint.com/"
  },
  {
    "Teams": "ncaabarmy;ncaafarmy",
    "Name": "ZÃçAMI Distillery",
    "Address": "3030 N 29th Ave, Hollywood, FL 33020",
    "City": "MIA",
    "State": "FL",
    "latitude": 26.0365349,
    "longitude": -80.1659526,
    "Phone": "305-791-1221",
    "Website": "http://www.ziamirum.com/"
  },
  {
    "Teams": "ncaabmu",
    "Name": "Miller's Ale House - Hollywood",
    "Address": "3215 Oakwood Blvd, Hollywood, FL 33020",
    "City": "MIA",
    "State": "FL",
    "latitude": 26.040405,
    "longitude": -80.160781,
    "Phone": "954-925-7275",
    "Website": "https://millersalehouse.com/locations/hollywood/"
  },
  {
    "Teams": "nfldal",
    "Name": "Big Dawgs 2",
    "Address": "7357 Davie Road Extension, Hollywood, FL 33024",
    "City": "MIA",
    "State": "FL",
    "latitude": 26.0401485,
    "longitude": -80.2365751,
    "Phone": "954-272-3294",
    "Website": "http://www.bigdawgssportsbar.com/"
  },
  {
    "Teams": "nflsf",
    "Name": "Chili's Grill & Bar",
    "Address": "2220 NE 8th St, Homestead, FL 33030",
    "City": "MIA",
    "State": "FL",
    "latitude": 25.4768843,
    "longitude": -80.4459424,
    "Phone": "786-243-8902",
    "Website": "https://www.chilis.com/locations/us/fl/homestead/homestead/"
  },
  {
    "Teams": "ncaabfsu;ncaaffsu;ncaabucf;ncaafucf",
    "Name": "Buffalo Wild Wings",
    "Address": "3299 NW Federal Hwy, Jensen Beach, FL 34957",
    "City": "MIA",
    "State": "FL",
    "latitude": 27.2449198,
    "longitude": -80.2706033,
    "Phone": "772-692-0465",
    "Website": "https://buffalowildwings.com/en/locations/detail/523/"
  },
  {
    "Teams": "nflmia",
    "Name": "Conchy Joe's Seafood",
    "Address": "3945 NE Indian River Dr, Jensen Beach, FL 34957",
    "City": "MIA",
    "State": "FL",
    "latitude": 27.252679,
    "longitude": -80.228456,
    "Phone": "772-334-1130",
    "Website": "http://conchyjoes.com/"
  },
  {
    "Teams": "nflphi",
    "Name": "Hurricane Grill & Wings",
    "Address": "995 NE Jensen Beach Blvd, Jensen Beach, FL 34957",
    "City": "MIA",
    "State": "FL",
    "latitude": 27.2454611,
    "longitude": -80.2390625,
    "Phone": "772-334-0001",
    "Website": "http://www.hurricanewings.com/"
  },
  {
    "Teams": "nflbal",
    "Name": "Kirby's Sports Grille",
    "Address": "841 Donald Ross Rd, Juno Beach, FL 33408",
    "City": "MIA",
    "State": "FL",
    "latitude": 26.8835146,
    "longitude": -80.0587382,
    "Phone": "561-627-8000",
    "Website": "http://kirbysonline.com/"
  },
  {
    "Teams": "ncaabwake;ncaafwake",
    "Name": "The Woods Jupiter",
    "Address": "129 Soundings Ave, Jupiter, FL 33477",
    "City": "MIA",
    "State": "FL",
    "latitude": 26.9361922,
    "longitude": -80.0827799,
    "Phone": "561-320-9627",
    "Website": "http://www.woodsjupiter.com/"
  },
  {
    "Teams": "ncaabvu",
    "Name": "PapiChulo Tacos",
    "Address": "1556 US-1, Jupiter, FL 33469",
    "City": "MIA",
    "State": "FL",
    "latitude": 26.95414,
    "longitude": -80.085588,
    "Phone": "561-250-7274",
    "Website": "http://www.papichulotacos.com/contact"
  },
  {
    "Teams": "ncaabcle;ncaafcle",
    "Name": "Loyal Order of Moose",
    "Address": "185 E Indiantown Rd # 210, Jupiter, FL 33477",
    "City": "MIA",
    "State": "FL",
    "latitude": 26.934913,
    "longitude": -80.0902727,
    "Phone": "561-743-0202",
    "Website": "http://www.mooseintl.org/"
  },
  {
    "Teams": "ncaabcle;ncaafcle;nflwas",
    "Name": "Duffy's Sports Grill",
    "Address": "6791 W Indiantown Rd, Jupiter, FL 33458",
    "City": "MIA",
    "State": "FL",
    "latitude": 26.934949,
    "longitude": -80.139253,
    "Phone": "561-741-8900",
    "Website": "http://duffysmvp.com/"
  },
  {
    "Teams": "ncaabuf;ncaafuf",
    "Name": "Jimmy Johnson's Big Chill",
    "Address": "104000 Overseas Hwy, Key Largo, FL 33037",
    "City": "MIA",
    "State": "FL",
    "latitude": 25.1445664,
    "longitude": -80.3975694,
    "Phone": "305-453-9066",
    "Website": "http://www.jjsbigchill.com/"
  },
  {
    "Teams": "nflbuf;nhlstl",
    "Name": "Sharkey's Pub & Galley Restaurant",
    "Address": "522 Caribbean Dr, Key Largo, FL 33037",
    "City": "MIA",
    "State": "FL",
    "latitude": 25.095951,
    "longitude": -80.4346546,
    "Phone": "305-453-0999",
    "Website": "http://www.sharkeysgalley.com/"
  },
  {
    "Teams": "nflpit",
    "Name": "Shanna Key Irish Pub & Grill",
    "Address": "1900 Flagler Ave, Key West, FL 33040",
    "City": "MIA",
    "State": "FL",
    "latitude": 24.5550652,
    "longitude": -81.7797322,
    "Phone": "305-295-8880",
    "Website": "http://shannakeyirishpub.com/"
  },
  {
    "Teams": "ncaabfsu;ncaaffsu",
    "Name": "Treble Hooks Island Grill House",
    "Address": "2200 N Roosevelt Blvd, Key West, FL 33040",
    "City": "MIA",
    "State": "FL",
    "latitude": 24.5603726,
    "longitude": -81.7795993,
    "Phone": "305-849-4127",
    "Website": "http://www.ordertreblehooks.com/"
  },
  {
    "Teams": "nflmia",
    "Name": "Smokin' Tuna Saloon",
    "Address": "4 Charles St, Key West, FL 33040",
    "City": "MIA",
    "State": "FL",
    "latitude": 24.5583585,
    "longitude": -81.8053761,
    "Phone": "305-517-6350",
    "Website": "http://www.smokintunasaloon.com/"
  },
  {
    "Teams": "nflphi",
    "Name": "Charlie Mac's",
    "Address": "404 Southard St, Key West, FL 33040",
    "City": "MIA",
    "State": "FL",
    "latitude": 24.5542229,
    "longitude": -81.8027429,
    "Phone": "305-320-0204",
    "Website": "http://www.charliemacs404.com/"
  },
  {
    "Teams": "nflbuf",
    "Name": "Pirate's Well Restaurant & Bar",
    "Address": "9477 FL A1AAlt, Lake Park, FL 33403",
    "City": "MIA",
    "State": "FL",
    "latitude": 26.8146949,
    "longitude": -80.0797546,
    "Phone": "561-629-7020",
    "Website": "http://www.pirateswell.com/lake-park/"
  },
  {
    "Teams": "ncaabmich;ncaafmich",
    "Name": "The Rock Irish Pub",
    "Address": "614 Lake Ave, Lake Worth, FL 33460",
    "City": "MIA",
    "State": "FL",
    "latitude": 26.61606,
    "longitude": -80.0550426,
    "Phone": "561-812-7625",
    "Website": "http://therockirishpub.com/"
  },
  {
    "Teams": "ncaabmich;ncaafmich",
    "Name": "Brogues DownUnder",
    "Address": "621 Lake Ave, Lake Worth, FL 33460",
    "City": "MIA",
    "State": "FL",
    "latitude": 26.615585,
    "longitude": -80.0552455,
    "Phone": "561-585-1885",
    "Website": ""
  },
  {
    "Teams": "nflpit",
    "Name": "Dave's Last Resort & Raw Bar",
    "Address": "632 Lake Ave, Lake Worth, FL 33460",
    "City": "MIA",
    "State": "FL",
    "latitude": 26.616074,
    "longitude": -80.055264,
    "Phone": "561-588-5208",
    "Website": "http://www.daveslastresort.com/"
  },
  {
    "Teams": "ncaabpsu;ncaafpsu",
    "Name": "Lilo's Streetfood & Bar",
    "Address": "701 Lake Ave, Lake Worth, FL 33460",
    "City": "MIA",
    "State": "FL",
    "latitude": 26.6156019,
    "longitude": -80.0555205,
    "Phone": "561-518-7880",
    "Website": "http://www.lilosstreetfoodandbar.com/"
  },
  {
    "Teams": "nflnyj",
    "Name": "Beef & Ale",
    "Address": "7201 Lake Worth Rd A, Lake Worth, FL 33467",
    "City": "MIA",
    "State": "FL",
    "latitude": 26.6185057,
    "longitude": -80.1604855,
    "Phone": "561-612-7446",
    "Website": "http://www.lakeworthbeefandale.com/"
  },
  {
    "Teams": "ncaabusf;ncaafusf;ncaabucf;ncaafucf",
    "Name": "Federal Bar Lakeland",
    "Address": "124 S Tennessee Ave, Lakeland, FL 33801",
    "City": "MIA",
    "State": "FL",
    "latitude": 28.0431552,
    "longitude": -81.9559355,
    "Phone": "863-816-3968",
    "Website": "http://www.federalbarlakeland.com/"
  },
  {
    "Teams": "ncaabusf;ncaafusf",
    "Name": "Bosko's Clubhouse Grill",
    "Address": "2900 Buckingham Ave, Lakeland, FL 33803",
    "City": "MIA",
    "State": "FL",
    "latitude": 28.0101146,
    "longitude": -81.9456526,
    "Phone": "863-834-2326",
    "Website": "http://www.clevelandheightsgolf.com/heights-lounge/"
  },
  {
    "Teams": "nflbuf",
    "Name": "716 Burgers & Brew",
    "Address": "2909 Duff Rd, Lakeland, FL 33810",
    "City": "MIA",
    "State": "FL",
    "latitude": 28.1355678,
    "longitude": -82.0068139,
    "Phone": "863-333-0671",
    "Website": "https://m.facebook.com/716burgersandbrew/"
  },
  {
    "Teams": "ncaabbama;ncaafbama;nflne;ncaabucf;ncaafucf",
    "Name": "Glory Days Grill",
    "Address": "3790 Lakeside Village Ct, Lakeland, FL 33803",
    "City": "MIA",
    "State": "FL",
    "latitude": 27.9973012,
    "longitude": -81.9765864,
    "Phone": "863-225-8958",
    "Website": "http://www.glorydaysgrill.com/"
  },
  {
    "Teams": "nhltbl",
    "Name": "Brew Hub - Lakeland",
    "Address": "3900 Frontage Rd S, Lakeland, FL 33815",
    "City": "MIA",
    "State": "FL",
    "latitude": 28.0440296,
    "longitude": -82.0240867,
    "Phone": "863-698-7600",
    "Website": "http://www.brewhub.com/"
  },
  {
    "Teams": "ncaabfsu;ncaaffsu;nflmia",
    "Name": "Winners Circle Sportsbar & Grill",
    "Address": "4215 Florida Ave S, Lakeland, FL 33813",
    "City": "MIA",
    "State": "FL",
    "latitude": 27.9886975,
    "longitude": -81.9572717,
    "Phone": "863-644-9464",
    "Website": "https://winnerscirclesportsbar.com/"
  },
  {
    "Teams": "ncaabuf;ncaafuf",
    "Name": "Old Key Lime House",
    "Address": "300 E Ocean Ave, Lantana, FL 33462",
    "City": "MIA",
    "State": "FL",
    "latitude": 26.5841244,
    "longitude": -80.0490546,
    "Phone": "561-582-1889",
    "Website": "http://www.oldkeylimehouse.com/"
  },
  {
    "Teams": "nflpit",
    "Name": "Bonefish Mac's Sports Grille",
    "Address": "2002 E Sample Rd, Lighthouse Point, FL 33064",
    "City": "MIA",
    "State": "FL",
    "latitude": 26.2749197,
    "longitude": -80.095943,
    "Phone": "954-781-6227",
    "Website": "http://www.bonefishmacs.com/"
  },
  {
    "Teams": "nflbuf",
    "Name": "Packy's Sports Pub",
    "Address": "4480 N Federal Hwy, Lighthouse Point, FL 33064",
    "City": "MIA",
    "State": "FL",
    "latitude": 26.286092,
    "longitude": -80.095463,
    "Phone": "954-657-8423",
    "Website": "http://www.packysportspub.com/"
  },
  {
    "Teams": "nflcin",
    "Name": "Pirate's Well Restaurant & Bar",
    "Address": "12041 Southern Blvd, Loxahatchee, FL 33470",
    "City": "MIA",
    "State": "FL",
    "latitude": 26.6839145,
    "longitude": -80.2474505,
    "Phone": "561-469-2333",
    "Website": "http://pirateswell.com/"
  },
  {
    "Teams": "nflphi",
    "Name": "2Shea's Salty Dog",
    "Address": "599 S Collier Blvd # 105, Marco Island, FL 34145",
    "City": "MIA",
    "State": "FL",
    "latitude": 25.9220498,
    "longitude": -81.7255937,
    "Phone": "239-970-5363",
    "Website": "http://salty-dog.business.site/"
  },
  {
    "Teams": "nflind",
    "Name": "Rooster's Restaurant",
    "Address": "7370 W Atlantic Blvd, Margate, FL 33063",
    "City": "MIA",
    "State": "FL",
    "latitude": 26.2346906,
    "longitude": -80.2241308,
    "Phone": "954-971-6044",
    "Website": "http://roostersmargate.com/"
  },
  {
    "Teams": "nflmia;mlbfla",
    "Name": "Sports Grill Sunset",
    "Address": "10005 SW 72nd St, Miami, FL 33173",
    "City": "MIA",
    "State": "FL",
    "latitude": 25.7017063,
    "longitude": -80.3564009,
    "Phone": "305-598-2227",
    "Website": "http://www.sportsgrillmiami.com/"
  },
  {
    "Teams": "ncaabfiu;ncaaffiu",
    "Name": "Cadillac Ranch",
    "Address": "11735 Sherry Ln, Miami, FL 33183",
    "City": "MIA",
    "State": "FL",
    "latitude": 25.6886986,
    "longitude": -80.3846034,
    "Phone": "305-279-3700",
    "Website": "http://cadillacranchgroup.com/location/kendall"
  },
  {
    "Teams": "nfldal",
    "Name": "Champions Sports Bar",
    "Address": "1201 NW LeJeune Rd, Miami, FL 33126",
    "City": "MIA",
    "State": "FL",
    "latitude": 25.7849254,
    "longitude": -80.2622544,
    "Phone": "305-649-5000",
    "Website": "http://championsmiami.com/"
  },
  {
    "Teams": "ncaabtex;ncaaftex",
    "Name": "Tomorrowland Miami",
    "Address": "1368 N Miami Ave, Miami, FL 33136",
    "City": "MIA",
    "State": "FL",
    "latitude": 25.7880976,
    "longitude": -80.1943577,
    "Phone": "786-542-9994",
    "Website": "http://tomorrowlandmiami.com/"
  },
  {
    "Teams": "mlbfla",
    "Name": "The Union Beer Store",
    "Address": "1547 SW 8th St, Miami, FL 33135",
    "City": "MIA",
    "State": "FL",
    "latitude": 25.7658053,
    "longitude": -80.2205106,
    "Phone": "786-313-3919",
    "Website": "http://unionbeerstore.com/"
  },
  {
    "Teams": "ncaabucf;ncaafucf",
    "Name": "Sports Grill South Miami",
    "Address": "1559 Sunset Dr, Miami, FL 33143",
    "City": "MIA",
    "State": "FL",
    "latitude": 25.7046863,
    "longitude": -80.2845202,
    "Phone": "305-668-0396",
    "Website": "http://www.sportsgrillmiami.com/"
  },
  {
    "Teams": "ncaabucf;ncaafucf",
    "Name": "Lost Boy",
    "Address": "157 E Flagler St, Miami, FL 33131",
    "City": "MIA",
    "State": "FL",
    "latitude": 25.7743751,
    "longitude": -80.190765,
    "Phone": "305-372-7303",
    "Website": "http://www.lostboydrygoods.com/"
  },
  {
    "Teams": "ncaabbay;ncaafbay;mlbfla;ncaabusc;ncaafusc",
    "Name": "Black Market Miami",
    "Address": "168 SE 1st St, Miami, FL 33131",
    "City": "MIA",
    "State": "FL",
    "latitude": 25.77325,
    "longitude": -80.190503,
    "Phone": "305-400-8023",
    "Website": "https://blackmarketmia.com/"
  },
  {
    "Teams": "mlbfla",
    "Name": "Batting Cage Sports Bar & Lounge",
    "Address": "1704 NW 7th St, Miami, FL 33125",
    "City": "MIA",
    "State": "FL",
    "latitude": 25.779724,
    "longitude": -80.2231926,
    "Phone": "786-334-6868",
    "Website": "https://www.battingcagemiami.com/"
  },
  {
    "Teams": "ncaabnd;ncaafnd",
    "Name": "Duffy's Tavern",
    "Address": "2108 SW 57th Ave, Miami, FL 33155",
    "City": "MIA",
    "State": "FL",
    "latitude": 25.751174,
    "longitude": -80.2875854,
    "Phone": "305-264-6580",
    "Website": "http://www.duffystavernmiami.com/"
  },
  {
    "Teams": "ncaabmich;ncaafmich",
    "Name": "Grails Sports Bar",
    "Address": "2800 N Miami Ave, Miami, FL 33127",
    "City": "MIA",
    "State": "FL",
    "latitude": 25.8032563,
    "longitude": -80.1954505,
    "Phone": "786-870-4313",
    "Website": "https://grailssportsbar.com/"
  },
  {
    "Teams": "nflbuf;ncaabuf;ncaafuf;nflmia;ncaabmia;ncaafmia;ncaabnc;ncaafnc;ncaabsc;ncaafsc;ncaabttu;ncaafttu;ncaabvu",
    "Name": "Batch Gastropub: Miami",
    "Address": "30 Southwest 12th Street in, Miami, FL 33130",
    "City": "MIA",
    "State": "FL",
    "latitude": 25.7624325,
    "longitude": -80.193975,
    "Phone": "305-808-5555",
    "Website": "http://www.batchmiami.com/"
  },
  {
    "Teams": "nhlfla;nflmia;ncaabvan;ncaafvan",
    "Name": "Sandbar Sports Grill",
    "Address": "3064 Grand Ave, Miami, FL 33133",
    "City": "MIA",
    "State": "FL",
    "latitude": 25.7279435,
    "longitude": -80.2428592,
    "Phone": "305-444-5270",
    "Website": "http://sand.bar/"
  },
  {
    "Teams": "nhlfla",
    "Name": "Concrete Beach Brewery",
    "Address": "325 NW 24th St, Miami, FL 33127",
    "City": "MIA",
    "State": "FL",
    "latitude": 25.8002793,
    "longitude": -80.2008912,
    "Phone": "305-796-2727",
    "Website": "http://concretebeachbrewery.com/"
  },
  {
    "Teams": "ncaabfiu;ncaaffiu",
    "Name": "Hard Rock Cafe",
    "Address": "401 Biscayne Blvd, Miami, FL 33132",
    "City": "MIA",
    "State": "FL",
    "latitude": 25.777528,
    "longitude": -80.184504,
    "Phone": "305-377-3110",
    "Website": "http://www.hardrock.com/cafes/miami/"
  },
  {
    "Teams": "nbamia",
    "Name": "Miccosukee Resort & Gaming",
    "Address": "500 SW 177th Ave, Miami, FL 33194",
    "City": "MIA",
    "State": "FL",
    "latitude": 25.7632789,
    "longitude": -80.4844316,
    "Phone": "305-222-4600",
    "Website": "http://www.miccosukee.com/resort"
  },
  {
    "Teams": "mlbfla",
    "Name": "The Clevelander at Marlins Park",
    "Address": "501 Marlins Way, Miami, FL 33125",
    "City": "MIA",
    "State": "FL",
    "latitude": 25.7781701,
    "longitude": -80.2187079,
    "Phone": "305-532-4006",
    "Website": "http://www.clevelander.com/marlins-park/"
  },
  {
    "Teams": "ncaabfsu;ncaaffsu",
    "Name": "The Tank Brewing Co.",
    "Address": "5100 NW 72nd Ave A-1, Miami, FL 33166",
    "City": "MIA",
    "State": "FL",
    "latitude": 25.820037,
    "longitude": -80.313882,
    "Phone": "786-801-1554",
    "Website": "http://thetankbrewing.com/"
  },
  {
    "Teams": "nhlfla",
    "Name": "Mike's At Venetia",
    "Address": "555 NE 15th St, Miami, FL 33132",
    "City": "MIA",
    "State": "FL",
    "latitude": 25.790292,
    "longitude": -80.185894,
    "Phone": "305-374-5731",
    "Website": "http://www.mikesmiami.com/"
  },
  {
    "Teams": "nhlfla",
    "Name": "Carolina Ale House",
    "Address": "6810 SW 40th St, Miami, FL 33155",
    "City": "MIA",
    "State": "FL",
    "latitude": 25.7328019,
    "longitude": -80.3046166,
    "Phone": "305-666-3757",
    "Website": "http://www.carolinaalehouse.com/"
  },
  {
    "Teams": "nhlfla;ncaabfsu;ncaaffsu;ncaabuga;ncaafuga;nflmia;nbamia;ncaabmich;ncaafmich",
    "Name": "American Social",
    "Address": "690 SW 1st Ct, Miami, FL 33130",
    "City": "MIA",
    "State": "FL",
    "latitude": 25.768298,
    "longitude": -80.196424,
    "Phone": "305-223-7004",
    "Website": "http://americansocialbar.com/brickell/"
  },
  {
    "Teams": "nflmia",
    "Name": "Bru's Room Sports Grill",
    "Address": "8318 SW 40th St, Miami, FL 33155",
    "City": "MIA",
    "State": "FL",
    "latitude": 25.732949,
    "longitude": -80.331047,
    "Phone": "305-220-3995",
    "Website": "http://brusroom.com/locations/bird-road-coming-soon/"
  },
  {
    "Teams": "nbamia",
    "Name": "Duffy's Sports Grill",
    "Address": "8575 SW 124th Ave, Miami, FL 33183",
    "City": "MIA",
    "State": "FL",
    "latitude": 25.6882869,
    "longitude": -80.3918182,
    "Phone": "305-406-0001",
    "Website": "https://www.duffysmvp.com/"
  },
  {
    "Teams": "nflbuf",
    "Name": "Bar Louie",
    "Address": "MIDTOWN MIAMI, 3201 N Miami Ave #210, Miami, FL 33127",
    "City": "MIA",
    "State": "FL",
    "latitude": 25.8079854,
    "longitude": -80.1942772,
    "Phone": "786-879-8260",
    "Website": "http://barlouie.com/locations/states/florida/midtown-miami"
  },
  {
    "Teams": "ncaabtex;ncaaftex",
    "Name": "Yard House",
    "Address": "1681 Lenox Ave, Miami Beach, FL 33139",
    "City": "MIA",
    "State": "FL",
    "latitude": 25.7915874,
    "longitude": -80.1397427,
    "Phone": "305-535-5660",
    "Website": "https://www.yardhouse.com/locations/fl/miami-beach/miami-beach/8347"
  },
  {
    "Teams": "ncaabmich;ncaafmich",
    "Name": "Monty's on South Beach",
    "Address": "300 Alton Rd, Miami Beach, FL 33139",
    "City": "MIA",
    "State": "FL",
    "latitude": 25.77145,
    "longitude": -80.139513,
    "Phone": "305-672-1148",
    "Website": "http://www.montyssobe.com/"
  },
  {
    "Teams": "ncaabku;ncaafku",
    "Name": "Norman's Tavern",
    "Address": "6770 Collins Ave, Miami Beach, FL 33141",
    "City": "MIA",
    "State": "FL",
    "latitude": 25.851812,
    "longitude": -80.120664,
    "Phone": "305-868-9248",
    "Website": "http://www.normans.biz/"
  },
  {
    "Teams": "ncaabiowa;ncaafiowa;nflmia",
    "Name": "Shula's 2 Steak & Sports",
    "Address": "6842 Main St, Miami Lakes, FL 33014",
    "City": "MIA",
    "State": "FL",
    "latitude": 25.9127372,
    "longitude": -80.3117384,
    "Phone": "305-820-8047",
    "Website": "https://www.shulas.com/shulas-2/miami-lakes/"
  },
  {
    "Teams": "nflmia",
    "Name": "Tom's NFL",
    "Address": "5001 NW 36th St, Miami Springs, FL 33166",
    "City": "MIA",
    "State": "FL",
    "latitude": 25.8081645,
    "longitude": -80.2783598,
    "Phone": "305-888-6022",
    "Website": "http://www.tomsnfl.com/"
  },
  {
    "Teams": "ncaabcle;ncaafcle;nhlfla",
    "Name": "Bokampers Sports Bar & Grill",
    "Address": "15500 SW 29th St, Miramar, FL 33027",
    "City": "MIA",
    "State": "FL",
    "latitude": 25.9826732,
    "longitude": -80.3531189,
    "Phone": "754-400-8558",
    "Website": "https://bokampers.com/miramar/"
  },
  {
    "Teams": "ncaabfsu;ncaaffsu;ncaabwmu;ncaafwmu",
    "Name": "Pelican Larry's Raw Bar & Grill",
    "Address": "1046 Pine Ridge Rd, Naples, FL 34108",
    "City": "MIA",
    "State": "FL",
    "latitude": 26.2105959,
    "longitude": -81.7987118,
    "Phone": "239-649-0800",
    "Website": "http://pelicanlarrys.com/pineridge/"
  },
  {
    "Teams": "ncaabmia;ncaafmia",
    "Name": "New York Pizza & Pasta",
    "Address": "11140 Tamiami Trail N, Naples, FL 34110",
    "City": "MIA",
    "State": "FL",
    "latitude": 26.2734469,
    "longitude": -81.7997847,
    "Phone": "239-594-3500",
    "Website": "http://www.newyorkpp.com/"
  },
  {
    "Teams": "nflmin",
    "Name": "Dylan's Drafthouse",
    "Address": "1258 Airport Pulling Rd N, Naples, FL 34104",
    "City": "MIA",
    "State": "FL",
    "latitude": 26.1651134,
    "longitude": -81.7676208,
    "Phone": "239-300-0192",
    "Website": "https://www.facebook.com/pages/Dylans-Draft-House/529033940498193"
  },
  {
    "Teams": "nflphi",
    "Name": "South Street",
    "Address": "1410 Pine Ridge Rd, Naples, FL 34108",
    "City": "MIA",
    "State": "FL",
    "latitude": 26.2108571,
    "longitude": -81.7929404,
    "Phone": "239-435-9333",
    "Website": "http://www.southstreetnaples.com/"
  },
  {
    "Teams": "ncaabiowa;ncaafiowa",
    "Name": "Bone Hook Brewing Company",
    "Address": "1514 Immokalee Rd #106, Naples, FL 34110",
    "City": "MIA",
    "State": "FL",
    "latitude": 26.2717549,
    "longitude": -81.7885319,
    "Phone": "239-631-8522",
    "Website": "http://www.bonehookbrewing.com/"
  },
  {
    "Teams": "ncaabosu;ncaafosu",
    "Name": "Stevie Tomato's Sports Page",
    "Address": "15215 Collier Blvd #303, Naples, FL 34119",
    "City": "MIA",
    "State": "FL",
    "latitude": 26.269269,
    "longitude": -81.691124,
    "Phone": "239-352-4233",
    "Website": "https://stevietomatosportspagenaples.com/"
  },
  {
    "Teams": "ncaabbc;ncaafbc;mlbbos;ncaabuf;ncaafuf;ncaabfsu;ncaaffsu;ncaabmu;ncaabvu;ncaabxu",
    "Name": "Boston Beer Garden",
    "Address": "2396 Immokalee Rd, Naples, FL 34110",
    "City": "MIA",
    "State": "FL",
    "latitude": 26.2706628,
    "longitude": -81.7718508,
    "Phone": "239-596-2337",
    "Website": "http://www.bostonbeergardennaples.com/"
  },
  {
    "Teams": "ncaabosu;ncaafosu",
    "Name": "Harold's Place Chickee Bar And Grill",
    "Address": "2555 Tamiami Trail N, Naples, FL 34103",
    "City": "MIA",
    "State": "FL",
    "latitude": 26.1778599,
    "longitude": -81.8004213,
    "Phone": "239-263-7254",
    "Website": "http://www.naplesharoldsplace.com/"
  },
  {
    "Teams": "nhlbos;mlbbos;nflne",
    "Name": "Foxboro Sports Tavern",
    "Address": "4420 Thomasson Dr, Naples, FL 34112",
    "City": "MIA",
    "State": "FL",
    "latitude": 26.1056915,
    "longitude": -81.7491355,
    "Phone": "239-530-2337",
    "Website": "http://www.foxborotavern.com/"
  },
  {
    "Teams": "nflbuf",
    "Name": "Wahoo's River Bar and Grill",
    "Address": "475 North Rd, Naples, FL 34104",
    "City": "MIA",
    "State": "FL",
    "latitude": 26.1514212,
    "longitude": -81.7844927,
    "Phone": "239-213-1441",
    "Website": "http://www.wahoosriverbarandgrill.com/"
  },
  {
    "Teams": "ncaabiowa;ncaafiowa",
    "Name": "Dogtooth Sports and Music Bar",
    "Address": "5310 Shirley St, Naples, FL 34109",
    "City": "MIA",
    "State": "FL",
    "latitude": 26.2121232,
    "longitude": -81.781003,
    "Phone": "239-431-7004",
    "Website": "http://dogtoothnaples.com/"
  },
  {
    "Teams": "ncaabpit;ncaafpit;ncaabtenn;ncaaftenn;ncaabvt;ncaafvt",
    "Name": "Miller's Ale House - Naples",
    "Address": "6320 Hollywood Blvd, Naples, FL 34109",
    "City": "MIA",
    "State": "FL",
    "latitude": 26.218915,
    "longitude": -81.7713963,
    "Phone": "239-591-0125",
    "Website": "https://millersalehouse.com/locations/naples/"
  },
  {
    "Teams": "ncaabmia;ncaafmia",
    "Name": "Shea's At Lansdowne Street",
    "Address": "720 5th Ave S suite #113, Naples, FL 34102",
    "City": "MIA",
    "State": "FL",
    "latitude": 26.1412014,
    "longitude": -81.7973686,
    "Phone": "239-304-9274",
    "Website": "http://www.sheasatlansdownest.com/"
  },
  {
    "Teams": "ncaabmsu;ncaafmsu",
    "Name": "Pelican Larry's Raw Bar & Grill",
    "Address": "8855 Immokalee Rd #17, Naples, FL 34120",
    "City": "MIA",
    "State": "FL",
    "latitude": 26.2745315,
    "longitude": -81.6861301,
    "Phone": "239-330-1300",
    "Website": "http://pelicanlarrys.com/pelican-larrys-immokalee-and-951-3/"
  },
  {
    "Teams": "ncaabisu;ncaafisu;ncaabmich;ncaafmich",
    "Name": "The Brass Tap",
    "Address": "895 Wiggins Pass Rd, Naples, FL 34110",
    "City": "MIA",
    "State": "FL",
    "latitude": 26.2948545,
    "longitude": -81.8029869,
    "Phone": "239-631-6397",
    "Website": "http://brasstapbeerbar.com/naples"
  },
  {
    "Teams": "ncaabcle;ncaafcle;ncaabmoh;ncaafmoh;ncaabmia;ncaafmia;ncaabmiz;ncaafmiz;ncaabnw;ncaafnw;ncaabnd;ncaafnd;ncaabosu;ncaafosu;ncaabou;ncaafou;ncaabpsu;ncaafpsu;ncaabpur;ncaafpur;ncaabsyr;ncaafsyr;ncaabvu;ncaabwis;ncaafwis;ncaabxu",
    "Name": "Bokamper's Sports Bar & Grill",
    "Address": "8990 Fontana Del Sol Way, Naples, FL 34109",
    "City": "MIA",
    "State": "FL",
    "latitude": 26.2444097,
    "longitude": -81.773352,
    "Phone": "239-431-7611",
    "Website": "http://www.bokampers.com/"
  },
  {
    "Teams": "nbamia;ncaabsyr;ncaafsyr",
    "Name": "Duffy's Sports Grill",
    "Address": "3969 NE 163rd St, North Miami Beach, FL 33160",
    "City": "MIA",
    "State": "FL",
    "latitude": 25.9307602,
    "longitude": -80.1312565,
    "Phone": "305-760-2124",
    "Website": "https://www.duffysmvp.com/"
  },
  {
    "Teams": "ncaabarmy;ncaafarmy;ncaabmia;ncaafmia;ncaabtenn;ncaaftenn;ncaabvu",
    "Name": "Duffy's Sports Grill",
    "Address": "11588 US-1, North Palm Beach, FL 33408",
    "City": "MIA",
    "State": "FL",
    "latitude": 26.8457233,
    "longitude": -80.0593705,
    "Phone": "561-721-2650",
    "Website": "https://www.duffysmvp.com/"
  },
  {
    "Teams": "nflmia",
    "Name": "Brass Ring Pub",
    "Address": "200 US-1, North Palm Beach, FL 33408",
    "City": "MIA",
    "State": "FL",
    "latitude": 26.8059246,
    "longitude": -80.0550194,
    "Phone": "561-848-4748",
    "Website": "http://brassringpub.rkorson.com/"
  },
  {
    "Teams": "ncaabuf;ncaafuf",
    "Name": "Draft House Bar & Grille",
    "Address": "713 US-1, North Palm Beach, FL 33408",
    "City": "MIA",
    "State": "FL",
    "latitude": 26.818235,
    "longitude": -80.0586919,
    "Phone": "561-812-2961",
    "Website": "https://drafthousebarandgrille.com/"
  },
  {
    "Teams": "nhlfla",
    "Name": "Funky Buddha Brewery",
    "Address": "1201 NE 38th St, Oakland Park, FL 33334",
    "City": "MIA",
    "State": "FL",
    "latitude": 26.1743279,
    "longitude": -80.1312498,
    "Phone": "954-440-0046",
    "Website": "http://www.funkybuddhabrewery.com/"
  },
  {
    "Teams": "nflbuf",
    "Name": "Boar's Nest Saloon",
    "Address": "381 W Prospect Rd, Oakland Park, FL 33309",
    "City": "MIA",
    "State": "FL",
    "latitude": 26.1814476,
    "longitude": -80.149647,
    "Phone": "954-938-5971",
    "Website": ""
  },
  {
    "Teams": "ncaabwvu;ncaafwvu",
    "Name": "The Snuggery",
    "Address": "2576 PGA Boulevard, Palm Beach Gardens, FL 33410",
    "City": "MIA",
    "State": "FL",
    "latitude": 26.8436997,
    "longitude": -80.0747523,
    "Phone": "561-622-2231",
    "Website": ""
  },
  {
    "Teams": "nflbuf",
    "Name": "Crazy Horse Saloon",
    "Address": "4240 Northlake Blvd, Palm Beach Gardens, FL 33410",
    "City": "MIA",
    "State": "FL",
    "latitude": 26.8076252,
    "longitude": -80.1018165,
    "Phone": "561-493-8909",
    "Website": "http://southpalmbeach.localmusicfinders.com/"
  },
  {
    "Teams": "ncaabfsu;ncaaffsu",
    "Name": "Burger Bar",
    "Address": "4650 Donald Ross Rd, Palm Beach Gardens, FL 33418",
    "City": "MIA",
    "State": "FL",
    "latitude": 26.881678,
    "longitude": -80.106689,
    "Phone": "561-630-4545",
    "Website": "http://www.burgerbar.com/"
  },
  {
    "Teams": "ncaabaub;ncaafaub",
    "Name": "Miller's Ale House - Gardens",
    "Address": "9800 FL A1AAlt, Palm Beach Gardens, FL 33410",
    "City": "MIA",
    "State": "FL",
    "latitude": 26.8197258,
    "longitude": -80.0831992,
    "Phone": "561-691-1915",
    "Website": "https://millersalehouse.com/locations/gardens/"
  },
  {
    "Teams": "nflmia;ncaabmia;ncaafmia;mlbnyy",
    "Name": "Hurricane Sports Grill",
    "Address": "10281 Pines Blvd, Pembroke Pines, FL 33025",
    "City": "MIA",
    "State": "FL",
    "latitude": 26.0094945,
    "longitude": -80.2832244,
    "Phone": "954-362-7530",
    "Website": "http://www.hurricanewings.com/"
  },
  {
    "Teams": "nflsf",
    "Name": "Miller's Ale House - Pembroke Pines",
    "Address": "11795 Pines Blvd, Pembroke Pines, FL 33026",
    "City": "MIA",
    "State": "FL",
    "latitude": 26.0083316,
    "longitude": -80.3055496,
    "Phone": "954-438-0111",
    "Website": "https://millersalehouse.com/locations/pembroke-pines/"
  },
  {
    "Teams": "nhlfla;ncaabgt;ncaafgt;ncaabku;ncaafku;nflmia",
    "Name": "Bokampers Sports Bar & Grill",
    "Address": "1280 S Pine Island Rd, Plantation, FL 33324",
    "City": "MIA",
    "State": "FL",
    "latitude": 26.1077407,
    "longitude": -80.262144,
    "Phone": "954-533-7152",
    "Website": "https://bokampers.com/plantation/"
  },
  {
    "Teams": "nhlfla",
    "Name": "LandLubber's Raw Bar & Grill",
    "Address": "1851 N Pine Island Rd, Plantation, FL 33322",
    "City": "MIA",
    "State": "FL",
    "latitude": 26.1483784,
    "longitude": -80.2703577,
    "Phone": "954-473-2884",
    "Website": "http://landlubbersbarandgrill.com/"
  },
  {
    "Teams": "nhlfla",
    "Name": "CRAFT on 14",
    "Address": "4561 6600 Northwest 14th Street #5, Plantation, FL 33313",
    "City": "MIA",
    "State": "FL",
    "latitude": 26.1417758,
    "longitude": -80.2378025,
    "Phone": "954-900-4505",
    "Website": "http://www.crafton14.com/"
  },
  {
    "Teams": "ncaabusf;ncaafusf",
    "Name": "Buffalo Wild Wings",
    "Address": "8000 W Broward Blvd, Plantation, FL 33388",
    "City": "MIA",
    "State": "FL",
    "latitude": 26.1178893,
    "longitude": -80.2542399,
    "Phone": "954-370-0194",
    "Website": "https://buffalowildwings.com/en/locations/detail/514/"
  },
  {
    "Teams": "nhlfla",
    "Name": "Duffy's Sports Grill",
    "Address": "811 S University Dr, Plantation, FL 33324",
    "City": "MIA",
    "State": "FL",
    "latitude": 26.109788,
    "longitude": -80.251248,
    "Phone": "954-473-0477",
    "Website": "http://duffysmvp.com/"
  },
  {
    "Teams": "ncaabmsu;ncaafmsu",
    "Name": "Stinger's Bar & Grill",
    "Address": "1201 S Ocean Blvd, Pompano Beach, FL 33062",
    "City": "MIA",
    "State": "FL",
    "latitude": 26.222604,
    "longitude": -80.09186,
    "Phone": "954-782-2344",
    "Website": "http://stingerspizza.com/"
  },
  {
    "Teams": "ncaabcle;ncaafcle;ncaabfsu;ncaaffsu",
    "Name": "Bru's Room Sports Grill",
    "Address": "235 S Federal Hwy, Pompano Beach, FL 33062",
    "City": "MIA",
    "State": "FL",
    "latitude": 26.2290803,
    "longitude": -80.1031922,
    "Phone": "954-785-2227",
    "Website": "http://www.brusroom.com/"
  },
  {
    "Teams": "nhlfla",
    "Name": "26ÔøΩ Brewing Co.",
    "Address": "2600 E Atlantic Blvd, Pompano Beach, FL 33062",
    "City": "MIA",
    "State": "FL",
    "latitude": 26.2313683,
    "longitude": -80.0977731,
    "Phone": "954-532-6964",
    "Website": "http://www.26brewing.com/"
  },
  {
    "Teams": "nflbuf",
    "Name": "Brendan's Sports Pub",
    "Address": "868 S Federal Hwy, Pompano Beach, FL 33062",
    "City": "MIA",
    "State": "FL",
    "latitude": 26.2196209,
    "longitude": -80.1042232,
    "Phone": "954-786-0033",
    "Website": "http://www.brendanssportspub.com/"
  },
  {
    "Teams": "ncaabosu;ncaafosu;ncaabucf;ncaafucf",
    "Name": "Recovery Sports Grill",
    "Address": "10350 SW Don, R. Led, NW Duke Ave, Port St. Lucie, FL 34987",
    "City": "MIA",
    "State": "FL",
    "latitude": 27.2632112,
    "longitude": -80.4297822,
    "Phone": "772-345-8490",
    "Website": "http://www.recoverysportsgrill.com/"
  },
  {
    "Teams": "nflnyg",
    "Name": "Duffy's Sports Grill",
    "Address": "1608 NW Courtyard Cir, Port St. Lucie, FL 34986",
    "City": "MIA",
    "State": "FL",
    "latitude": 27.3151189,
    "longitude": -80.4087953,
    "Phone": "772-924-3565",
    "Website": "https://www.duffysmvp.com/"
  },
  {
    "Teams": "ncaabpsu;ncaafpsu",
    "Name": "Tavola Pizza",
    "Address": "1672 SE Port St Lucie Blvd, Port St. Lucie, FL 34952",
    "City": "MIA",
    "State": "FL",
    "latitude": 27.271085,
    "longitude": -80.300543,
    "Phone": "772-335-0344",
    "Website": "http://www.tavolapizza.com/"
  },
  {
    "Teams": "nfldet",
    "Name": "Tail-Gators Brews & Grill",
    "Address": "464 SW Port St Lucie Blvd #103, Port St. Lucie, FL 34953",
    "City": "MIA",
    "State": "FL",
    "latitude": 27.272492,
    "longitude": -80.358969,
    "Phone": "772-879-2700",
    "Website": "https://www.facebook.com/TailGatorsBrews/menu/"
  },
  {
    "Teams": "nflpit",
    "Name": "Bonefish Mac's Sports Grille",
    "Address": "662 SE Becker Rd, Port St. Lucie, FL 34984",
    "City": "MIA",
    "State": "FL",
    "latitude": 27.2092386,
    "longitude": -80.3274702,
    "Phone": "772-344-6227",
    "Website": "http://www.bonefishmacs.com/"
  },
  {
    "Teams": "nflsf;ncaabucf;ncaafucf",
    "Name": "Buffalo Wild Wings",
    "Address": "5701 FL-986 Suite B-13A, South Miami, FL 33143",
    "City": "MIA",
    "State": "FL",
    "latitude": 25.7061398,
    "longitude": -80.2857538,
    "Phone": "305-668-0911",
    "Website": "https://buffalowildwings.com/en"
  },
  {
    "Teams": "ncaabshu;ncaabuf;ncaafuf",
    "Name": "Deli Lane Cafe & Sunset Tavern",
    "Address": "7230 SW 59th Ave, South Miami, FL 33143",
    "City": "MIA",
    "State": "FL",
    "latitude": 25.70369,
    "longitude": -80.2895907,
    "Phone": "305-665-0606",
    "Website": "http://www.delilane.com/"
  },
  {
    "Teams": "ncaabuf;ncaafuf",
    "Name": "Charlie's Neighborhood Bar and Grill",
    "Address": "400 SE Parrot Circle, (located between Salerno Rd and Pomeroy St), Stuart, FL 34997",
    "City": "MIA",
    "State": "FL",
    "latitude": 27.140958,
    "longitude": -80.2462,
    "Phone": "772-288-4326",
    "Website": "http://www.ilovecharlies.com/"
  },
  {
    "Teams": "nhlfla",
    "Name": "The Inn-Field",
    "Address": "11439 W Oakland Park Blvd, Sunrise, FL 33323",
    "City": "MIA",
    "State": "FL",
    "latitude": 26.169173,
    "longitude": -80.300955,
    "Phone": "954-741-2100",
    "Website": "http://www.theinnfield.com/"
  },
  {
    "Teams": "nhlfla",
    "Name": "Uncle Al's Sports Cafe",
    "Address": "15846 W State Rd 84, Sunrise, FL 33326",
    "City": "MIA",
    "State": "FL",
    "latitude": 26.1221398,
    "longitude": -80.3580131,
    "Phone": "954-389-4455",
    "Website": "http://www.unclealscafe.com/"
  },
  {
    "Teams": "nflnyg",
    "Name": "Bru's Room Wings and Things",
    "Address": "9060 W Commercial Blvd, Sunrise, FL 33351",
    "City": "MIA",
    "State": "FL",
    "latitude": 26.193002,
    "longitude": -80.272543,
    "Phone": "954-746-9696",
    "Website": "https://brusroom.com/locations/sunrise-wings-things/"
  },
  {
    "Teams": "ncaabind;ncaafind",
    "Name": "Buffalo Wild Wings",
    "Address": "5235 University Pkwy, University Park, FL 34201",
    "City": "MIA",
    "State": "FL",
    "latitude": 27.3889801,
    "longitude": -82.4654523,
    "Phone": "941-351-8584",
    "Website": "https://buffalowildwings.com/en/locations/detail/3591/"
  },
  {
    "Teams": "ncaabuva;ncaafuva",
    "Name": "E.R. Bradley's Saloon",
    "Address": "104 N Clematis St, West Palm Beach, FL 33401",
    "City": "MIA",
    "State": "FL",
    "latitude": 26.7124951,
    "longitude": -80.0496919,
    "Phone": "561-833-3520",
    "Website": "https://www.erbradleys.com/"
  },
  {
    "Teams": "ncaabwis;ncaafwis",
    "Name": "Hot Pie Pizza",
    "Address": "123 S Olive Ave, West Palm Beach, FL 33401",
    "City": "MIA",
    "State": "FL",
    "latitude": 26.7126518,
    "longitude": -80.0520842,
    "Phone": "561-655-2511",
    "Website": "http://www.hotpiepizza.com/"
  },
  {
    "Teams": "ncaabuva;ncaafuva",
    "Name": "BJ's Restaurant & Brewhouse",
    "Address": "1807 Palm Beach Lakes Blvd, West Palm Beach, FL 33401",
    "City": "MIA",
    "State": "FL",
    "latitude": 26.7227118,
    "longitude": -80.0869269,
    "Phone": "561-693-0450",
    "Website": "https://www.bjsrestaurants.com/locations/fl/west-palm-beach"
  },
  {
    "Teams": "ncaabgt;ncaafgt",
    "Name": "Applebee's Grill + Bar",
    "Address": "1975 N Military Trl, West Palm Beach, FL 33409",
    "City": "MIA",
    "State": "FL",
    "latitude": 26.7060815,
    "longitude": -80.1117472,
    "Phone": "561-683-0709",
    "Website": "https://restaurants.applebees.com/fl/west-palm-beach-78064/"
  },
  {
    "Teams": "nflchi",
    "Name": "American Craft Aleworks",
    "Address": "200 Clematis St, West Palm Beach, FL 33401",
    "City": "MIA",
    "State": "FL",
    "latitude": 26.7131429,
    "longitude": -80.0508325,
    "Phone": "561-425-5799",
    "Website": "http://www.americancraftaleworks.com/"
  },
  {
    "Teams": "ncaabfsu;ncaaffsu",
    "Name": "Grease Burger Bar",
    "Address": "213 Clematis St, West Palm Beach, FL 33401",
    "City": "MIA",
    "State": "FL",
    "latitude": 26.7134119,
    "longitude": -80.0512535,
    "Phone": "561-651-1075",
    "Website": "http://greasewpb.com/"
  },
  {
    "Teams": "ncaabpsu;ncaafpsu",
    "Name": "Twin Peaks West Palm Beach",
    "Address": "2224 Palm Beach Lakes Blvd, West Palm Beach, FL 33409",
    "City": "MIA",
    "State": "FL",
    "latitude": 26.7102885,
    "longitude": -80.0964474,
    "Phone": "561-508-9490",
    "Website": "https://twinpeaksrestaurant.com/locations/west-palm-beach-fl"
  },
  {
    "Teams": "nflbuf",
    "Name": "Duffy's Sports Grill",
    "Address": "225 Clematis St, West Palm Beach, FL 33401",
    "City": "MIA",
    "State": "FL",
    "latitude": 26.713424,
    "longitude": -80.051768,
    "Phone": "561-249-1682",
    "Website": "https://www.duffysmvp.com/"
  },
  {
    "Teams": "ncaabuf;ncaafuf",
    "Name": "Roxy's Pub",
    "Address": "309 Clematis St, West Palm Beach, FL 33401",
    "City": "MIA",
    "State": "FL",
    "latitude": 26.7136306,
    "longitude": -80.0523493,
    "Phone": "561-296-7699",
    "Website": "http://roxyspub.com/"
  },
  {
    "Teams": "ncaabmia;ncaafmia",
    "Name": "West Palm Brewery & Wine Vault",
    "Address": "332 Evernia St, West Palm Beach, FL 33401",
    "City": "MIA",
    "State": "FL",
    "latitude": 26.71108,
    "longitude": -80.053153,
    "Phone": "561-619-8813",
    "Website": "http://westpalmbeer.com/"
  },
  {
    "Teams": "ncaabbama;ncaafbama;ncaabuga;ncaafuga;ncaabgt;ncaafgt;ncaabusf;ncaafusf;ncaabuva;ncaafuva",
    "Name": "Buffalo Wild Wings",
    "Address": "4576 Okeechobee Blvd, West Palm Beach, FL 33417",
    "City": "MIA",
    "State": "FL",
    "latitude": 26.7063095,
    "longitude": -80.1123208,
    "Phone": "561-687-2999",
    "Website": "https://buffalowildwings.com/en/locations/detail/493/"
  },
  {
    "Teams": "nflsf",
    "Name": "Girafa's Sports GRILL",
    "Address": "5096 Forest Hill Blvd #900, West Palm Beach, FL 33415",
    "City": "MIA",
    "State": "FL",
    "latitude": 26.651351,
    "longitude": -80.122302,
    "Phone": "561-432-6666",
    "Website": ""
  },
  {
    "Teams": "ncaabcle;ncaafcle",
    "Name": "O'Sheas Irish Pub",
    "Address": "531 Clematis St, West Palm Beach, FL 33401",
    "City": "MIA",
    "State": "FL",
    "latitude": 26.7135805,
    "longitude": -80.056556,
    "Phone": "561-833-3865",
    "Website": "http://www.osheaspub.com/"
  },
  {
    "Teams": "ncaabku;ncaafku;nflne;nflnyg;ncaabnd;ncaafnd",
    "Name": "Dorrian's West Palm Beach",
    "Address": "5512, 215 Clematis St, West Palm Beach, FL 33401",
    "City": "MIA",
    "State": "FL",
    "latitude": 26.713441,
    "longitude": -80.051323,
    "Phone": "561-355-1401",
    "Website": "http://www.dorrians-wpb.com/"
  },
  {
    "Teams": "nflpit;ncaabucf;ncaafucf",
    "Name": "Brother Jimmy's BBQ",
    "Address": "700 S Rosemary Ave #232, West Palm Beach, FL 33401",
    "City": "MIA",
    "State": "FL",
    "latitude": 26.7083417,
    "longitude": -80.0564628,
    "Phone": "561-619-5604",
    "Website": "http://www.brotherjimmys.com/_west_palm_/13288"
  },
  {
    "Teams": "nfljax",
    "Name": "Duffy's Sports Grill",
    "Address": "721 Village Blvd, West Palm Beach, FL 33409",
    "City": "MIA",
    "State": "FL",
    "latitude": 26.7134634,
    "longitude": -80.1004908,
    "Phone": "561-688-1820",
    "Website": "https://www.duffysmvp.com/"
  },
  {
    "Teams": "ncaabusf;ncaafusf",
    "Name": "Duffy's Sports Grill",
    "Address": "1800 Bell Tower Ln, Weston, FL 33326",
    "City": "MIA",
    "State": "FL",
    "latitude": 26.096118,
    "longitude": -80.379737,
    "Phone": "954-389-2552",
    "Website": "https://www.duffysmvp.com/"
  },
  {
    "Teams": "ncaabfiu;ncaaffiu;nhlfla;ncaabmia;ncaafmia",
    "Name": "Carolina Ale House",
    "Address": "2618 Weston Rd, Weston, FL 33331",
    "City": "MIA",
    "State": "FL",
    "latitude": 26.0863822,
    "longitude": -80.3707113,
    "Phone": "954-217-1233",
    "Website": "http://www.carolinaalehouse.com/"
  }
]