[
  {
    "Teams": "ncaabsyr;ncaafsyr",
    "Name": "Juniors Bar and Grill",
    "Address": "1094 Madison Ave, Albany, NY 12208",
    "City": "NYC",
    "State": "NY",
    "latitude": 42.6659353,
    "longitude": -73.7915722,
    "Phone": "518-935-2025",
    "Website": "http://www.juniorsbarandgrill.com/"
  },
  {
    "Teams": "ncaabku;ncaafku",
    "Name": "Lynn's Uptown Tavern",
    "Address": "15 Colvin Ave, Albany, NY 12206",
    "City": "NYC",
    "State": "NY",
    "latitude": 42.677411,
    "longitude": -73.796494,
    "Phone": "518-453-1566",
    "Website": "http://www.lynnsuptowntavern.com/"
  },
  {
    "Teams": "nflbuf",
    "Name": "McGeary's",
    "Address": "4 Clinton Square, Albany, NY 12207",
    "City": "NYC",
    "State": "NY",
    "latitude": 42.6540588,
    "longitude": -73.750545,
    "Phone": "518-463-1455",
    "Website": "http://www.mcgearyspub.com/"
  },
  {
    "Teams": "mlsnyc",
    "Name": "Wolff's Biergarten",
    "Address": "895 Broadway, Albany, NY 12207",
    "City": "NYC",
    "State": "NY",
    "latitude": 42.660913,
    "longitude": -73.744648,
    "Phone": "518-427-2461",
    "Website": "http://www.wolffsbiergarten.com/"
  },
  {
    "Teams": "nflnyj;mlbnyy",
    "Name": "Rocky McBride's",
    "Address": "27-01 23rd Ave, Astoria, NY 11105",
    "City": "NYC",
    "State": "NY",
    "latitude": 40.7760396,
    "longitude": -73.9150008,
    "Phone": "718-777-2723",
    "Website": "http://www.rockymcbrides.com/"
  },
  {
    "Teams": "mlsnyc;ncaabsju",
    "Name": "Katch Astoria",
    "Address": "31-19 Newtown Ave, Astoria, NY 11102",
    "City": "NYC",
    "State": "NY",
    "latitude": 40.767206,
    "longitude": -73.92011,
    "Phone": "718-777-2230",
    "Website": "https://www.katchastoria.com/"
  },
  {
    "Teams": "nbabkn",
    "Name": "Mad Donkey Beer Bar & Grill",
    "Address": "32-07 36th Ave, Astoria, NY 11106",
    "City": "NYC",
    "State": "NY",
    "latitude": 40.7561689,
    "longitude": -73.9285358,
    "Phone": "718-204-2070",
    "Website": "http://maddonkeyny.com/"
  },
  {
    "Teams": "nflcle",
    "Name": "Twist and Smash'd Sports",
    "Address": "34-02 Steinway St, Astoria, NY 11101",
    "City": "NYC",
    "State": "NY",
    "latitude": 40.756628,
    "longitude": -73.9212406,
    "Phone": "718-806-1542",
    "Website": "http://www.twistandsmashd.com/"
  },
  {
    "Teams": "mlsnyc",
    "Name": "Lily Flanagan's Pub",
    "Address": "345 Deer Park Ave, Babylon, NY 11702",
    "City": "NYC",
    "State": "NY",
    "latitude": 40.701724,
    "longitude": -73.321883,
    "Phone": "631-539-0816",
    "Website": "http://lilyflanaganspub.com/"
  },
  {
    "Teams": "nflbuf",
    "Name": "Bentley's Tavern",
    "Address": "4 Hemphill Pl, Ballston Spa, NY 12020",
    "City": "NYC",
    "State": "NY",
    "latitude": 42.9706437,
    "longitude": -73.7900621,
    "Phone": "518-899-4300",
    "Website": "http://www.myfavoritetaverns.com/taverns/bentleys/"
  },
  {
    "Teams": "mlbnym",
    "Name": "Changing Times American Sports Bar and Grille",
    "Address": "29 E Main St, Bay Shore, NY 11706",
    "City": "NYC",
    "State": "NY",
    "latitude": 40.722309,
    "longitude": -73.247364,
    "Phone": "631-647-7871",
    "Website": "http://changingtimespubs.com/bayshore/"
  },
  {
    "Teams": "nbanyk",
    "Name": "Pour House",
    "Address": "21311 41st Ave, Bayside, NY 11361",
    "City": "NYC",
    "State": "NY",
    "latitude": 40.7636686,
    "longitude": -73.7714138,
    "Phone": "718-224-7687",
    "Website": ""
  },
  {
    "Teams": "ncaabsju",
    "Name": "Bourbon Street",
    "Address": "40-12 Bell Blvd, Bayside, NY 11361",
    "City": "NYC",
    "State": "NY",
    "latitude": 40.7638382,
    "longitude": -73.7712883,
    "Phone": "718-224-2200",
    "Website": "https://www.bourbonstreetny.com/"
  },
  {
    "Teams": "mlsnyrb",
    "Name": "One Eye Jacks",
    "Address": "380 N Wantagh Ave, Bethpage, NY 11714",
    "City": "NYC",
    "State": "NY",
    "latitude": 40.7350136,
    "longitude": -73.4955527,
    "Phone": "516-342-1732",
    "Website": ""
  },
  {
    "Teams": "nbabkn;nflnyg",
    "Name": "Bronx Alehouse",
    "Address": "216 W 238th St, Bronx, NY 10463",
    "City": "NYC",
    "State": "NY",
    "latitude": 40.8846487,
    "longitude": -73.8996766,
    "Phone": "718-601-0204",
    "Website": "http://www.bronxalehouse.com/"
  },
  {
    "Teams": "nhlnyr",
    "Name": "Brewski's Bar & Grill",
    "Address": "3718 E Tremont Ave, Bronx, NY 10465",
    "City": "NYC",
    "State": "NY",
    "latitude": 40.8265588,
    "longitude": -73.8224449,
    "Phone": "718-684-2900",
    "Website": "http://brewskisnewyork.com/"
  },
  {
    "Teams": "nbanyk",
    "Name": "Rambling House",
    "Address": "4292 Katonah Ave, Bronx, NY 10470",
    "City": "NYC",
    "State": "NY",
    "latitude": 40.8984987,
    "longitude": -73.8670844,
    "Phone": "718-798-4510",
    "Website": "http://www.ramblinghousenyc.com/"
  },
  {
    "Teams": "ncaabsyr;ncaafsyr",
    "Name": "Bobby Q's Cue & Co",
    "Address": "11 Merwin St, Norwalk, CT 06850",
    "City": "NYC",
    "State": "CT",
    "latitude": 41.112538,
    "longitude": -73.4151553,
    "Phone": "203-831-0354",
    "Website": "http://www.bobbyqsrestaurant.com/"
  },
  {
    "Teams": "mlbnyy",
    "Name": "Yankee Tavern",
    "Address": "72 E 161st St, Bronx, NY 10451",
    "City": "NYC",
    "State": "NY",
    "latitude": 40.8273059,
    "longitude": -73.9252404,
    "Phone": "718-292-6130",
    "Website": "http://www.yankeetavern.com/"
  },
  {
    "Teams": "mlbnyy",
    "Name": "Stan's Sports Bar",
    "Address": "836 River Ave, Bronx, NY 10451",
    "City": "NYC",
    "State": "NY",
    "latitude": 40.8266933,
    "longitude": -73.9263987,
    "Phone": "718-993-5548",
    "Website": "http://stanssportsbar.com/"
  },
  {
    "Teams": "mlsnyc",
    "Name": "The Bronx Brewery",
    "Address": "856 E 136th St, Bronx, NY 10454",
    "City": "NYC",
    "State": "NY",
    "latitude": 40.8019015,
    "longitude": -73.910599,
    "Phone": "718-402-1000",
    "Website": "http://www.thebronxbrewery.com/"
  },
  {
    "Teams": "ncaabbc;ncaafbc;nflbuf",
    "Name": "Brother Jimmy's BBQ",
    "Address": "112 Bedford St, Stamford, CT 06901",
    "City": "NYC",
    "State": "CT",
    "latitude": 41.0561908,
    "longitude": -73.538956,
    "Phone": "203-504-8123",
    "Website": "http://www.brotherjimmys.com/stamford"
  },
  {
    "Teams": "mlsnyc;mlbnyy",
    "Name": "Billy's",
    "Address": "856 River Ave, Bronx, NY 10451",
    "City": "NYC",
    "State": "NY",
    "latitude": 40.8272129,
    "longitude": -73.9259444,
    "Phone": "718-665-6180",
    "Website": "https://m.facebook.com/BillySportsBar/"
  },
  {
    "Teams": "mlbnyy",
    "Name": "Bronx Drafthouse",
    "Address": "884 Gerard Ave, Bronx, NY 10452",
    "City": "NYC",
    "State": "NY",
    "latitude": 40.828006,
    "longitude": -73.924428,
    "Phone": "929-265-9759",
    "Website": "http://bronxdrafthouse.com/"
  },
  {
    "Teams": "nhlnyr",
    "Name": "Suspenders Restaurant & Pub",
    "Address": "1131 Magie Ave, Union, NJ 07083",
    "City": "NYC",
    "State": "NJ",
    "latitude": 40.6731967,
    "longitude": -74.2471781,
    "Phone": "908-965-1131",
    "Website": "http://www.suspenderspub.com/"
  },
  {
    "Teams": "nbabkn;nflcle",
    "Name": "Johnny Mack's Bar & Grill",
    "Address": "1114 8th Ave, Brooklyn, NY 11215",
    "City": "NYC",
    "State": "NY",
    "latitude": 40.6641739,
    "longitude": -73.9807749,
    "Phone": "718-832-7961",
    "Website": "http://johnnymacksbrooklyn.com/"
  },
  {
    "Teams": "nflno",
    "Name": "Magazine Bar",
    "Address": "130 Franklin St, Brooklyn, NY 11222",
    "City": "NYC",
    "State": "NY",
    "latitude": 40.7293588,
    "longitude": -73.957363,
    "Phone": "",
    "Website": ""
  },
  {
    "Teams": "mlsnyc",
    "Name": "Banter Bar",
    "Address": "132 Havemeyer St, Brooklyn, NY 11211",
    "City": "NYC",
    "State": "NY",
    "latitude": 40.7121963,
    "longitude": -73.957301,
    "Phone": "718-599-5200",
    "Website": "http://www.banterbrooklyn.com/"
  },
  {
    "Teams": "nflno",
    "Name": "Catfish",
    "Address": "1433 Bedford Ave, Brooklyn, NY 11216",
    "City": "NYC",
    "State": "NY",
    "latitude": 40.67414,
    "longitude": -73.953695,
    "Phone": "347-305-3233",
    "Website": "http://www.catfishnyc.com/"
  },
  {
    "Teams": "nflbuf",
    "Name": "Fulton Ale House",
    "Address": "1446 Fulton St, Brooklyn, NY 11216",
    "City": "NYC",
    "State": "NY",
    "latitude": 40.679882,
    "longitude": -73.942986,
    "Phone": "718-450-3038",
    "Website": "https://www.facebook.com/fultonalehousebklyn/"
  },
  {
    "Teams": "nflnyg",
    "Name": "Joe's Tavern",
    "Address": "12 W Broad St, Bethlehem, PA 18018",
    "City": "NYC",
    "State": "PA",
    "latitude": 40.6224781,
    "longitude": -75.3789598,
    "Phone": "610-868-3200",
    "Website": "http://www.joestavern.com/"
  },
  {
    "Teams": "nhltor",
    "Name": "UpNorth",
    "Address": "17 Wyckoff Ave, Brooklyn, NY 11237",
    "City": "NYC",
    "State": "NY",
    "latitude": 40.706851,
    "longitude": -73.922854,
    "Phone": "718-456-1700",
    "Website": "https://www.upnorthbk.com/"
  },
  {
    "Teams": "ncaabku;ncaafku",
    "Name": "Emblem",
    "Address": "187 Graham Ave, Brooklyn, NY 11206",
    "City": "NYC",
    "State": "NY",
    "latitude": 40.7084433,
    "longitude": -73.9436284,
    "Phone": "347-689-2338",
    "Website": "http://emblemsportsbar.com/"
  },
  {
    "Teams": "nflnyj",
    "Name": "200 Fifth",
    "Address": "200 5th Ave, Brooklyn, NY 11217",
    "City": "NYC",
    "State": "NY",
    "latitude": 40.6768115,
    "longitude": -73.980462,
    "Phone": "718-638-2925",
    "Website": "http://www.200-fifth.com/"
  },
  {
    "Teams": "mlbnyy",
    "Name": "Farrell's",
    "Address": "215 Prospect Park West, Brooklyn, NY 11215",
    "City": "NYC",
    "State": "NY",
    "latitude": 40.6601937,
    "longitude": -73.9801992,
    "Phone": "718-788-8779",
    "Website": ""
  },
  {
    "Teams": "mlbbos",
    "Name": "Angry Wade's",
    "Address": "222 Smith St, Brooklyn, NY 11231",
    "City": "NYC",
    "State": "NY",
    "latitude": 40.6840796,
    "longitude": -73.9924106,
    "Phone": "718-488-7210",
    "Website": "https://www.facebook.com/AngryWades"
  },
  {
    "Teams": "ncaabuf;ncaafuf",
    "Name": "Roebling Sporting Club",
    "Address": "225 N 8th St, Brooklyn, NY 11211",
    "City": "NYC",
    "State": "NY",
    "latitude": 40.717011,
    "longitude": -73.954648,
    "Phone": "718-388-3088",
    "Website": "http://roeblingsportingclubnewyork.com/"
  },
  {
    "Teams": "nflphi",
    "Name": "Shorty's",
    "Address": "229 Flatbush Ave, Brooklyn, NY 11217",
    "City": "NYC",
    "State": "NY",
    "latitude": 40.6812935,
    "longitude": -73.9751401,
    "Phone": "917-966-6029",
    "Website": "http://www.shortysnyc.com/"
  },
  {
    "Teams": "nflnyj",
    "Name": "Fulton Hall",
    "Address": "250 Ashland Pl, Brooklyn, NY 11217",
    "City": "NYC",
    "State": "NY",
    "latitude": 40.6876238,
    "longitude": -73.9785601,
    "Phone": "718-301-8479",
    "Website": "http://www.fultonhall.com/"
  },
  {
    "Teams": "nflden",
    "Name": "Applebee's Grill + Bar",
    "Address": "2505 Emmons Ave, Brooklyn, NY 11235",
    "City": "NYC",
    "State": "NY",
    "latitude": 40.5839679,
    "longitude": -73.9433077,
    "Phone": "718-769-4889",
    "Website": "https://restaurants.applebees.com/ny/brooklyn-96090/"
  },
  {
    "Teams": "nflchi;mlbchc",
    "Name": "Canal Bar",
    "Address": "270 3rd Ave # A, Brooklyn, NY 11215",
    "City": "NYC",
    "State": "NY",
    "latitude": 40.677907,
    "longitude": -73.9858806,
    "Phone": "718-246-0011",
    "Website": "http://www.canalbar.com/"
  },
  {
    "Teams": "nbabkn;nhlnyi",
    "Name": "Union Grounds",
    "Address": "270 Smith St between Degraw St &amp;, Sackett St, Brooklyn, NY 11231",
    "City": "NYC",
    "State": "NY",
    "latitude": 40.682668,
    "longitude": -73.9933502,
    "Phone": "347-763-1935",
    "Website": "http://www.uniongroundsbk.com/"
  },
  {
    "Teams": "nflcle",
    "Name": "Colony 274",
    "Address": "274 4th Ave, Brooklyn, NY 11215",
    "City": "NYC",
    "State": "NY",
    "latitude": 40.6759631,
    "longitude": -73.9844807,
    "Phone": "718-781-4862",
    "Website": "http://www.colony274.com/"
  },
  {
    "Teams": "ncaabmich;ncaafmich",
    "Name": "Harlan Publick",
    "Address": "127 Washington St, Norwalk, CT 06854",
    "City": "NYC",
    "State": "CT",
    "latitude": 41.0994225,
    "longitude": -73.4168776,
    "Phone": "203-831-0727",
    "Website": "http://www.harlanpublick.com/"
  },
  {
    "Teams": "nbabkn",
    "Name": "Dram Shop",
    "Address": "339 9th St, Brooklyn, NY 11215",
    "City": "NYC",
    "State": "NY",
    "latitude": 40.6688658,
    "longitude": -73.9850575,
    "Phone": "718-788-1444",
    "Website": "http://www.dramshopbrooklyn.com/Home.html"
  },
  {
    "Teams": "nflcle",
    "Name": "Park Slope Ale House",
    "Address": "356 6th Ave, Brooklyn, NY 11215",
    "City": "NYC",
    "State": "NY",
    "latitude": 40.6706291,
    "longitude": -73.9820343,
    "Phone": "718-788-1756",
    "Website": "http://parkslopealehouse.com/"
  },
  {
    "Teams": "nbabkn",
    "Name": "Third & Seven",
    "Address": "3622 Quentin Rd, Brooklyn, NY 11234",
    "City": "NYC",
    "State": "NY",
    "latitude": 40.6149669,
    "longitude": -73.9360653,
    "Phone": "718-336-6300",
    "Website": "http://www.3rdand7tavern.com/"
  },
  {
    "Teams": "nhlnyi;ncaabnw;ncaafnw;ncaabpit;ncaafpit",
    "Name": "McMahon's Public House",
    "Address": "39 5th Ave, Brooklyn, NY 11217",
    "City": "NYC",
    "State": "NY",
    "latitude": 40.681648,
    "longitude": -73.9765504,
    "Phone": "718-230-4549",
    "Website": "http://mcmahonspublichouse.com/"
  },
  {
    "Teams": "nflne",
    "Name": "Halyards",
    "Address": "406 3rd Ave, Brooklyn, NY 11215",
    "City": "NYC",
    "State": "NY",
    "latitude": 40.6732683,
    "longitude": -73.9897719,
    "Phone": "718-532-8787",
    "Website": "http://www.barhalyards.com/"
  },
  {
    "Teams": "mlsnyc",
    "Name": "The Rookery Bar",
    "Address": "425 Troutman St, Brooklyn, NY 11237",
    "City": "NYC",
    "State": "NY",
    "latitude": 40.7074254,
    "longitude": -73.9221928,
    "Phone": "718-483-8048",
    "Website": "http://www.therookerybar.com/"
  },
  {
    "Teams": "nbabkn",
    "Name": "The Whiskey Brooklyn",
    "Address": "44 Berry St, Brooklyn, NY 11211",
    "City": "NYC",
    "State": "NY",
    "latitude": 40.7211404,
    "longitude": -73.9569607,
    "Phone": "718-387-8444",
    "Website": "http://whiskeybrooklyn.com/"
  },
  {
    "Teams": "ncaabcle;ncaafcle;ncaablou;ncaaflou;ncaabmich;ncaafmich;mlsnyc;nhlnyi;ncaabusc;ncaafusc;ncaabvt;ncaafvt",
    "Name": "The Montrose",
    "Address": "47 5th Ave, Brooklyn, NY 11217",
    "City": "NYC",
    "State": "NY",
    "latitude": 40.6813638,
    "longitude": -73.9769601,
    "Phone": "347-763-0010",
    "Website": "http://www.themontrosebk.com/"
  },
  {
    "Teams": "nbabkn",
    "Name": "Rustik Tavern",
    "Address": "471 Dekalb Ave, Brooklyn, NY 11205",
    "City": "NYC",
    "State": "NY",
    "latitude": 40.69074,
    "longitude": -73.958258,
    "Phone": "347-406-9700",
    "Website": "http://rustiktavern.com/"
  },
  {
    "Teams": "ncaabosu;ncaafosu",
    "Name": "Pig Beach",
    "Address": "480 Union St, Brooklyn, NY 11231",
    "City": "NYC",
    "State": "NY",
    "latitude": 40.6795478,
    "longitude": -73.9889153,
    "Phone": "",
    "Website": "http://pigbeachnyc.com/"
  },
  {
    "Teams": "nflbuf",
    "Name": "Redd's Tavern",
    "Address": "511 Grand St, Brooklyn, NY 11211",
    "City": "NYC",
    "State": "NY",
    "latitude": 40.7111202,
    "longitude": -73.9506856,
    "Phone": "718-218-9429",
    "Website": "http://reddstavern.com/Location.html"
  },
  {
    "Teams": "nbabkn",
    "Name": "Uncle Barry's",
    "Address": "58 5th Ave, Brooklyn, NY 11217",
    "City": "NYC",
    "State": "NY",
    "latitude": 40.681308,
    "longitude": -73.9773637,
    "Phone": "718-622-4980",
    "Website": "http://www.unclebarrys.com/"
  },
  {
    "Teams": "nbabkn",
    "Name": "Brooklyn Tap House",
    "Address": "590 Myrtle Ave, Brooklyn, NY 11205",
    "City": "NYC",
    "State": "NY",
    "latitude": 40.693869,
    "longitude": -73.960652,
    "Phone": "347-750-7557",
    "Website": "https://brooklyn-tap-house.business.site/"
  },
  {
    "Teams": "ncaabokst;ncaafokst;ncaabtlsa;ncaaftlsa",
    "Name": "O'Keefe's Bar & Grill",
    "Address": "62 Court St, Brooklyn, NY 11201",
    "City": "NYC",
    "State": "NY",
    "latitude": 40.6920292,
    "longitude": -73.9914025,
    "Phone": "718-855-8751",
    "Website": "https://www.okeefesbarandgrill.com/"
  },
  {
    "Teams": "mlbnyy",
    "Name": "Croxley's Ale House - Brooklyn",
    "Address": "63 Grand St, Brooklyn, NY 11249",
    "City": "NYC",
    "State": "NY",
    "latitude": 40.7160369,
    "longitude": -73.9648332,
    "Phone": "718-387-4290",
    "Website": "https://croxley.com/brooklyn/"
  },
  {
    "Teams": "nflwas",
    "Name": "Second Chance Saloon",
    "Address": "659 Grand St, Brooklyn, NY 11211",
    "City": "NYC",
    "State": "NY",
    "latitude": 40.7115567,
    "longitude": -73.9460505,
    "Phone": "718-387-4411",
    "Website": ""
  },
  {
    "Teams": "mlbnyy;nflphi",
    "Name": "Brooklyn Pub",
    "Address": "689 6th Ave, Brooklyn, NY 11215",
    "City": "NYC",
    "State": "NY",
    "latitude": 40.6605576,
    "longitude": -73.9903674,
    "Phone": "718-369-0088",
    "Website": "http://www.brooklynpub.com/"
  },
  {
    "Teams": "nbabkn",
    "Name": "Mullanes Bar & Grill",
    "Address": "71 Lafayette Ave, Brooklyn, NY 11217",
    "City": "NYC",
    "State": "NY",
    "latitude": 40.6873141,
    "longitude": -73.9754613,
    "Phone": "718-797-7606",
    "Website": "http://www.mullanesbrooklyn.com/"
  },
  {
    "Teams": "mlsnyrb",
    "Name": "Firkin Tavern",
    "Address": "1400 Parkway Ave #1, Ewing Township, NJ 08628",
    "City": "NYC",
    "State": "NJ",
    "latitude": 40.2671418,
    "longitude": -74.8061853,
    "Phone": "609-771-0100",
    "Website": "http://www.firkintavern.com/"
  },
  {
    "Teams": "nhlbos;nbabkn;nflchi;nhlchi;mlbchc;nhlcbj;nhlnsh;nhlnyi;nhlnyr;nhlpit;nhlsjs;nhltbl;nhltor;nhlwsh;nhlwpg",
    "Name": "Windy City Ale House",
    "Address": "7915 3rd Ave, Brooklyn, NY 11209",
    "City": "NYC",
    "State": "NY",
    "latitude": 40.628057,
    "longitude": -74.0288991,
    "Phone": "718-630-5700",
    "Website": "https://www.facebook.com/WindyCityAleHouse/"
  },
  {
    "Teams": "nbabkn",
    "Name": "Mo's Bar & Lounge",
    "Address": "80 Lafayette Ave, Brooklyn, NY 11217",
    "City": "NYC",
    "State": "NY",
    "latitude": 40.6870471,
    "longitude": -73.9747264,
    "Phone": "718-797-2849",
    "Website": ""
  },
  {
    "Teams": "mlsnyrb;ncaabwyo;ncaafwyo",
    "Name": "Lonestar Sports Bar & Grill",
    "Address": "8703 5th Ave, Brooklyn, NY 11209",
    "City": "NYC",
    "State": "NY",
    "latitude": 40.6206886,
    "longitude": -74.0266753,
    "Phone": "718-833-5180",
    "Website": "http://lonestarbrooklyn.com/"
  },
  {
    "Teams": "nbabkn",
    "Name": "Keg & Lantern Brewing Company",
    "Address": "97 Nassau Ave, Brooklyn, NY 11222",
    "City": "NYC",
    "State": "NY",
    "latitude": 40.7240508,
    "longitude": -73.9503414,
    "Phone": "718-389-5050",
    "Website": "http://www.kegandlanternbrooklyn.com/"
  },
  {
    "Teams": "ncaabmich;ncaafmich;mlsnyc;mlsnyrb;ncaabsyr;ncaafsyr",
    "Name": "The Ashford",
    "Address": "145 Newark Ave, Jersey City, NJ 07302",
    "City": "NYC",
    "State": "NJ",
    "latitude": 40.7204381,
    "longitude": -74.0441076,
    "Phone": "201-356-9956",
    "Website": "http://www.theashfordjc.com/"
  },
  {
    "Teams": "ncaabcle;ncaafcle;nflphi",
    "Name": "The Blind Rhino",
    "Address": "15 N Main St, Norwalk, CT 06854",
    "City": "NYC",
    "State": "CT",
    "latitude": 41.0996155,
    "longitude": -73.4186119,
    "Phone": "203-956-7243",
    "Website": "http://theblindrhino.com/"
  },
  {
    "Teams": "ncaabshu",
    "Name": "The Trinity Bar & Restaurant",
    "Address": "157 Orange St, New Haven, CT 06510",
    "City": "NYC",
    "State": "CT",
    "latitude": 41.3060433,
    "longitude": -72.9235935,
    "Phone": "203-495-7736",
    "Website": "http://www.thetrinitybar.com/"
  },
  {
    "Teams": "ncaabsju",
    "Name": "Buffalo Wild Wings",
    "Address": "134-15 20th Ave, College Point, NY 11356",
    "City": "NYC",
    "State": "NY",
    "latitude": 40.7821215,
    "longitude": -73.8337603,
    "Phone": "718-353-9453",
    "Website": "https://buffalowildwings.com/en"
  },
  {
    "Teams": "ncaabvu",
    "Name": "The Station Kitchen and Bar",
    "Address": "17 N Rockland Ave, Congers, NY 10920",
    "City": "NYC",
    "State": "NY",
    "latitude": 41.1512886,
    "longitude": -73.941779,
    "Phone": "845-767-4007",
    "Website": "https://the-station-kitchen-and-bar.business.site/"
  },
  {
    "Teams": "mlbnym",
    "Name": "Pine",
    "Address": "37-10 114th St, Corona, NY 11368",
    "City": "NYC",
    "State": "NY",
    "latitude": 40.7546631,
    "longitude": -73.8539225,
    "Phone": "718-672-1200",
    "Website": "http://www.holidaylga.com/"
  },
  {
    "Teams": "nhlnyi",
    "Name": "Miller's Ale House - Deer Park",
    "Address": "1800 The Arches Cir, Deer Park, NY 11729",
    "City": "NYC",
    "State": "NY",
    "latitude": 40.7624612,
    "longitude": -73.3069622,
    "Phone": "631-667-0228",
    "Website": "https://millersalehouse.com/locations/deer-park/"
  },
  {
    "Teams": "ncaabarmy;ncaafarmy",
    "Name": "Normanside Country Club",
    "Address": "150 Salisbury Rd, Delmar, NY 12054",
    "City": "NYC",
    "State": "NY",
    "latitude": 42.6385095,
    "longitude": -73.8169099,
    "Phone": "518-439-4505",
    "Website": "https://www.normanside.com/"
  },
  {
    "Teams": "nflsf",
    "Name": "O'Hara's Downtown Sports Bar & Grill",
    "Address": "172 1st St, Jersey City, NJ 07302",
    "City": "NYC",
    "State": "NJ",
    "latitude": 40.7216698,
    "longitude": -74.0408067,
    "Phone": "201-239-7373",
    "Website": "https://oharasjc.com/"
  },
  {
    "Teams": "ncaabshu",
    "Name": "Copperhead Grille Allentown",
    "Address": "1731 Airport Rd, Allentown, PA 18109",
    "City": "NYC",
    "State": "PA",
    "latitude": 40.6347135,
    "longitude": -75.438037,
    "Phone": "610-403-4600",
    "Website": "http://www.copperheadgrille.com/"
  },
  {
    "Teams": "mlsnyc",
    "Name": "The Springs Tavern",
    "Address": "15 Fort Pond Blvd #4220, East Hampton, NY 11937",
    "City": "NYC",
    "State": "NY",
    "latitude": 41.031991,
    "longitude": -72.170376,
    "Phone": "631-527-7800",
    "Website": "http://www.thespringstavern.com/"
  },
  {
    "Teams": "ncaabsju;ncaabwmu;ncaafwmu",
    "Name": "The Greene Turtle Sports Bar & Grille",
    "Address": "1740 Hempstead Turnpike, East Meadow, NY 11554",
    "City": "NYC",
    "State": "NY",
    "latitude": 40.723317,
    "longitude": -73.571485,
    "Phone": "516-280-7251",
    "Website": "https://thegreeneturtle.com/location/east-meadow"
  },
  {
    "Teams": "mlbnym",
    "Name": "Changing Times Ale House",
    "Address": "526B Larkfield Rd, East Northport, NY 11731",
    "City": "NYC",
    "State": "NY",
    "latitude": 40.861537,
    "longitude": -73.320857,
    "Phone": "631-368-3255",
    "Website": "http://changingtimespubs.com/east-northport-location/"
  },
  {
    "Teams": "mlsnyc;mlsnyrb",
    "Name": "Mickey Spillane's",
    "Address": "431 White Plains Rd, Eastchester, NY 10709",
    "City": "NYC",
    "State": "NY",
    "latitude": 40.9565113,
    "longitude": -73.8136528,
    "Phone": "914-395-3838",
    "Website": "http://www.mickeyspillanes.com/"
  },
  {
    "Teams": "nflcle",
    "Name": "Close Quarters",
    "Address": "1401 Pine St, Endicott, NY 13760",
    "City": "NYC",
    "State": "NY",
    "latitude": 42.1152018,
    "longitude": -76.0471862,
    "Phone": "607-754-7408",
    "Website": "https://www.bingbite.com/r/80/restaurants/delivery/American/Close-Quarters-Endicott"
  },
  {
    "Teams": "nhlnyi",
    "Name": "Buffalo Wild Wings",
    "Address": "1080 NY-110, Farmingdale, NY 11735",
    "City": "NYC",
    "State": "NY",
    "latitude": 40.7316529,
    "longitude": -73.4242512,
    "Phone": "631-465-9464",
    "Website": "http://buffalowildwings.com/"
  },
  {
    "Teams": "mlbnym",
    "Name": "Changing Times Pub",
    "Address": "1247 Melville Rd, Farmingdale, NY 11735",
    "City": "NYC",
    "State": "NY",
    "latitude": 40.748109,
    "longitude": -73.429004,
    "Phone": "631-694-6462",
    "Website": "http://changingtimespubs.com/farmingdale-location/"
  },
  {
    "Teams": "nflbal;mlbnyy",
    "Name": "Croxley Ale House",
    "Address": "190 Main St, Farmingdale, NY 11735",
    "City": "NYC",
    "State": "NY",
    "latitude": 40.7345479,
    "longitude": -73.4462876,
    "Phone": "516-293-7700",
    "Website": "https://croxley.com/farmingdale/"
  },
  {
    "Teams": "nbanyk",
    "Name": "Monahan & Fitzgerald",
    "Address": "21417 41st Ave, Flushing, NY 11361",
    "City": "NYC",
    "State": "NY",
    "latitude": 40.7637931,
    "longitude": -73.7702637,
    "Phone": "718-279-4450",
    "Website": "http://www.monahanfitzgerald.com/"
  },
  {
    "Teams": "nflbuf",
    "Name": "GlenPatrick's Pub",
    "Address": "53-73 65th Pl, Flushing, NY 11378",
    "City": "NYC",
    "State": "NY",
    "latitude": 40.7292132,
    "longitude": -73.8999395,
    "Phone": "718-429-8334",
    "Website": "https://glenpatricks.com/"
  },
  {
    "Teams": "ncaabsju",
    "Name": "Buffalo Wild Wings",
    "Address": "107-16 71st Ave, Forest Hills, NY 11375",
    "City": "NYC",
    "State": "NY",
    "latitude": 40.7205344,
    "longitude": -73.8441713,
    "Phone": "718-544-9453",
    "Website": "https://buffalowildwings.com/en"
  },
  {
    "Teams": "ncaabsju",
    "Name": "Queens Bully",
    "Address": "113-30 Queens Blvd, Forest Hills, NY 11375",
    "City": "NYC",
    "State": "NY",
    "latitude": 40.7170627,
    "longitude": -73.8354855,
    "Phone": "718-520-8600",
    "Website": "http://www.queensbully.com/"
  },
  {
    "Teams": "ncaabsju",
    "Name": "Cobblestones Pub and Biergarten",
    "Address": "117-18 Queens Blvd, Forest Hills, NY 11375",
    "City": "NYC",
    "State": "NY",
    "latitude": 40.7150265,
    "longitude": -73.8327049,
    "Phone": "718-263-9754",
    "Website": "http://www.cobblestonespub.com/"
  },
  {
    "Teams": "nbabkn",
    "Name": "Tap House",
    "Address": "5354, 7207 Austin St, Forest Hills, NY 11375",
    "City": "NYC",
    "State": "NY",
    "latitude": 40.7193256,
    "longitude": -73.8422501,
    "Phone": "718-997-0500",
    "Website": "https://www.facebook.com/Tap-House-Forest-Hills-318134720350/"
  },
  {
    "Teams": "nbabkn",
    "Name": "Forest Hills Station",
    "Address": "71st Ave, Forest Hills, NY 11375",
    "City": "NYC",
    "State": "NY",
    "latitude": 40.7197557,
    "longitude": -73.8447098,
    "Phone": "",
    "Website": "http://lirr42.mta.info/stationInfo.php"
  },
  {
    "Teams": "ncaabvu",
    "Name": "Big Woody's",
    "Address": "1928 Hamilton St, Allentown, PA 18104",
    "City": "NYC",
    "State": "PA",
    "latitude": 40.5942849,
    "longitude": -75.4978165,
    "Phone": "610-820-3866",
    "Website": "http://www.bigwoodysbar.com/"
  },
  {
    "Teams": "nflmin",
    "Name": "First & Ten Sports Pub",
    "Address": "1961 Hamilton Ave, Trenton, NJ 08619",
    "City": "NYC",
    "State": "NJ",
    "latitude": 40.2262797,
    "longitude": -74.7126896,
    "Phone": "609-587-1028",
    "Website": ""
  },
  {
    "Teams": "mlbnyy",
    "Name": "Croxley's Original Ale House & Eatery",
    "Address": "129 New Hyde Park Rd, Franklin Square, NY 11010",
    "City": "NYC",
    "State": "NY",
    "latitude": 40.7108991,
    "longitude": -73.6764881,
    "Phone": "516-326-9542",
    "Website": "https://croxley.com/franklin-square/"
  },
  {
    "Teams": "ncaabsju;ncaabvu",
    "Name": "Repeal",
    "Address": "55 New Hyde Park Rd, Garden City, NY 11530",
    "City": "NYC",
    "State": "NY",
    "latitude": 40.7180719,
    "longitude": -73.6792466,
    "Phone": "516-328-8326",
    "Website": ""
  },
  {
    "Teams": "nhlnyi;ncaabpit;ncaafpit",
    "Name": "Hurricane Grill & Wings",
    "Address": "630 Stewart Ave, Garden City, NY 11530",
    "City": "NYC",
    "State": "NY",
    "latitude": 40.7313807,
    "longitude": -73.6102197,
    "Phone": "516-542-9464",
    "Website": "http://www.hurricanewings.com/"
  },
  {
    "Teams": "ncaabvu",
    "Name": "Prost Grill & Garten",
    "Address": "652 Franklin Ave, Garden City, NY 11530",
    "City": "NYC",
    "State": "NY",
    "latitude": 40.7245674,
    "longitude": -73.6341585,
    "Phone": "516-427-5215",
    "Website": "http://prostgrill.com/"
  },
  {
    "Teams": "nflbuf",
    "Name": "Meadowgreens Golf Course",
    "Address": "1238 NY-9H, Ghent, NY 12075",
    "City": "NYC",
    "State": "NY",
    "latitude": 42.3003705,
    "longitude": -73.7100526,
    "Phone": "518-828-0663",
    "Website": ""
  },
  {
    "Teams": "mlbnym",
    "Name": "Yerman's",
    "Address": "7026 88th St, Glendale, NY 11385",
    "City": "NYC",
    "State": "NY",
    "latitude": 40.7100865,
    "longitude": -73.8645825,
    "Phone": "718-894-4442",
    "Website": ""
  },
  {
    "Teams": "nflsf",
    "Name": "Buffalo Wild Wings",
    "Address": "208 Summer St, Stamford, CT 06901",
    "City": "NYC",
    "State": "CT",
    "latitude": 41.0547689,
    "longitude": -73.5408202,
    "Phone": "203-324-9453",
    "Website": "https://www.buffalowildwings.com/en/locations/detail/3349/"
  },
  {
    "Teams": "nhlnyi",
    "Name": "Buffalo Wild Wings",
    "Address": "358 N Broadway, Hicksville, NY 11801",
    "City": "NYC",
    "State": "NY",
    "latitude": 40.7721491,
    "longitude": -73.5322382,
    "Phone": "516-937-9453",
    "Website": "http://buffalowildwings.com/"
  },
  {
    "Teams": "ncaabarmy;ncaafarmy",
    "Name": "Fireside Hotel & Restaurant",
    "Address": "3 Mountain Ave, Highland Falls, NY 10928",
    "City": "NYC",
    "State": "NY",
    "latitude": 41.3690278,
    "longitude": -73.9663243,
    "Phone": "845-446-8210",
    "Website": ""
  },
  {
    "Teams": "ncaabarmy;ncaafarmy",
    "Name": "South Gate Tavern",
    "Address": "509 Main St, Highland Falls, NY 10928",
    "City": "NYC",
    "State": "NY",
    "latitude": 41.3759351,
    "longitude": -73.9632063,
    "Phone": "845-446-8747",
    "Website": "https://www.facebook.com/SouthGateTavern/"
  },
  {
    "Teams": "nflbuf;nhlbuf",
    "Name": "Mooney's Sports Bar & Grill",
    "Address": "3300 Chambers Rd, Horseheads, NY 14845",
    "City": "NYC",
    "State": "NY",
    "latitude": 42.1592684,
    "longitude": -76.8759261,
    "Phone": "607-442-1670",
    "Website": "http://www.mooneyssportsbarandgrill.com/"
  },
  {
    "Teams": "nflbuf",
    "Name": "Nag's Head Ale House",
    "Address": "396 New York Ave, Huntington, NY 11743",
    "City": "NYC",
    "State": "NY",
    "latitude": 40.8688102,
    "longitude": -73.4256603,
    "Phone": "631-673-6247",
    "Website": "http://nagsheadalehouse.com/"
  },
  {
    "Teams": "ncaabvu",
    "Name": "The Rust & Gold",
    "Address": "70 Gerard St, Huntington, NY 11743",
    "City": "NYC",
    "State": "NY",
    "latitude": 40.8713259,
    "longitude": -73.4300379,
    "Phone": "631-629-4431",
    "Website": "https://www.therustandgold.com/"
  },
  {
    "Teams": "ncaabsju",
    "Name": "Jake's 58 Hotel & Casino",
    "Address": "3635 Express Dr N, Islandia, NY 11749",
    "City": "NYC",
    "State": "NY",
    "latitude": 40.810488,
    "longitude": -73.16603,
    "Phone": "631-232-3000",
    "Website": "https://www.jakes58.com/"
  },
  {
    "Teams": "nhlnyi",
    "Name": "Miller's Ale House - Levittown",
    "Address": "3046 Hempstead Turnpike, Levittown, NY 11756",
    "City": "NYC",
    "State": "NY",
    "latitude": 40.7242393,
    "longitude": -73.5231041,
    "Phone": "516-520-7000",
    "Website": "https://millersalehouse.com/locations/levittown/"
  },
  {
    "Teams": "nflkc",
    "Name": "John Brown Smokehouse",
    "Address": "10-43 44th Dr, Long Island City, NY 11101",
    "City": "NYC",
    "State": "NY",
    "latitude": 40.7488705,
    "longitude": -73.9501223,
    "Phone": "347-617-1120",
    "Website": "http://www.johnbrownseriousbbq.com/"
  },
  {
    "Teams": "nhlnyr",
    "Name": "O'Neill's",
    "Address": "64-21 53rd Dr, Maspeth, NY 11378",
    "City": "NYC",
    "State": "NY",
    "latitude": 40.7290041,
    "longitude": -73.9005902,
    "Phone": "718-672-9696",
    "Website": "http://www.oneillsmaspeth.com/"
  },
  {
    "Teams": "nflbuf",
    "Name": "Station House Bar and Grille",
    "Address": "232 East Ave, Norwalk, CT 06855",
    "City": "NYC",
    "State": "CT",
    "latitude": 41.1032697,
    "longitude": -73.4043549,
    "Phone": "203-853-2680",
    "Website": "http://www.stationhousebarandgrille.com/"
  },
  {
    "Teams": "mlbnym",
    "Name": "The Angry Gnome Pub",
    "Address": "1217 Jericho Turnpike, New Hyde Park, NY 11040",
    "City": "NYC",
    "State": "NY",
    "latitude": 40.7331542,
    "longitude": -73.6835005,
    "Phone": "516-305-4175",
    "Website": ""
  },
  {
    "Teams": "nflphi",
    "Name": "North End Tavern",
    "Address": "1301 North Ave, New Rochelle, NY 10804",
    "City": "NYC",
    "State": "NY",
    "latitude": 40.9464669,
    "longitude": -73.7951947,
    "Phone": "914-633-3224",
    "Website": "http://northendtavernnr.com/"
  },
  {
    "Teams": "nflbuf",
    "Name": "Murphy's Law",
    "Address": "239 Fairfield Ave, Bridgeport, CT 06604",
    "City": "NYC",
    "State": "CT",
    "latitude": 41.1786755,
    "longitude": -73.191632,
    "Phone": "203-366-5297",
    "Website": ""
  },
  {
    "Teams": "nhlnyr",
    "Name": "Beechmont Tavern",
    "Address": "750 North Ave, New Rochelle, NY 10801",
    "City": "NYC",
    "State": "NY",
    "latitude": 40.9269014,
    "longitude": -73.7893632,
    "Phone": "914-636-9533",
    "Website": "https://www.beechmonttavern.com/"
  },
  {
    "Teams": "nflpit",
    "Name": "My Place",
    "Address": "911 Little Britain Rd, New Windsor, NY 12553",
    "City": "NYC",
    "State": "NY",
    "latitude": 41.4858099,
    "longitude": -74.0812573,
    "Phone": "845-564-5543",
    "Website": ""
  },
  {
    "Teams": "nflsf",
    "Name": "The Sticky Wicket",
    "Address": "2465 S Broad St, Trenton, NJ 08610",
    "City": "NYC",
    "State": "NJ",
    "latitude": 40.1924524,
    "longitude": -74.7187652,
    "Phone": "609-439-0007",
    "Website": "http://www.stickywicketgrill.com/"
  },
  {
    "Teams": "ncaabbay;ncaafbay",
    "Name": "West 3rd Common",
    "Address": "1 W 3rd St, New York, NY 10012",
    "City": "NYC",
    "State": "NY",
    "latitude": 40.7279203,
    "longitude": -73.9948726,
    "Phone": "212-529-2059",
    "Website": "http://west3rdcommon.com/"
  },
  {
    "Teams": "ncaablou;ncaaflou;ncaabumd;ncaafumd",
    "Name": "Lucy's Cantina Royale",
    "Address": "1, Pennsylvania Plaza, New York, NY 10119",
    "City": "NYC",
    "State": "NY",
    "latitude": 40.7518645,
    "longitude": -73.9931908,
    "Phone": "212-643-1270",
    "Website": "http://www.lucyscantinaroyale.com/"
  },
  {
    "Teams": "ncaabucla;ncaafucla",
    "Name": "One Mile House",
    "Address": "10 Delancey St, New York, NY 10002",
    "City": "NYC",
    "State": "NY",
    "latitude": 40.7203671,
    "longitude": -73.9932705,
    "Phone": "646-559-0702",
    "Website": "http://www.onemilehousenyc.com/"
  },
  {
    "Teams": "ncaabiowa;ncaafiowa;nflwas",
    "Name": "Redemption Sports Lounge",
    "Address": "1003 2nd Ave, New York, NY 10022",
    "City": "NYC",
    "State": "NY",
    "latitude": 40.7569075,
    "longitude": -73.9672698,
    "Phone": "212-319-4545",
    "Website": "http://www.redemptionnyc.com/"
  },
  {
    "Teams": "ncaabmsst;ncaafmsst;ncaabvu",
    "Name": "Brazen Fox",
    "Address": "106 3rd Ave, New York, NY 10003",
    "City": "NYC",
    "State": "NY",
    "latitude": 40.73281,
    "longitude": -73.987847,
    "Phone": "212-353-1063",
    "Website": "http://brazenfoxnyc.com/"
  },
  {
    "Teams": "nflatl",
    "Name": "The Watering Hole",
    "Address": "106 E 19th St, New York, NY 10003",
    "City": "NYC",
    "State": "NY",
    "latitude": 40.7373062,
    "longitude": -73.9873994,
    "Phone": "212-674-5783",
    "Website": "http://wateringholenyc.com/"
  },
  {
    "Teams": "ncaabcin;ncaafcin;ncaabcle;ncaafcle;nbanyk;ncaabosu;ncaafosu;ncaabsyr;ncaafsyr;ncaabvt;ncaafvt",
    "Name": "Fox & Hound",
    "Address": "250 Menlo Park Dr, Edison, NJ 08837",
    "City": "NYC",
    "State": "NJ",
    "latitude": 40.5453391,
    "longitude": -74.3361672,
    "Phone": "732-452-9100",
    "Website": "https://www.foxandhound.com/locations/edison"
  },
  {
    "Teams": "ncaabbut",
    "Name": "Suspenders Restaurant & Bar",
    "Address": "108 Greenwich St, New York, NY 10006",
    "City": "NYC",
    "State": "NY",
    "latitude": 40.7085984,
    "longitude": -74.0136235,
    "Phone": "212-732-5005",
    "Website": "http://suspendersnyc.com/"
  },
  {
    "Teams": "ncaabrice;ncaafrice",
    "Name": "Blue Haven",
    "Address": "108 W Houston St, New York, NY 10012",
    "City": "NYC",
    "State": "NY",
    "latitude": 40.7275574,
    "longitude": -74.0005794,
    "Phone": "212-505-3400",
    "Website": "http://bluehavennyc.com/"
  },
  {
    "Teams": "ncaabore;ncaafore;nflsea",
    "Name": "The Central Bar",
    "Address": "109 E 9th St, New York, NY 10003",
    "City": "NYC",
    "State": "NY",
    "latitude": 40.730454,
    "longitude": -73.989948,
    "Phone": "212-529-5333",
    "Website": "http://www.centralbarnyc.com/"
  },
  {
    "Teams": "mlsnyc",
    "Name": "Baker Street Pub",
    "Address": "1152 1st Avenue, New York, NY 10065",
    "City": "NYC",
    "State": "NY",
    "latitude": 40.7621332,
    "longitude": -73.9599242,
    "Phone": "212-688-9663",
    "Website": "http://www.bakerstreetnyc.com/"
  },
  {
    "Teams": "nflari;mlbbal;nflbal;ncaabduke;ncaafduke;ncaabuf;ncaafuf;nflten",
    "Name": "SideBAR",
    "Address": "118 E 15th St, New York, NY 10003",
    "City": "NYC",
    "State": "NY",
    "latitude": 40.7346135,
    "longitude": -73.988626,
    "Phone": "212-677-2900",
    "Website": "http://www.sidebarny.com/"
  },
  {
    "Teams": "nflpit",
    "Name": "Wildflowers Too",
    "Address": "255 NJ-156, Trenton, NJ 08620",
    "City": "NYC",
    "State": "NJ",
    "latitude": 40.180655,
    "longitude": -74.665561,
    "Phone": "609-585-5483",
    "Website": "http://www.wildflowerstoo.com/"
  },
  {
    "Teams": "ncaabuconn;ncaafuconn;mlsnyc",
    "Name": "TK's American Cafe",
    "Address": "255 White St, Danbury, CT 06810",
    "City": "NYC",
    "State": "CT",
    "latitude": 41.3996041,
    "longitude": -73.4362144,
    "Phone": "203-730-1776",
    "Website": "http://tksamericancafe.com/"
  },
  {
    "Teams": "nflbuf;mlbchc;nhlwsh",
    "Name": "Kelly's Sports Bar",
    "Address": "12 Avenue A, New York, NY 10009",
    "City": "NYC",
    "State": "NY",
    "latitude": 40.7225202,
    "longitude": -73.9859309,
    "Phone": "212-388-1464",
    "Website": "http://www.kellysnyc.com/"
  },
  {
    "Teams": "ncaabsju",
    "Name": "The Long Room",
    "Address": "120 W 44th St, New York, NY 10036",
    "City": "NYC",
    "State": "NY",
    "latitude": 40.756421,
    "longitude": -73.984289,
    "Phone": "212-997-3933",
    "Website": "http://www.thelongroomnyc.com/"
  },
  {
    "Teams": "nflsf",
    "Name": "Off the Wagon",
    "Address": "1201, 109 Macdougal St, New York, NY 10012",
    "City": "NYC",
    "State": "NY",
    "latitude": 40.7298765,
    "longitude": -74.0007469,
    "Phone": "212-533-4487",
    "Website": "http://www.nycbestbar.com/off/"
  },
  {
    "Teams": "nflphi;ncaabpur;ncaafpur",
    "Name": "3 Sheets Saloon",
    "Address": "1209, 134 W 3rd St, New York, NY 10012",
    "City": "NYC",
    "State": "NY",
    "latitude": 40.7307676,
    "longitude": -74.0009782,
    "Phone": "212-777-1733",
    "Website": "http://www.nycbestbar.com/three-sheets.php"
  },
  {
    "Teams": "nflpit",
    "Name": "50 Yard Line Sports Bar @ Pizza Como",
    "Address": "2626 Easton Ave, Bethlehem, PA 18017",
    "City": "NYC",
    "State": "PA",
    "latitude": 40.6442282,
    "longitude": -75.3456779,
    "Phone": "610-866-1975",
    "Website": "http://www.50yardlinesportsbar.com/"
  },
  {
    "Teams": "ncaabcin;ncaafcin;ncaabosu;ncaafosu",
    "Name": "Ainsworth",
    "Address": "121 Fulton St, New York, NY 10038",
    "City": "NYC",
    "State": "NY",
    "latitude": 40.7101432,
    "longitude": -74.0070013,
    "Phone": "646-545-6647",
    "Website": "http://theainsworth.com/"
  },
  {
    "Teams": "ncaabbama;ncaafbama;nbahou;nbanop;nbator;nbauta",
    "Name": "The Ainsworth",
    "Address": "122 W 26th St, New York, NY 10001",
    "City": "NYC",
    "State": "NY",
    "latitude": 40.7451811,
    "longitude": -73.9925803,
    "Phone": "212-741-0645",
    "Website": "http://theainsworth.com/"
  },
  {
    "Teams": "ncaabbc;ncaafbc;ncaabnw;ncaafnw;ncaabosu;ncaafosu;ncaabpit;ncaafpit;ncaabsyr;ncaafsyr;ncaabvu;ncaabxu",
    "Name": "Bobby V's Restaurant & Sports Bar",
    "Address": "268 Atlantic St, Stamford, CT 06901",
    "City": "NYC",
    "State": "CT",
    "latitude": 41.0516339,
    "longitude": -73.5389786,
    "Phone": "203-883-4320",
    "Website": "http://www.bobbyvsrestaurant.com/"
  },
  {
    "Teams": "ncaabvu",
    "Name": "The Perfect Pint",
    "Address": "123 W 45th St, New York, NY 10036",
    "City": "NYC",
    "State": "NY",
    "latitude": 40.7574092,
    "longitude": -73.9837409,
    "Phone": "212-354-1099",
    "Website": "http://www.theperfectpintnyc.com/"
  },
  {
    "Teams": "nflsea;mlssea",
    "Name": "Carlow East",
    "Address": "1254 Lexington Ave, New York, NY 10028",
    "City": "NYC",
    "State": "NY",
    "latitude": 40.778633,
    "longitude": -73.956412,
    "Phone": "212-744-6397",
    "Website": ""
  },
  {
    "Teams": "nflnyj",
    "Name": "Whiskey Rebel",
    "Address": "129 Lexington Ave, New York, NY 10016",
    "City": "NYC",
    "State": "NY",
    "latitude": 40.7429218,
    "longitude": -73.9819893,
    "Phone": "212-686-3800",
    "Website": "http://whiskeyrebelnyc.com/"
  },
  {
    "Teams": "nfldet",
    "Name": "Lucky Jack's",
    "Address": "129 Orchard St, New York, NY 10002",
    "City": "NYC",
    "State": "NY",
    "latitude": 40.7196945,
    "longitude": -73.9896684,
    "Phone": "212-477-6555",
    "Website": "https://www.luckyjacksnyc.com/"
  },
  {
    "Teams": "nflmin",
    "Name": "Fat Jacks'",
    "Address": "2722 Freemansburg Ave, Easton, PA 18045",
    "City": "NYC",
    "State": "PA",
    "latitude": 40.6721922,
    "longitude": -75.251243,
    "Phone": "610-250-7849",
    "Website": ""
  },
  {
    "Teams": "nfloak",
    "Name": "Peter Dillon's Pub",
    "Address": "130 E 40th St, New York, NY 10016",
    "City": "NYC",
    "State": "NY",
    "latitude": 40.7499687,
    "longitude": -73.9768123,
    "Phone": "212-213-3998",
    "Website": "http://peterdillons.com/"
  },
  {
    "Teams": "nflsea;ncaabuw;ncaafuw",
    "Name": "Feile",
    "Address": "131 West 33rd Street, New York, NY 10120",
    "City": "NYC",
    "State": "NY",
    "latitude": 40.7499031,
    "longitude": -73.9897687,
    "Phone": "212-695-1122",
    "Website": "http://www.feilenyc.com/"
  },
  {
    "Teams": "nhlnyr;ncaabusc;ncaafusc",
    "Name": "Pennsylvania 6 NYC",
    "Address": "132 W 31st St, New York, NY 10001",
    "City": "NYC",
    "State": "NY",
    "latitude": 40.7483605,
    "longitude": -73.9907657,
    "Phone": "212-727-3666",
    "Website": "http://pennsylvania6nyc.com/"
  },
  {
    "Teams": "ncaabtuln;ncaaftuln",
    "Name": "Galway Hooker Bar",
    "Address": "133 7th Ave S, New York, NY 10014",
    "City": "NYC",
    "State": "NY",
    "latitude": 40.7345608,
    "longitude": -74.0020067,
    "Phone": "212-675-6220",
    "Website": "http://www.galwayhookerbar.com/"
  },
  {
    "Teams": "nflden;ncaabill;ncaafill;ncaabosu;ncaafosu;ncaabsju;ncaabtex;ncaaftex",
    "Name": "Stout NYC ~ Flagship",
    "Address": "133 W 33rd St, New York, NY 10001",
    "City": "NYC",
    "State": "NY",
    "latitude": 40.749966,
    "longitude": -73.989866,
    "Phone": "212-629-6191",
    "Website": "http://www.stoutnyc.com/"
  },
  {
    "Teams": "ncaabbc;ncaafbc;ncaabbuff;ncaafbuff;nflcle;ncaabgonz;nbanyk;mlbnym;ncaabpur;ncaafpur;nhltor;ncaabvt;ncaafvt",
    "Name": "Deweys Pub",
    "Address": "135 W 30th St, New York, NY 10001",
    "City": "NYC",
    "State": "NY",
    "latitude": 40.7482635,
    "longitude": -73.9911821,
    "Phone": "212-685-7781",
    "Website": "https://deweyspub.com/"
  },
  {
    "Teams": "ncaabmich;ncaafmich",
    "Name": "Session 73",
    "Address": "1359 1st Avenue, New York, NY 10021",
    "City": "NYC",
    "State": "NY",
    "latitude": 40.7684496,
    "longitude": -73.9558618,
    "Phone": "212-517-4445",
    "Website": "http://www.session73.com/"
  },
  {
    "Teams": "nfldal;nhlnyi",
    "Name": "Offside Tavern",
    "Address": "137 W 14th St #7308, New York, NY 10011",
    "City": "NYC",
    "State": "NY",
    "latitude": 40.7383009,
    "longitude": -73.998366,
    "Phone": "917-388-3956",
    "Website": "http://www.offsidetavernnyc.com/"
  },
  {
    "Teams": "mlbnyy",
    "Name": "Smithfield Hall NYC",
    "Address": "138 W 25th St, New York, NY 10001",
    "City": "NYC",
    "State": "NY",
    "latitude": 40.744722,
    "longitude": -73.993641,
    "Phone": "212-929-9677",
    "Website": "http://www.smithfieldnyc.com/"
  },
  {
    "Teams": "nfldal;mlsnyrb",
    "Name": "Stone Creek Bar and Lounge",
    "Address": "140 E 27th St # A, New York, NY 10016",
    "City": "NYC",
    "State": "NY",
    "latitude": 40.7417309,
    "longitude": -73.9824703,
    "Phone": "212-532-1037",
    "Website": "http://www.stonecreeknyc.com/"
  },
  {
    "Teams": "nflden;mlsnyc;ncaabnd;ncaafnd;nflpit",
    "Name": "Public House",
    "Address": "140 E 41st St, New York, NY 10017",
    "City": "NYC",
    "State": "NY",
    "latitude": 40.750435,
    "longitude": -73.976232,
    "Phone": "212-682-3710",
    "Website": "http://publichousenyc.com/"
  },
  {
    "Teams": "mlsnyc",
    "Name": "Pig n Whistle Times Square",
    "Address": "144 W 46th St, New York, NY 10036",
    "City": "NYC",
    "State": "NY",
    "latitude": 40.7579774,
    "longitude": -73.9841702,
    "Phone": "917-639-3864",
    "Website": "http://www.pignwhistleon46.com/"
  },
  {
    "Teams": "ncaabbay;ncaafbay",
    "Name": "Fools Gold",
    "Address": "145 E Houston St, New York, NY 10002",
    "City": "NYC",
    "State": "NY",
    "latitude": 40.723055,
    "longitude": -73.989782,
    "Phone": "212-673-2337",
    "Website": "http://www.foolsgoldnyc.com/"
  },
  {
    "Teams": "ncaabfsu;ncaaffsu",
    "Name": "Wicked Willy's",
    "Address": "149 Bleecker St, New York, NY 10012",
    "City": "NYC",
    "State": "NY",
    "latitude": 40.7283962,
    "longitude": -73.9992785,
    "Phone": "212-254-8592",
    "Website": "http://wickedwillys.com/"
  },
  {
    "Teams": "ncaabpit;ncaafpit",
    "Name": "Flight 151",
    "Address": "151 8th Ave, New York, NY 10011",
    "City": "NYC",
    "State": "NY",
    "latitude": 40.7420633,
    "longitude": -74.0011048,
    "Phone": "212-229-1868",
    "Website": "https://www.flight151.com/"
  },
  {
    "Teams": "ncaabutah;ncaafutah",
    "Name": "Broadway Lounge & Terrace",
    "Address": "1535 Broadway, New York, NY 10036",
    "City": "NYC",
    "State": "NY",
    "latitude": 40.7587183,
    "longitude": -73.9862168,
    "Phone": "212-704-8834",
    "Website": "http://www.marriott.com/hotel-restaurants/nycmq-new-york-marriott-marquis/broadway-lounge/5272396/home-page.mi"
  },
  {
    "Teams": "mlsnyc",
    "Name": "Hooters",
    "Address": "155 West 33rd Street, New York, NY 10001",
    "City": "NYC",
    "State": "NY",
    "latitude": 40.750494,
    "longitude": -73.9903208,
    "Phone": "212-695-9580",
    "Website": "http://www.originalhooters.com/nyc"
  },
  {
    "Teams": "nhlnyr",
    "Name": "Crompton Ale House",
    "Address": "159 W 26th St, New York, NY 10001",
    "City": "NYC",
    "State": "NY",
    "latitude": 40.7458092,
    "longitude": -73.9933019,
    "Phone": "212-658-0089",
    "Website": "http://cromptonalehouse.com/"
  },
  {
    "Teams": "ncaabpsu;ncaafpsu",
    "Name": "Jack and Fanny's",
    "Address": "1591 2nd Ave, New York, NY 10028",
    "City": "NYC",
    "State": "NY",
    "latitude": 40.7757607,
    "longitude": -73.9536851,
    "Phone": "917-259-0028",
    "Website": "https://www.jackandfannys.com/"
  },
  {
    "Teams": "nbahou;nbanop;nbator;nbauta;ncaabwis;ncaafwis",
    "Name": "The Grayson",
    "Address": "16 1st Avenue, New York, NY 10009",
    "City": "NYC",
    "State": "NY",
    "latitude": 40.7234396,
    "longitude": -73.9880708,
    "Phone": "212-510-8726",
    "Website": "http://www.thegraysonny.com/"
  },
  {
    "Teams": "ncaabduke;ncaafduke;ncaabtamu;ncaaftamu",
    "Name": "Clinton Hall",
    "Address": "16 W 36th St, New York, NY 10018",
    "City": "NYC",
    "State": "NY",
    "latitude": 40.7500528,
    "longitude": -73.9847956,
    "Phone": "212-695-0036",
    "Website": "http://www.clintonhallny.com/"
  },
  {
    "Teams": "nfldet",
    "Name": "Bailey's Corner Pub",
    "Address": "1607 York Ave, New York, NY 10028",
    "City": "NYC",
    "State": "NY",
    "latitude": 40.7752266,
    "longitude": -73.9478808,
    "Phone": "212-650-1341",
    "Website": "http://www.baileysnyc.com/"
  },
  {
    "Teams": "ncaabark;ncaafark;ncaabmu;mlbnyy;nflwas",
    "Name": "Dorrian's Red Hand (NYC)",
    "Address": "1616 2nd Ave, New York, NY 10028",
    "City": "NYC",
    "State": "NY",
    "latitude": 40.7763934,
    "longitude": -73.9525693,
    "Phone": "212-772-6660",
    "Website": "http://www.dorrians-nyc.com/"
  },
  {
    "Teams": "nflno;nflnyg;ncaabttu;ncaafttu",
    "Name": "The East End Bar & Grill",
    "Address": "1664 1st Avenue, New York, NY 10028",
    "City": "NYC",
    "State": "NY",
    "latitude": 40.777291,
    "longitude": -73.948845,
    "Phone": "212-348-3783",
    "Website": "http://eastendnewyork.com/"
  },
  {
    "Teams": "nbaphi;nflphi",
    "Name": "Shorty's",
    "Address": "1678 1st Avenue, New York, NY 10128",
    "City": "NYC",
    "State": "NY",
    "latitude": 40.7778525,
    "longitude": -73.9483613,
    "Phone": "212-348-2300",
    "Website": "http://www.shortysnyc.com/upper-east-side.php"
  },
  {
    "Teams": "ncaabumd;ncaafumd",
    "Name": "JoJo's Philosophy",
    "Address": "169 Bleecker St, New York, NY 10012",
    "City": "NYC",
    "State": "NY",
    "latitude": 40.7288482,
    "longitude": -74.0002763,
    "Phone": "646-669-7330",
    "Website": "http://jojosphilosophy.com/"
  },
  {
    "Teams": "ncaabmich;ncaafmich",
    "Name": "The Irish American Pub",
    "Address": "17 John Street, New York, NY 10038",
    "City": "NYC",
    "State": "NY",
    "latitude": 40.7098645,
    "longitude": -74.0087486,
    "Phone": "646-414-6223",
    "Website": "http://irishamericanpubnyc.com/"
  },
  {
    "Teams": "mlsnyc",
    "Name": "Dark Horse",
    "Address": "17 Murray Street, New York, NY 10007",
    "City": "NYC",
    "State": "NY",
    "latitude": 40.713759,
    "longitude": -74.0082,
    "Phone": "212-608-3900",
    "Website": "http://darkhorseny.com/"
  },
  {
    "Teams": "ncaabuf;ncaafuf",
    "Name": "Rathbones",
    "Address": "1702 2nd Ave, New York, NY 10128",
    "City": "NYC",
    "State": "NY",
    "latitude": 40.7792622,
    "longitude": -73.9504929,
    "Phone": "212-369-7361",
    "Website": "http://www.rathbonesnyc.com/"
  },
  {
    "Teams": "nflari;mlbbos;ncaabcsu;ncaafcsu;ncaabisu;ncaafisu;ncaabminn;ncaafminn;mlbnym;mlbnyy;nhlpit;nhlstl;mlbstl;mlbwas",
    "Name": "Foley's NY",
    "Address": "18 West 33rd Street, New York, NY 10001",
    "City": "NYC",
    "State": "NY",
    "latitude": 40.7480906,
    "longitude": -73.9863088,
    "Phone": "212-290-0080",
    "Website": "http://foleysny.com/"
  },
  {
    "Teams": "nflcar;nbacle;mlbcle;ncaabfau;ncaaffau;ncaabmia;ncaafmia;ncaabncst;ncaafncst;ncaabpsu;ncaafpsu;ncaabtuln;ncaaftuln",
    "Name": "Brother Jimmy's BBQ",
    "Address": "181 Lexington Ave, New York, NY 10016",
    "City": "NYC",
    "State": "NY",
    "latitude": 40.7445325,
    "longitude": -73.9808436,
    "Phone": "212-779-7427",
    "Website": "http://www.brotherjimmys.com/"
  },
  {
    "Teams": "nflphi",
    "Name": "Merrion Square",
    "Address": "1840 2nd Ave, New York, NY 10128",
    "City": "NYC",
    "State": "NY",
    "latitude": 40.783605,
    "longitude": -73.947349,
    "Phone": "212-831-7696",
    "Website": "http://merrion-square-pub-nyc-new-york.sites.tablehero.com/"
  },
  {
    "Teams": "nflgb;ncaabwis;ncaafwis",
    "Name": "Mad River Bar & Grille",
    "Address": "1904, 1442 3rd Ave, New York, NY 10028",
    "City": "NYC",
    "State": "NY",
    "latitude": 40.7761492,
    "longitude": -73.956174,
    "Phone": "646-490-1678",
    "Website": "https://www.madrivergrille.com/"
  },
  {
    "Teams": "ncaabmrsh;ncaafmrsh",
    "Name": "Peter Dillon's Pub",
    "Address": "2 E 36th St, New York, NY 10016",
    "City": "NYC",
    "State": "NY",
    "latitude": 40.7494813,
    "longitude": -73.9833495,
    "Phone": "212-300-4091",
    "Website": "http://peterdillons.com/"
  },
  {
    "Teams": "ncaabcal;ncaafcal;ncaabcle;ncaafcle;ncaabutah;ncaafutah;ncaabvu",
    "Name": "The Australian NYC",
    "Address": "20 W 38th St, New York, NY 10018",
    "City": "NYC",
    "State": "NY",
    "latitude": 40.7512239,
    "longitude": -73.9839048,
    "Phone": "212-869-8601",
    "Website": "http://www.theaustraliannyc.com/"
  },
  {
    "Teams": "mlbnym",
    "Name": "Bedford Falls",
    "Address": "206 E 67th St, New York, NY 10065",
    "City": "NYC",
    "State": "NY",
    "latitude": 40.7662383,
    "longitude": -73.9624815,
    "Phone": "212-717-8181",
    "Website": "http://www.bedfordfallsnyc.com/"
  },
  {
    "Teams": "ncaabasu;ncaafasu;ncaabuf;ncaafuf;ncaabshu",
    "Name": "John Sullivan's",
    "Address": "210 W 35th St, New York, NY 10001",
    "City": "NYC",
    "State": "NY",
    "latitude": 40.7516532,
    "longitude": -73.9907024,
    "Phone": "212-993-7223",
    "Website": "http://www.johnsullivansnyc.com/"
  },
  {
    "Teams": "nbabkn;ncaabmsu;ncaafmsu;nflnyj;mlbnym;ncaabnw;ncaafnw",
    "Name": "Blondies Sports",
    "Address": "212 W 79th St, New York, NY 10024",
    "City": "NYC",
    "State": "NY",
    "latitude": 40.7832351,
    "longitude": -73.9791427,
    "Phone": "212-362-3311",
    "Website": "https://files.acrobat.com/a/preview/8eadb70b-e42d-4857-a3ac-09b2ba64b2f7"
  },
  {
    "Teams": "ncaabcle;ncaafcle;ncaablou;ncaaflou;nhlmtl;nflnyj;ncaabtenn;ncaaftenn;ncaabwk;ncaafwk",
    "Name": "Printers Alley",
    "Address": "215 W 40th St, New York, NY 10018",
    "City": "NYC",
    "State": "NY",
    "latitude": 40.755308,
    "longitude": -73.988628,
    "Phone": "212-419-2770",
    "Website": "http://www.printersalleynyc.com/"
  },
  {
    "Teams": "mlbnyy",
    "Name": "Harlem Tavern",
    "Address": "2153 Frederick Douglass Blvd, New York, NY 10026",
    "City": "NYC",
    "State": "NY",
    "latitude": 40.8047536,
    "longitude": -73.9554776,
    "Phone": "212-866-4500",
    "Website": "http://harlemtavern.com/"
  },
  {
    "Teams": "nflbal",
    "Name": "The HorseBox",
    "Address": "218 Avenue A, New York, NY 10009",
    "City": "NYC",
    "State": "NY",
    "latitude": 40.7300124,
    "longitude": -73.9804447,
    "Phone": "646-370-1791",
    "Website": "http://thehorseboxnyc.com/"
  },
  {
    "Teams": "nhlbos;nbabos;mlbbos;ncaabmich;ncaafmich;nflne;ncaabumass;ncaafumass",
    "Name": "Professor Thom's",
    "Address": "219 2nd Ave, New York, NY 10003",
    "City": "NYC",
    "State": "NY",
    "latitude": 40.7320093,
    "longitude": -73.9854024,
    "Phone": "212-260-9480",
    "Website": "http://www.professorthoms.com/"
  },
  {
    "Teams": "ncaabaub;ncaafaub;nfljax;mlsnyc",
    "Name": "St. Pat's Bar & Grill NYC",
    "Address": "22 W 46th St, New York, NY 10036",
    "City": "NYC",
    "State": "NY",
    "latitude": 40.756368,
    "longitude": -73.980391,
    "Phone": "212-391-1111",
    "Website": "http://stpatsbar.com/"
  },
  {
    "Teams": "nbagsw;nflnyg;mlboak;ncaaborst;ncaaforst;nflsf;mlbsf;nhlsjs;ncaabstan;ncaafstan;ncaabwsu;ncaafwsu",
    "Name": "Finnerty's",
    "Address": "221 2nd Ave, New York, NY 10003",
    "City": "NYC",
    "State": "NY",
    "latitude": 40.7320874,
    "longitude": -73.9853572,
    "Phone": "212-677-2655",
    "Website": "http://www.finnertysnyc.com/"
  },
  {
    "Teams": "nflchi;nflno;nhlnyi;ncaabmiss;ncaafmiss;ncaabsyr;ncaafsyr",
    "Name": "Overlook",
    "Address": "225 E 44th St, New York, NY 10017",
    "City": "NYC",
    "State": "NY",
    "latitude": 40.7516988,
    "longitude": -73.9722754,
    "Phone": "212-682-7266",
    "Website": ""
  },
  {
    "Teams": "mlsnyc;ncaabucf;ncaafucf",
    "Name": "Carragher's",
    "Address": "228 W 39th St, New York, NY 10018",
    "City": "NYC",
    "State": "NY",
    "latitude": 40.7544,
    "longitude": -73.9895414,
    "Phone": "646-370-1545",
    "Website": "http://carraghersnyc.com/"
  },
  {
    "Teams": "ncaabwake;ncaafwake",
    "Name": "Windfall",
    "Address": "23 W 39th St, New York, NY 10018",
    "City": "NYC",
    "State": "NY",
    "latitude": 40.752465,
    "longitude": -73.983705,
    "Phone": "212-869-4606",
    "Website": "http://www.windfallnyc.com"
  },
  {
    "Teams": "nfldal",
    "Name": "Hurley's Saloon",
    "Address": "232 W 48th St, New York, NY 10036",
    "City": "NYC",
    "State": "NY",
    "latitude": 40.7605335,
    "longitude": -73.9861288,
    "Phone": "212-765-8981",
    "Website": "http://www.hurleysnyc.com/"
  },
  {
    "Teams": "nhlstl",
    "Name": "Wood and Ales",
    "Address": "234 W 14th St, New York, NY 10011",
    "City": "NYC",
    "State": "NY",
    "latitude": 40.7391127,
    "longitude": -74.0015681,
    "Phone": "212-206-0430",
    "Website": "http://www.woodandales.com/"
  },
  {
    "Teams": "ncaabfsu;ncaaffsu;nflgb;mlsnyc",
    "Name": "The Three Monkeys",
    "Address": "236 W 54th St, New York, NY 10019",
    "City": "NYC",
    "State": "NY",
    "latitude": 40.7640969,
    "longitude": -73.9830761,
    "Phone": "212-586-2080",
    "Website": "http://thethreemonkeysbar.com/"
  },
  {
    "Teams": "nbamin;mlbmin;nflmin;nhlmin;nhlnyr;ncaabniu;ncaafniu;ncaabwvu;ncaafwvu",
    "Name": "Jack Doyle's",
    "Address": "240 W 35th St, New York, NY 10001",
    "City": "NYC",
    "State": "NY",
    "latitude": 40.752161,
    "longitude": -73.991941,
    "Phone": "212-268-1255",
    "Website": "http://www.jackdoylesnyc.com/"
  },
  {
    "Teams": "ncaabuga;ncaafuga;nfllar;ncaabmich;ncaafmich;nbanyk;ncaabuva;ncaafuva",
    "Name": "American Whiskey",
    "Address": "247 W 30th St, New York, NY 10001",
    "City": "NYC",
    "State": "NY",
    "latitude": 40.7493213,
    "longitude": -73.9940258,
    "Phone": "212-967-1070",
    "Website": "http://www.americanwhiskeynyc.com/"
  },
  {
    "Teams": "mlbhou;nflhou",
    "Name": "Eastpoint",
    "Address": "25 Avenue B, New York, NY 10009",
    "City": "NYC",
    "State": "NY",
    "latitude": 40.7222292,
    "longitude": -73.9830259,
    "Phone": "646-882-0593",
    "Website": "https://www.eastpointnyc.com/"
  },
  {
    "Teams": "ncaabminn;ncaafminn",
    "Name": "McHale's Bar & Grill",
    "Address": "251 W 51st St, New York, NY 10019",
    "City": "NYC",
    "State": "NY",
    "latitude": 40.762805,
    "longitude": -73.9851265,
    "Phone": "212-957-5138",
    "Website": "http://www.mchalespub.com/"
  },
  {
    "Teams": "nflpit",
    "Name": "The Mean Fiddler",
    "Address": "266 W 47th St, New York, NY 10036",
    "City": "NYC",
    "State": "NY",
    "latitude": 40.7600594,
    "longitude": -73.9871717,
    "Phone": "212-354-2950",
    "Website": "https://www.themeanfiddlernyc.com/"
  },
  {
    "Teams": "nfldal;ncaabiowa;ncaafiowa;mlsnyc;mlbnym;ncaabwsu;ncaafwsu",
    "Name": "The Playwright Irish Pub",
    "Address": "27 W 35th St, New York, NY 10001",
    "City": "NYC",
    "State": "NY",
    "latitude": 40.7497884,
    "longitude": -73.9853832,
    "Phone": "212-268-8868",
    "Website": "http://www.playwrightirishpubnyc.com/"
  },
  {
    "Teams": "ncaabtcu;ncaaftcu",
    "Name": "Gramercy Ale House",
    "Address": "272 3rd Ave, New York, NY 10010",
    "City": "NYC",
    "State": "NY",
    "latitude": 40.7379378,
    "longitude": -73.9840751,
    "Phone": "646-678-3566",
    "Website": "http://www.gramercyalehouse.com/"
  },
  {
    "Teams": "ncaabtlsa;ncaaftlsa",
    "Name": "Ryan Maguire's Bar & Restaurant",
    "Address": "28 Cliff St, New York, NY 10038",
    "City": "NYC",
    "State": "NY",
    "latitude": 40.7080137,
    "longitude": -74.0050629,
    "Phone": "212-566-6906",
    "Website": "http://www.ryanmaguires.com/"
  },
  {
    "Teams": "ncaabcle;ncaafcle",
    "Name": "The Liberty",
    "Address": "29 W 35th St, New York, NY 10001",
    "City": "NYC",
    "State": "NY",
    "latitude": 40.7498823,
    "longitude": -73.9856442,
    "Phone": "212-967-4000",
    "Website": "http://thelibertynyc.com/"
  },
  {
    "Teams": "nfldal;nflhou;ncaabtex;ncaaftex",
    "Name": "Hill Country Barbecue Market",
    "Address": "30 W 26th St, New York, NY 10010",
    "City": "NYC",
    "State": "NY",
    "latitude": 40.7441558,
    "longitude": -73.9904866,
    "Phone": "212-255-4544",
    "Website": "https://hillcountry.com/nyc/"
  },
  {
    "Teams": "ncaabsyr;ncaafsyr",
    "Name": "Beer Authority",
    "Address": "300 W 40th St, New York, NY 10018",
    "City": "NYC",
    "State": "NY",
    "latitude": 40.7559338,
    "longitude": -73.9911822,
    "Phone": "212-510-8415",
    "Website": "http://www.beerauthoritynyc.com/"
  },
  {
    "Teams": "ncaabapp;ncaafapp;ncaabfiu;ncaaffiu;ncaabrutg;ncaafrutg",
    "Name": "The House of Brews",
    "Address": "302 W 51st St, New York, NY 10019",
    "City": "NYC",
    "State": "NY",
    "latitude": 40.7629384,
    "longitude": -73.9862531,
    "Phone": "212-541-7080",
    "Website": "http://www.houseofbrewsny.com/"
  },
  {
    "Teams": "nflbuf",
    "Name": "Taps Tavern",
    "Address": "3731 PA-378, Bethlehem, PA 18015",
    "City": "NYC",
    "State": "PA",
    "latitude": 40.5875612,
    "longitude": -75.385891,
    "Phone": "610-748-7100",
    "Website": "http://www.taps378.com/"
  },
  {
    "Teams": "nbabkn;mlsnyrb",
    "Name": "Bello's Pub and Grill, Newark's First Gastropub",
    "Address": "376 Market St, Newark, NJ 07105",
    "City": "NYC",
    "State": "NJ",
    "latitude": 40.7334979,
    "longitude": -74.1634799,
    "Phone": "973-465-0052",
    "Website": "http://bellospubandgrill.com/"
  },
  {
    "Teams": "ncaabpur;ncaafpur",
    "Name": "Buffalo Wild Wings",
    "Address": "3798 Dryland Way, Easton, PA 18045",
    "City": "NYC",
    "State": "PA",
    "latitude": 40.7135798,
    "longitude": -75.2857982,
    "Phone": "610-330-6950",
    "Website": "http://buffalowildwings.com/"
  },
  {
    "Teams": "nflnyg",
    "Name": "Taproom No.307",
    "Address": "307 3rd Ave, New York, NY 10010",
    "City": "NYC",
    "State": "NY",
    "latitude": 40.739,
    "longitude": -73.982709,
    "Phone": "212-725-4766",
    "Website": "http://www.taproom307.com/"
  },
  {
    "Teams": "nflne;nflsf",
    "Name": "T_r na N_g, Times Square",
    "Address": "315 W 39th St, New York, NY 10018",
    "City": "NYC",
    "State": "NY",
    "latitude": 40.7559712,
    "longitude": -73.9920452,
    "Phone": "212-760-0072",
    "Website": "http://www.tirnanognyc.com/timessquare"
  },
  {
    "Teams": "ncaabcolo;ncaafcolo;nhlnyr",
    "Name": "The Chelsea Bell",
    "Address": "316 8th Ave, New York, NY 10001",
    "City": "NYC",
    "State": "NY",
    "latitude": 40.7469146,
    "longitude": -73.9970291,
    "Phone": "212-242-2425",
    "Website": "http://www.thechelseabell.com/"
  },
  {
    "Teams": "nflno",
    "Name": "Parkside Lounge",
    "Address": "317 E Houston St, New York, NY 10002",
    "City": "NYC",
    "State": "NY",
    "latitude": 40.721024,
    "longitude": -73.983235,
    "Phone": "212-673-6270",
    "Website": "http://www.parksidelounge.nyc/"
  },
  {
    "Teams": "ncaabapp;ncaafapp;ncaabcin;ncaafcin;ncaabfiu;ncaaffiu",
    "Name": "New York Beer Company",
    "Address": "321 W 44th St, New York, NY 10036",
    "City": "NYC",
    "State": "NY",
    "latitude": 40.7593023,
    "longitude": -73.9900458,
    "Phone": "212-245-2337",
    "Website": "http://www.nybeercompany.com/"
  },
  {
    "Teams": "ncaabbuff;ncaafbuff;ncaabbuff;ncaafbuff",
    "Name": "All Stars Sports Bar and grill",
    "Address": "327 W 57th St, New York, NY 10019",
    "City": "NYC",
    "State": "NY",
    "latitude": 40.7674708,
    "longitude": -73.9841278,
    "Phone": "212-956-1606",
    "Website": "https://www.allstarsbarnyc.com/"
  },
  {
    "Teams": "ncaabmsst;ncaafmsst",
    "Name": "The Junction",
    "Address": "329 Lexington Ave, New York, NY 10016",
    "City": "NYC",
    "State": "NY",
    "latitude": 40.7493294,
    "longitude": -73.9774066,
    "Phone": "212-682-7700",
    "Website": "http://www.thejunctionnyc.com/"
  },
  {
    "Teams": "ncaabisu;ncaafisu",
    "Name": "The Triple Crown Ale House",
    "Address": "330 7th Ave, New York, NY 10001",
    "City": "NYC",
    "State": "NY",
    "latitude": 40.747716,
    "longitude": -73.993389,
    "Phone": "212-736-1575",
    "Website": "http://www.triplecrownnyc.com/"
  },
  {
    "Teams": "ncaabgt;ncaafgt",
    "Name": "AWOL Bar & Grill",
    "Address": "337 3rd Ave, New York, NY 10010",
    "City": "NYC",
    "State": "NY",
    "latitude": 40.7400414,
    "longitude": -73.9821896,
    "Phone": "646-682-9405",
    "Website": "http://www.goawolnyc.com/"
  },
  {
    "Teams": "nflphi",
    "Name": "Molly's Irish Grille & Sports Pub",
    "Address": "4 E 4th St, Bethlehem, PA 18015",
    "City": "NYC",
    "State": "PA",
    "latitude": 40.6103268,
    "longitude": -75.3780586,
    "Phone": "610-868-1313",
    "Website": "http://www.mollysbethlehem.com/"
  },
  {
    "Teams": "nflnyj",
    "Name": "The Immigrant",
    "Address": "341 E 9th St, New York, NY 10003",
    "City": "NYC",
    "State": "NY",
    "latitude": 40.728509,
    "longitude": -73.985404,
    "Phone": "646-308-1724",
    "Website": "http://www.theimmigrantnyc.com/"
  },
  {
    "Teams": "ncaabpit;ncaafpit;ncaabpur;ncaafpur;ncaabvu",
    "Name": "The Clubhouse Grille",
    "Address": "400 Illick's Mill Rd, Bethlehem, PA 18017",
    "City": "NYC",
    "State": "PA",
    "latitude": 40.6429696,
    "longitude": -75.3862498,
    "Phone": "610-625-0060",
    "Website": "http://www.theclubhousegrille.com/"
  },
  {
    "Teams": "nflno",
    "Name": "Bourbon Street Bar & Grille",
    "Address": "346 W 46th St, New York, NY 10036",
    "City": "NYC",
    "State": "NY",
    "latitude": 40.7603518,
    "longitude": -73.9897602,
    "Phone": "212-245-2030",
    "Website": "http://www.bourbonny.com/"
  },
  {
    "Teams": "mlsnyc",
    "Name": "Ryan's Daughter",
    "Address": "350 E 85th St, New York, NY 10028",
    "City": "NYC",
    "State": "NY",
    "latitude": 40.776326,
    "longitude": -73.9504518,
    "Phone": "212-628-2613",
    "Website": "http://ryansdaughternyc.com/"
  },
  {
    "Teams": "nflbal;nflden;ncaabmu;nflnyg;nflnyj;ncaabpit;ncaafpit;ncaabttu;ncaafttu;ncaabxu",
    "Name": "Mustang Harry's",
    "Address": "352 7th Ave, New York, NY 10001",
    "City": "NYC",
    "State": "NY",
    "latitude": 40.748333,
    "longitude": -73.992987,
    "Phone": "212-268-8930",
    "Website": "http://www.mustangharrys.com/"
  },
  {
    "Teams": "ncaabumd;ncaafumd",
    "Name": "Abbey Tavern",
    "Address": "354 3rd Ave, New York, NY 10010",
    "City": "NYC",
    "State": "NY",
    "latitude": 40.740767,
    "longitude": -73.9820648,
    "Phone": "212-696-1011",
    "Website": "http://abbeytavernnyc.com/"
  },
  {
    "Teams": "ncaabuconn;ncaafuconn;ncaabuk;ncaafuk;ncaabpit;ncaafpit;ncaabusf;ncaafusf",
    "Name": "Jack Demsey's",
    "Address": "36 West 33rd Street, New York, NY 10001",
    "City": "NYC",
    "State": "NY",
    "latitude": 40.7484662,
    "longitude": -73.9868662,
    "Phone": "212-629-9899",
    "Website": "http://www.jackdemseys.com/"
  },
  {
    "Teams": "ncaabcin;ncaafcin;nflcin;mlsnyc",
    "Name": "Phebe's",
    "Address": "361 Bowery, New York, NY 10003",
    "City": "NYC",
    "State": "NY",
    "latitude": 40.7268043,
    "longitude": -73.9912995,
    "Phone": "212-358-1902",
    "Website": "http://www.phebesnyc.com/"
  },
  {
    "Teams": "nflbuf",
    "Name": "Abbey's Pub",
    "Address": "409 Monmouth St, Jersey City, NJ 07302",
    "City": "NYC",
    "State": "NJ",
    "latitude": 40.723832,
    "longitude": -74.049251,
    "Phone": "201-963-3334",
    "Website": "http://www.abbeyspubgrill.com/"
  },
  {
    "Teams": "ncaabxu",
    "Name": "House of Brews",
    "Address": "363 W 46th St, New York, NY 10036",
    "City": "NYC",
    "State": "NY",
    "latitude": 40.7608292,
    "longitude": -73.9901145,
    "Phone": "212-245-0551",
    "Website": "http://www.houseofbrewsny.com/"
  },
  {
    "Teams": "ncaabrutg;ncaafrutg;ncaabtamu;ncaaftamu",
    "Name": "HOG PIT NYC",
    "Address": "37 B W 26th St, New York, NY 10010",
    "City": "NYC",
    "State": "NY",
    "latitude": 40.744574,
    "longitude": -73.990432,
    "Phone": "646-760-3645",
    "Website": "http://www.hogpit.com/"
  },
  {
    "Teams": "ncaabnd;ncaafnd",
    "Name": "Boxers",
    "Address": "37 W 20th St, New York, NY 10011",
    "City": "NYC",
    "State": "NY",
    "latitude": 40.7407401,
    "longitude": -73.9932516,
    "Phone": "212-255-5082",
    "Website": "http://www.boxersnyc.com/"
  },
  {
    "Teams": "nflno",
    "Name": "The Sir Henri Rooftop Penthouse Bar",
    "Address": "37 W 24th St 18th floor, New York, NY 10010, United States",
    "City": "NYC",
    "State": "NY",
    "latitude": 40.743242,
    "longitude": -73.9910491,
    "Phone": "212-727-0258",
    "Website": "https://www.sirhenriny.com/"
  },
  {
    "Teams": "ncaabcal;ncaafcal",
    "Name": "Gold Bear",
    "Address": "377 Park Ave S, New York, NY 10016",
    "City": "NYC",
    "State": "NY",
    "latitude": 40.7423262,
    "longitude": -73.984499,
    "Phone": "646-850-1400",
    "Website": "http://goldbearnyc.com/"
  },
  {
    "Teams": "nbabkn",
    "Name": "Flatiron Hall Restaurant and Beer Cellar",
    "Address": "38 W 26th St, New York, NY 10010",
    "City": "NYC",
    "State": "NY",
    "latitude": 40.7442721,
    "longitude": -73.9907621,
    "Phone": "646-790-3200",
    "Website": "http://www.flatironhall.com/"
  },
  {
    "Teams": "nfldal",
    "Name": "Allure Lounge",
    "Address": "417 Halsey St, Newark, NJ 07102",
    "City": "NYC",
    "State": "NJ",
    "latitude": 40.7282453,
    "longitude": -74.1785153,
    "Phone": "908-510-6063",
    "Website": "http://allureloungenj.com/"
  },
  {
    "Teams": "nbabkn;nflphi",
    "Name": "Wogies",
    "Address": "39 Greenwich Ave, New York, NY 10014",
    "City": "NYC",
    "State": "NY",
    "latitude": 40.73537,
    "longitude": -74.000591,
    "Phone": "212-229-2171",
    "Website": "http://www.wogies.com/"
  },
  {
    "Teams": "nflbuf",
    "Name": "The Gaf West",
    "Address": "401 W 48th St, New York, NY 10036",
    "City": "NYC",
    "State": "NY",
    "latitude": 40.7625308,
    "longitude": -73.9902184,
    "Phone": "212-307-7536",
    "Website": "http://gafwestnyc.vpweb.com/Home.html"
  },
  {
    "Teams": "nhlpit;nflpit",
    "Name": "Hibernia Bar",
    "Address": "401 W 50th St, New York, NY 10019",
    "City": "NYC",
    "State": "NY",
    "latitude": 40.763741,
    "longitude": -73.9893053,
    "Phone": "212-969-9703",
    "Website": "https://hiberniabar.com/"
  },
  {
    "Teams": "ncaabariz;ncaafariz;nhlnyr",
    "Name": "Tempest Bar",
    "Address": "407 8th Ave, New York, NY 10001",
    "City": "NYC",
    "State": "NY",
    "latitude": 40.7499963,
    "longitude": -73.9953765,
    "Phone": "212-643-1502",
    "Website": "http://www.tempestbarnyc.com/"
  },
  {
    "Teams": "nbanyk",
    "Name": "Blarney Stone",
    "Address": "410 8th Ave, New York, NY 10001",
    "City": "NYC",
    "State": "NY",
    "latitude": 40.7499396,
    "longitude": -73.9948855,
    "Phone": "212-594-5100",
    "Website": ""
  },
  {
    "Teams": "ncaabgonz;ncaabpsu;ncaafpsu",
    "Name": "Tonic East",
    "Address": "411 3rd Ave, New York, NY 10016",
    "City": "NYC",
    "State": "NY",
    "latitude": 40.7424198,
    "longitude": -73.9803294,
    "Phone": "212-683-7090",
    "Website": "http://www.toniceast.com/"
  },
  {
    "Teams": "mlsnyrb",
    "Name": "BarCode",
    "Address": "429 N Broad St, Elizabeth, NJ 07208",
    "City": "NYC",
    "State": "NJ",
    "latitude": 40.672124,
    "longitude": -74.213681,
    "Phone": "908-527-1928",
    "Website": "http://www.barcodenj.com/"
  },
  {
    "Teams": "ncaabmiz;ncaafmiz;nbanyk",
    "Name": "Raise New York",
    "Address": "416 3rd Ave, New York, NY 10016",
    "City": "NYC",
    "State": "NY",
    "latitude": 40.7430748,
    "longitude": -73.9803757,
    "Phone": "212-481-1712",
    "Website": "http://www.raisenewyork.com/"
  },
  {
    "Teams": "nflcar;ncaabncst;ncaafncst;ncaabwk;ncaafwk",
    "Name": "Brother Jimmy's BBQ",
    "Address": "416 8th Ave, New York, NY 10001",
    "City": "NYC",
    "State": "NY",
    "latitude": 40.750077,
    "longitude": -73.994661,
    "Phone": "212-967-7603",
    "Website": "http://www.brotherjimmys.com/"
  },
  {
    "Teams": "ncaabsc;ncaafsc",
    "Name": "Mason Jar NYC",
    "Address": "43 E 30th St, New York, NY 10016",
    "City": "NYC",
    "State": "NY",
    "latitude": 40.744902,
    "longitude": -73.983696,
    "Phone": "212-213-3587",
    "Website": "http://www.masonjarny.com/"
  },
  {
    "Teams": "mlbbos;nbabkn;nflcin;ncaabgonz;nflnyg;nflnyj;mlbnym;mlbnyy",
    "Name": "Standings",
    "Address": "43 E 7th St, New York, NY 10003",
    "City": "NYC",
    "State": "NY",
    "latitude": 40.7283142,
    "longitude": -73.988579,
    "Phone": "212-420-0671",
    "Website": ""
  },
  {
    "Teams": "nflphi",
    "Name": "Wogies",
    "Address": "44 Trinity Pl, New York, NY 10006",
    "City": "NYC",
    "State": "NY",
    "latitude": 40.707512,
    "longitude": -74.013392,
    "Phone": "212-785-2838",
    "Website": "http://wogies.com/"
  },
  {
    "Teams": "ncaabneb;ncaafneb;nhlnyr;ncaabshu",
    "Name": "Hudson Station",
    "Address": "440 9th Ave, New York, NY 10001",
    "City": "NYC",
    "State": "NY",
    "latitude": 40.7536713,
    "longitude": -73.9954923,
    "Phone": "212-244-4406",
    "Website": "http://hudsonstation.com/"
  },
  {
    "Teams": "nflnyg",
    "Name": "The Gin Mill",
    "Address": "442 Amsterdam Ave, New York, NY 10024",
    "City": "NYC",
    "State": "NY",
    "latitude": 40.784754,
    "longitude": -73.977537,
    "Phone": "212-580-9080",
    "Website": "http://www.nycbestbar.com/ginmill/"
  },
  {
    "Teams": "ncaabduke;ncaafduke;ncaabfsu;ncaaffsu;nbahou;ncaabmiz;ncaafmiz;nbanop;ncaabou;ncaafou;nbator;nbauta;ncaabvan;ncaafvan",
    "Name": "The Ainsworth",
    "Address": "45 E 33rd St, New York, NY 10016",
    "City": "NYC",
    "State": "NY",
    "latitude": 40.7467903,
    "longitude": -73.982458,
    "Phone": "212-201-1228",
    "Website": "http://www.theainsworth.com/midtown"
  },
  {
    "Teams": "nbabkn",
    "Name": "The Village Tavern",
    "Address": "46 Bedford St, New York, NY 10014",
    "City": "NYC",
    "State": "NY",
    "latitude": 40.7305845,
    "longitude": -74.0041733,
    "Phone": "212-741-1935",
    "Website": "http://www.thevillagetavernnyc.com/parties.html"
  },
  {
    "Teams": "ncaabsyr;ncaafsyr",
    "Name": "Houston Hall",
    "Address": "4846, 222, W Houston St, New York, NY 10014",
    "City": "NYC",
    "State": "NY",
    "latitude": 40.728695,
    "longitude": -74.004745,
    "Phone": "212-675-9323",
    "Website": "http://www.houstonhallny.com/"
  },
  {
    "Teams": "ncaabmich;ncaafmich",
    "Name": "Blue Haven East",
    "Address": "493 Third Ave, New York, NY 10016",
    "City": "NYC",
    "State": "NY",
    "latitude": 40.745166,
    "longitude": -73.978159,
    "Phone": "646-678-4200",
    "Website": "http://www.bluehavennyc.com/"
  },
  {
    "Teams": "mlsnyc",
    "Name": "Reichenbach Hall",
    "Address": "5 W 37th St, New York, NY 10018",
    "City": "NYC",
    "State": "NY",
    "latitude": 40.7508078,
    "longitude": -73.9840338,
    "Phone": "212-302-7744",
    "Website": "http://reichenbachhall.com/"
  },
  {
    "Teams": "ncaabuf;ncaafuf",
    "Name": "The Tailor Public House",
    "Address": "505 8th Ave, New York, NY 10018",
    "City": "NYC",
    "State": "NY",
    "latitude": 40.7533532,
    "longitude": -73.9930117,
    "Phone": "646-949-4900",
    "Website": "http://thetailornyc.com/"
  },
  {
    "Teams": "nfllac;mlsnyc",
    "Name": "Scallywag's Irish Pub",
    "Address": "508 9th Ave, New York, NY 10018",
    "City": "NYC",
    "State": "NY",
    "latitude": 40.75607,
    "longitude": -73.994013,
    "Phone": "646-490-4803",
    "Website": "http://www.scallywagsnyc.com/"
  },
  {
    "Teams": "ncaabbc;ncaafbc;ncaabcin;ncaafcin;ncaabmsu;ncaafmsu;mlsnyc",
    "Name": "Joshua Tree",
    "Address": "513 Third Ave, New York, NY 10016",
    "City": "NYC",
    "State": "NY",
    "latitude": 40.7459226,
    "longitude": -73.9775738,
    "Phone": "212-689-0058",
    "Website": "http://www.joshuatreebar.com/"
  },
  {
    "Teams": "ncaabhou;ncaafhou",
    "Name": "Geteburgers",
    "Address": "522 Columbus Ave, New York, NY 10024",
    "City": "NYC",
    "State": "NY",
    "latitude": 40.786044,
    "longitude": -73.9727092,
    "Phone": "212-787-3473",
    "Website": "http://geteburgers.com/"
  },
  {
    "Teams": "ncaabark;ncaafark",
    "Name": "Gatsby's",
    "Address": "53 Spring St, New York, NY 10012",
    "City": "NYC",
    "State": "NY",
    "latitude": 40.7221775,
    "longitude": -73.9966157,
    "Phone": "212-334-4430",
    "Website": "http://www.gatsbysnyc.com/"
  },
  {
    "Teams": "nhlnyr;ncaabxu",
    "Name": "The Keg Room",
    "Address": "53 W 36th St, New York, NY 10018",
    "City": "NYC",
    "State": "NY",
    "latitude": 40.7508673,
    "longitude": -73.9859166,
    "Phone": "212-643-1400",
    "Website": "http://thekegroomnyc.com/"
  },
  {
    "Teams": "ncaabtamu;ncaaftamu",
    "Name": "Slate NY",
    "Address": "54 W 21st St, New York, NY 10010",
    "City": "NYC",
    "State": "NY",
    "latitude": 40.7411817,
    "longitude": -73.9931954,
    "Phone": "212-989-0096",
    "Website": "http://www.slate-ny.com/"
  },
  {
    "Teams": "ncaabapp;ncaafapp;ncaabduke;ncaafduke;ncaabecu;ncaafecu;ncaabpsu;ncaafpsu;nflphi;ncaabvu",
    "Name": "Proper West",
    "Address": "54 W 39th St, New York, NY 10018",
    "City": "NYC",
    "State": "NY",
    "latitude": 40.752396,
    "longitude": -73.984768,
    "Phone": "212-997-9000",
    "Website": "https://www.properwest.com/"
  },
  {
    "Teams": "ncaabtuln;ncaaftuln",
    "Name": "Duke's",
    "Address": "560 3rd Ave, New York, NY 10016",
    "City": "NYC",
    "State": "NY",
    "latitude": 40.74809,
    "longitude": -73.97686,
    "Phone": "212-949-5400",
    "Website": "http://www.dukesnyc.com/"
  },
  {
    "Teams": "nbanyk",
    "Name": "Hudson Hound",
    "Address": "575 Hudson St, New York, NY 10014",
    "City": "NYC",
    "State": "NY",
    "latitude": 40.7361456,
    "longitude": -74.006185,
    "Phone": "212-796-6213",
    "Website": "http://hudsonhoundnyc.com/"
  },
  {
    "Teams": "nbaphi;nflphi",
    "Name": "Shorty's",
    "Address": "576 9th Ave, New York, NY 10036",
    "City": "NYC",
    "State": "NY",
    "latitude": 40.7581534,
    "longitude": -73.9925024,
    "Phone": "212-967-3055",
    "Website": "http://www.shortysnyc.com/"
  },
  {
    "Teams": "nflgb",
    "Name": "Kettle of Fish",
    "Address": "59 Christopher St, New York, NY 10014",
    "City": "NYC",
    "State": "NY",
    "latitude": 40.7337968,
    "longitude": -74.002394,
    "Phone": "212-414-2278",
    "Website": "http://kettleoffishnyc.com/"
  },
  {
    "Teams": "nbabkn;nflnyg;nflnyj;nflpit",
    "Name": "Lansdowne Road",
    "Address": "599 10th Ave, New York, NY 10036",
    "City": "NYC",
    "State": "NY",
    "latitude": 40.7606646,
    "longitude": -73.9949359,
    "Phone": "212-239-8020",
    "Website": "http://www.lansdowneroadnyc.com/"
  },
  {
    "Teams": "mlsnyc;ncaabpsu;ncaafpsu",
    "Name": "Manhattan Proper",
    "Address": "6 Murray Street, New York, NY 10007",
    "City": "NYC",
    "State": "NY",
    "latitude": 40.71327,
    "longitude": -74.008043,
    "Phone": "646-559-4445",
    "Website": "http://manhattanproper.com/"
  },
  {
    "Teams": "nhlnjd",
    "Name": "Edison Ale House",
    "Address": "51 Edison Pl, Newark, NJ 07102",
    "City": "NYC",
    "State": "NJ",
    "latitude": 40.7344205,
    "longitude": -74.1703047,
    "Phone": "973-643-5560",
    "Website": "http://www.edisonalehouse.com/"
  },
  {
    "Teams": "mlsnyrb;nflcle;ncaablsu;ncaaflsu",
    "Name": "Football Factory at Legends",
    "Address": "6 West 33rd Street, New York, NY 10001",
    "City": "NYC",
    "State": "NY",
    "latitude": 40.7479328,
    "longitude": -73.9857111,
    "Phone": "212-967-7792",
    "Website": "http://www.legendsff.com/"
  },
  {
    "Teams": "nflgb;ncaabsju;ncaabtex;ncaaftex",
    "Name": "Stout NYC ~ Grand Central",
    "Address": "60 E 41st St, New York, NY 10017",
    "City": "NYC",
    "State": "NY",
    "latitude": 40.7517066,
    "longitude": -73.9789992,
    "Phone": "212-922-9009",
    "Website": "http://stoutnyc.com/"
  },
  {
    "Teams": "mlbnyy;nbaphi;nflphi;mlbphi",
    "Name": "Shorty's",
    "Address": "62 Pearl St, New York, NY 10004",
    "City": "NYC",
    "State": "NY",
    "latitude": 40.7034539,
    "longitude": -74.0109864,
    "Phone": "212-480-3900",
    "Website": "http://www.shortysnyc.com/"
  },
  {
    "Teams": "ncaabfsu;ncaaffsu;ncaabgonz;nbahou;nbanop;ncaabnd;ncaafnd;nbator;nbauta",
    "Name": "The Ainsworth",
    "Address": "64 3rd Ave, New York, NY 10003",
    "City": "NYC",
    "State": "NY",
    "latitude": 40.7313135,
    "longitude": -73.9888616,
    "Phone": "212-419-1151",
    "Website": "http://theainsworth.com/"
  },
  {
    "Teams": "nflne",
    "Name": "Clinton Hall",
    "Address": "6571, 230 E 51st St, New York, NY 10022",
    "City": "NYC",
    "State": "NY",
    "latitude": 40.7557436,
    "longitude": -73.9691692,
    "Phone": "212-758-8519",
    "Website": "http://www.clintonhallny.com/"
  },
  {
    "Teams": "nfldet;nflnyg;ncaabpsu;ncaafpsu",
    "Name": "Mercury Bar West",
    "Address": "659 9th Ave, New York, NY 10036",
    "City": "NYC",
    "State": "NY",
    "latitude": 40.7608345,
    "longitude": -73.991093,
    "Phone": "212-262-7755",
    "Website": "http://www.mercurybarnyc.com/"
  },
  {
    "Teams": "nbaphi;nflphi;ncaabtem;ncaaftem",
    "Name": "Shorty's",
    "Address": "66 Madison Ave, New York, NY 10016",
    "City": "NYC",
    "State": "NY",
    "latitude": 40.7436885,
    "longitude": -73.986177,
    "Phone": "212-725-3900",
    "Website": "http://www.shortysnyc.com/"
  },
  {
    "Teams": "mlsnyc",
    "Name": "Johnny Utah's",
    "Address": "6939, 25 W 51st St, New York, NY 10019",
    "City": "NYC",
    "State": "NY",
    "latitude": 40.7600425,
    "longitude": -73.9782601,
    "Phone": "212-265-8824",
    "Website": "http://www.johnnyutahs.com/"
  },
  {
    "Teams": "ncaabbut;ncaabvt;ncaafvt",
    "Name": "5th&Mad",
    "Address": "7 E 36th St, New York, NY 10016",
    "City": "NYC",
    "State": "NY",
    "latitude": 40.7496106,
    "longitude": -73.9829305,
    "Phone": "212-725-2353",
    "Website": "http://5thandmad.com/"
  },
  {
    "Teams": "mlsnyc",
    "Name": "Loreley Beer Garden",
    "Address": "7 Rivington St, New York, NY 10002",
    "City": "NYC",
    "State": "NY",
    "latitude": 40.721267,
    "longitude": -73.992847,
    "Phone": "212-253-7077",
    "Website": "http://www.loreleynyc.com/"
  },
  {
    "Teams": "ncaabind;ncaafind;ncaabmu",
    "Name": "Reservoir Bar",
    "Address": "70 University Pl A, New York, NY 10003",
    "City": "NYC",
    "State": "NY",
    "latitude": 40.7331546,
    "longitude": -73.9936316,
    "Phone": "212-475-0770",
    "Website": "http://www.reservoirbar.com/"
  },
  {
    "Teams": "ncaabrutg;ncaafrutg",
    "Name": "McGettigan's NYC",
    "Address": "70 W 36th St, New York, NY 10018",
    "City": "NYC",
    "State": "NY",
    "latitude": 40.7506535,
    "longitude": -73.9861707,
    "Phone": "212-913-0533",
    "Website": "http://www.mcgettigans.com/new-york/"
  },
  {
    "Teams": "mlsnyrb",
    "Name": "Catas Restaurant and Lounge",
    "Address": "538 Market St, Newark, NJ 07105",
    "City": "NYC",
    "State": "NJ",
    "latitude": 40.731682,
    "longitude": -74.155191,
    "Phone": "973-491-5400",
    "Website": "http://www.catasnewark.com/"
  },
  {
    "Teams": "mlsnyc",
    "Name": "Hofbr_u Bierhaus NYC",
    "Address": "712 3rd Ave, New York, NY 10017",
    "City": "NYC",
    "State": "NY",
    "latitude": 40.7525325,
    "longitude": -73.9733874,
    "Phone": "212-867-2337",
    "Website": "http://bierhausnyc.com/"
  },
  {
    "Teams": "ncaabosu;ncaafosu",
    "Name": "Iron Bar & Lounge",
    "Address": "713 8th Ave, New York, NY 10036",
    "City": "NYC",
    "State": "NY",
    "latitude": 40.7591468,
    "longitude": -73.9886401,
    "Phone": "212-961-7507",
    "Website": "http://www.ironbarnyc.com/"
  },
  {
    "Teams": "ncaabwmu;ncaafwmu",
    "Name": "Tonic Times Square",
    "Address": "727 7th Ave, New York, NY 10019",
    "City": "NYC",
    "State": "NY",
    "latitude": 40.7600407,
    "longitude": -73.9837737,
    "Phone": "646-820-7316",
    "Website": "http://tonicwest.com/"
  },
  {
    "Teams": "ncaabniu;ncaafniu",
    "Name": "Two Rivers Brewing",
    "Address": "542 Northampton St, Easton, PA 18042",
    "City": "NYC",
    "State": "PA",
    "latitude": 40.6907247,
    "longitude": -75.2142121,
    "Phone": "610-829-1131",
    "Website": "http://www.tworiversbrewing.com/"
  },
  {
    "Teams": "nflnyj",
    "Name": "Dive Bar",
    "Address": "732 Amsterdam Ave, New York, NY 10025",
    "City": "NYC",
    "State": "NY",
    "latitude": 40.7939337,
    "longitude": -73.9706785,
    "Phone": "212-749-4358",
    "Website": "http://www.divebarnyc.com/"
  },
  {
    "Teams": "nflnyg",
    "Name": "Tonic bar",
    "Address": "734 7th Ave, New York, NY 10019",
    "City": "NYC",
    "State": "NY",
    "latitude": 40.7603832,
    "longitude": -73.9842038,
    "Phone": "",
    "Website": "http://tonicbarnyc.com/"
  },
  {
    "Teams": "nflnyg",
    "Name": "123 Burger Shot Beer",
    "Address": "738 10th Ave, New York, NY 10019",
    "City": "NYC",
    "State": "NY",
    "latitude": 40.7647931,
    "longitude": -73.991427,
    "Phone": "212-315-0123",
    "Website": "http://www.123burgershotbeer.com/"
  },
  {
    "Teams": "mlsnyc",
    "Name": "Boxers Sports Bar",
    "Address": "742 9th Ave, New York, NY 10019",
    "City": "NYC",
    "State": "NY",
    "latitude": 40.7634678,
    "longitude": -73.988587,
    "Phone": "212-951-1518",
    "Website": "http://www.boxersnyc.com/"
  },
  {
    "Teams": "ncaabmem;ncaafmem",
    "Name": "J.J. Kinahan's",
    "Address": "757 6th Ave, New York, NY 10010, United States",
    "City": "NYC",
    "State": "NY",
    "latitude": 40.7444062,
    "longitude": -73.9919312,
    "Phone": "646-476-6276",
    "Website": "http://www.jjkinahans.com/"
  },
  {
    "Teams": "nflnyg",
    "Name": "Dorrian's Red Hand",
    "Address": "555 Washington Blvd, Jersey City, NJ 07310",
    "City": "NYC",
    "State": "NJ",
    "latitude": 40.7280858,
    "longitude": -74.0348921,
    "Phone": "201-626-6660",
    "Website": "http://www.dorrians-jerseycity.com/"
  },
  {
    "Teams": "ncaabsju",
    "Name": "The Half Pint",
    "Address": "76 W 3rd St, New York, NY 10012",
    "City": "NYC",
    "State": "NY",
    "latitude": 40.7295121,
    "longitude": -73.9985343,
    "Phone": "212-260-1088",
    "Website": "http://www.thehalfpintnyc.com/"
  },
  {
    "Teams": "ncaabchar;ncaafchar",
    "Name": "Route 66 Smokehouse",
    "Address": "79 Pearl St, New York, NY 10004",
    "City": "NYC",
    "State": "NY",
    "latitude": 40.7040847,
    "longitude": -74.0103935,
    "Phone": "212-943-1602",
    "Website": "http://www.route66smokehouse.com/"
  },
  {
    "Teams": "mlblad",
    "Name": "Taqueria St. Marks Place",
    "Address": "79 St Marks Pl, New York, NY 10003",
    "City": "NYC",
    "State": "NY",
    "latitude": 40.7278913,
    "longitude": -73.9855548,
    "Phone": "646-964-5614",
    "Website": "http://www.facebook.com/taqueria.stmarksplace"
  },
  {
    "Teams": "ncaabapp;ncaafapp;ncaabcu;ncaabksu;ncaafksu;nflmia;ncaabnc;ncaafnc;ncaabnd;ncaafnd",
    "Name": "Slattery's Midtown Pub",
    "Address": "8 E 36th St, New York, NY 10016",
    "City": "NYC",
    "State": "NY",
    "latitude": 40.749215,
    "longitude": -73.9830259,
    "Phone": "212-683-6444",
    "Website": "http://slatterysmidtownpub.com/"
  },
  {
    "Teams": "nflcar;nbahou;nbanop;ncaabsju;ncaabtamu;ncaaftamu;nbator;nbauta",
    "Name": "Amity Hall",
    "Address": "80 W 3rd St, New York, NY 10012",
    "City": "NYC",
    "State": "NY",
    "latitude": 40.72971,
    "longitude": -73.99886,
    "Phone": "212-677-2290",
    "Website": "http://amityhallnyc.com/"
  },
  {
    "Teams": "nflbuf",
    "Name": "McFadden's Saloon",
    "Address": "800 2nd Ave, New York, NY 10017",
    "City": "NYC",
    "State": "NY",
    "latitude": 40.7499071,
    "longitude": -73.9718839,
    "Phone": "212-986-1515",
    "Website": "http://mcfaddens42.com/"
  },
  {
    "Teams": "mlsnyrb",
    "Name": "The Irish Pub",
    "Address": "837 7th Ave, New York, NY 10019",
    "City": "NYC",
    "State": "NY",
    "latitude": 40.7632617,
    "longitude": -73.9813565,
    "Phone": "212-664-9364",
    "Website": "http://theirishpubnyc.com/"
  },
  {
    "Teams": "nflden;nflind",
    "Name": "Keats Bar",
    "Address": "842 2nd Ave, New York, NY 10017",
    "City": "NYC",
    "State": "NY",
    "latitude": 40.751495,
    "longitude": -73.970637,
    "Phone": "212-682-5490",
    "Website": "http://www.keatsbar.com/"
  },
  {
    "Teams": "ncaabhou;ncaafhou",
    "Name": "Bill's Bar & Burgers",
    "Address": "85 West St, New York, NY 10006",
    "City": "NYC",
    "State": "NY",
    "latitude": 40.709363,
    "longitude": -74.0141805,
    "Phone": "212-894-3800",
    "Website": "http://www.billsbarandburger.com/venues/downtown/"
  },
  {
    "Teams": "ncaabohio;ncaafohio",
    "Name": "The Malt House",
    "Address": "9 Maiden Ln, New York, NY 10038",
    "City": "NYC",
    "State": "NY",
    "latitude": 40.7096649,
    "longitude": -74.0093444,
    "Phone": "646-682-7577",
    "Website": "http://www.themalthousefidi.com/"
  },
  {
    "Teams": "ncaabniu;ncaafniu",
    "Name": "Boka",
    "Address": "9 St Marks Pl, New York, NY 10003",
    "City": "NYC",
    "State": "NY",
    "latitude": 40.729435,
    "longitude": -73.9891267,
    "Phone": "646-678-5796",
    "Website": ""
  },
  {
    "Teams": "ncaabsju",
    "Name": "Stout NYC ~ FiDi",
    "Address": "90 John St, New York, NY 10038",
    "City": "NYC",
    "State": "NY",
    "latitude": 40.7081201,
    "longitude": -74.00655,
    "Phone": "212-240-9122",
    "Website": "http://www.stoutnyc.com/"
  },
  {
    "Teams": "ncaabucla;ncaafucla",
    "Name": "Clinton Hall",
    "Address": "90 Washington St, New York, NY 10006",
    "City": "NYC",
    "State": "NY",
    "latitude": 40.70803,
    "longitude": -74.014869,
    "Phone": "212-363-6000",
    "Website": "http://www.clintonhallny.com/"
  },
  {
    "Teams": "ncaabku;ncaafku;nbanyk",
    "Name": "Cornerstone Tavern",
    "Address": "961 2nd Ave, New York, NY 10022",
    "City": "NYC",
    "State": "NY",
    "latitude": 40.7555064,
    "longitude": -73.968333,
    "Phone": "212-888-7403",
    "Website": "http://www.cornerstonetavern.com/"
  },
  {
    "Teams": "ncaablou;ncaaflou",
    "Name": "Murphy's",
    "Address": "977 2nd Ave, New York, NY 10022",
    "City": "NYC",
    "State": "NY",
    "latitude": 40.7560519,
    "longitude": -73.9680149,
    "Phone": "212-751-5400",
    "Website": ""
  },
  {
    "Teams": "ncaabuva;ncaafuva",
    "Name": "Sign of the Whale",
    "Address": "6 Harbor Point Rd, Stamford, CT 06902",
    "City": "NYC",
    "State": "CT",
    "latitude": 41.0398435,
    "longitude": -73.5424962,
    "Phone": "203-883-8282",
    "Website": "http://www.signofthewhalect.com/"
  },
  {
    "Teams": "nflmin;nflno;ncaabosu;ncaafosu",
    "Name": "Bar None",
    "Address": "98 3rd Ave, New York, NY 10003",
    "City": "NYC",
    "State": "NY",
    "latitude": 40.7324074,
    "longitude": -73.9880977,
    "Phone": "212-777-6663",
    "Website": ""
  },
  {
    "Teams": "ncaabsju",
    "Name": "Amity Hall Uptown",
    "Address": "982 Amsterdam Ave, New York, NY 10025",
    "City": "NYC",
    "State": "NY",
    "latitude": 40.8022031,
    "longitude": -73.9647008,
    "Phone": "646-930-2501",
    "Website": "https://amityhalluptown.com/"
  },
  {
    "Teams": "nbabos",
    "Name": "Atwood Sports Bar & Lounge",
    "Address": "986 2nd Ave, New York, NY 10022",
    "City": "NYC",
    "State": "NY",
    "latitude": 40.756174,
    "longitude": -73.967267,
    "Phone": "212-371-2233",
    "Website": "http://www.atwoodny.com/"
  },
  {
    "Teams": "nhlnyr",
    "Name": "Local Caf & Cocktails",
    "Address": "West 33rd Street &amp; 8th Ave, New York, NY 10119",
    "City": "NYC",
    "State": "NY",
    "latitude": 40.7515017,
    "longitude": -73.9934523,
    "Phone": "212-629-7070",
    "Website": "http://localcafenyc.com/"
  },
  {
    "Teams": "ncaabvu",
    "Name": "The Social Gastropub",
    "Address": "746 Old Bethpage Rd, Old Bethpage, NY 11804",
    "City": "NYC",
    "State": "NY",
    "latitude": 40.764252,
    "longitude": -73.4538887,
    "Phone": "516-442-8864",
    "Website": "https://the-social-gastropub.business.site/"
  },
  {
    "Teams": "ncaabmich;ncaafmich",
    "Name": "Rockwells",
    "Address": "105 Wolfs Ln, Pelham, NY 10803",
    "City": "NYC",
    "State": "NY",
    "latitude": 40.909508,
    "longitude": -73.810757,
    "Phone": "914-738-5881",
    "Website": "http://www.rockwellsusa.com/"
  },
  {
    "Teams": "mlsnyc",
    "Name": "Cantina Lobos",
    "Address": "217 Wolfs Ln, Pelham, NY 10803",
    "City": "NYC",
    "State": "NY",
    "latitude": 40.9065476,
    "longitude": -73.8115864,
    "Phone": "914-380-8644",
    "Website": "http://cantinalobos.com/"
  },
  {
    "Teams": "ncaabduke;ncaafduke;ncaabpsu;ncaafpsu;ncaabvu",
    "Name": "The Main Event",
    "Address": "799 Old Country Rd, Plainview, NY 11803",
    "City": "NYC",
    "State": "NY",
    "latitude": 40.7731612,
    "longitude": -73.4829746,
    "Phone": "516-935-5120",
    "Website": "http://themaineventny.com/"
  },
  {
    "Teams": "ncaabduke;ncaafduke",
    "Name": "McShane's Bar & Restaurant",
    "Address": "123 N Main St, Port Chester, NY 10573",
    "City": "NYC",
    "State": "NY",
    "latitude": 41.0023759,
    "longitude": -73.6615486,
    "Phone": "914-937-7800",
    "Website": "http://www.mcshanesportchester.com/"
  },
  {
    "Teams": "ncaabpit;ncaafpit",
    "Name": "TOMMY'S PLACE",
    "Address": "109 Main St, Port Jefferson, NY 11777",
    "City": "NYC",
    "State": "NY",
    "latitude": 40.9463273,
    "longitude": -73.0687822,
    "Phone": "631-473-8778",
    "Website": "http://www.portjeffbars.com//"
  },
  {
    "Teams": "ncaabbc;ncaafbc",
    "Name": "Sullivan's Quay",
    "Address": "541 Port Washington Blvd, Port Washington, NY 11050",
    "City": "NYC",
    "State": "NY",
    "latitude": 40.8241604,
    "longitude": -73.6822116,
    "Phone": "516-883-3122",
    "Website": "http://www.sullivansquay.com/"
  },
  {
    "Teams": "nflbuf",
    "Name": "River Station",
    "Address": "1 N Water St, Poughkeepsie, NY 12601",
    "City": "NYC",
    "State": "NY",
    "latitude": 41.7056965,
    "longitude": -73.9392648,
    "Phone": "845-452-9207",
    "Website": "http://riverstationrest-hub.com/"
  },
  {
    "Teams": "mlbnym",
    "Name": "McFadden's",
    "Address": "36-2 126th St, Queens, NY 11368",
    "City": "NYC",
    "State": "NY",
    "latitude": 40.7578941,
    "longitude": -73.8449007,
    "Phone": "718-651-2220",
    "Website": "http://www.mcfaddensballparkny.com/"
  },
  {
    "Teams": "mlsnyc",
    "Name": "Miller's Ale House - Rego Park",
    "Address": "6135 Junction Blvd, Rego Park, NY 11374",
    "City": "NYC",
    "State": "NY",
    "latitude": 40.7333948,
    "longitude": -73.8638683,
    "Phone": "718-760-1090",
    "Website": "https://millersalehouse.com/locations/rego-park/"
  },
  {
    "Teams": "mlbnyy",
    "Name": "Croxley's Great American Ale House",
    "Address": "7 S Park Ave, Rockville Centre, NY 11570",
    "City": "NYC",
    "State": "NY",
    "latitude": 40.655761,
    "longitude": -73.645309,
    "Phone": "516-764-0470",
    "Website": "https://croxley.com/rockville-centre/"
  },
  {
    "Teams": "ncaabbc;ncaafbc;ncaabuva;ncaafuva",
    "Name": "Rye Grill & Bar",
    "Address": "1 Station Plaza, Rye, NY 10580",
    "City": "NYC",
    "State": "NY",
    "latitude": 40.985164,
    "longitude": -73.6838509,
    "Phone": "914-967-0332",
    "Website": "http://www.ryegrill.com/"
  },
  {
    "Teams": "nflbuf",
    "Name": "The Huddle",
    "Address": "92 Beekman Ave, Sleepy Hollow, NY 10591",
    "City": "NYC",
    "State": "NY",
    "latitude": 41.084088,
    "longitude": -73.862262,
    "Phone": "914-909-5644",
    "Website": "http://www.thehuddlebar.com/"
  },
  {
    "Teams": "mlbnyy",
    "Name": "Croxley's Ale House & Biergarten",
    "Address": "155 W Main St, Smithtown, NY 11787",
    "City": "NYC",
    "State": "NY",
    "latitude": 40.856057,
    "longitude": -73.200769,
    "Phone": "631-656-8787",
    "Website": "https://croxley.com/smithtown/"
  },
  {
    "Teams": "ncaaborst;ncaaforst",
    "Name": "Island Pour House",
    "Address": "18 Nelson Ave, Staten Island, NY 10308",
    "City": "NYC",
    "State": "NY",
    "latitude": 40.5493371,
    "longitude": -74.1508973,
    "Phone": "",
    "Website": ""
  },
  {
    "Teams": "nbabkn",
    "Name": "The Beer Garden",
    "Address": "1883 Victory Blvd, Staten Island, NY 10314",
    "City": "NYC",
    "State": "NY",
    "latitude": 40.613047,
    "longitude": -74.1265449,
    "Phone": "718-876-8900",
    "Website": "http://www.thebeergardensi.com/"
  },
  {
    "Teams": "nbabkn",
    "Name": "Play Sports Bar",
    "Address": "2 Sneden Ave, Staten Island, NY 10312",
    "City": "NYC",
    "State": "NY",
    "latitude": 40.5403739,
    "longitude": -74.1771345,
    "Phone": "718-984-3700",
    "Website": "http://www.playsportsbarsi.com/"
  },
  {
    "Teams": "nbabkn",
    "Name": "Joe Broadway's Billiards & Sports Pub",
    "Address": "2178 Forest Ave, Staten Island, NY 10303",
    "City": "NYC",
    "State": "NY",
    "latitude": 40.6263635,
    "longitude": -74.1621598,
    "Phone": "718-727-9194",
    "Website": "http://joebroadways.com/"
  },
  {
    "Teams": "nbabkn",
    "Name": "Big Nose Kate's Saloon",
    "Address": "2484 Arthur Kill Rd, Staten Island, NY 10309",
    "City": "NYC",
    "State": "NY",
    "latitude": 40.5540596,
    "longitude": -74.217571,
    "Phone": "718-227-2266",
    "Website": "http://bignosekatessiny.com/"
  },
  {
    "Teams": "nbabkn",
    "Name": "Daddy O's BBQ",
    "Address": "286 Richmond Valley Rd, Staten Island, NY 10309",
    "City": "NYC",
    "State": "NY",
    "latitude": 40.5209315,
    "longitude": -74.2387794,
    "Phone": "718-948-3333",
    "Website": "http://daddyosbbqbar.com/"
  },
  {
    "Teams": "mlsnyc",
    "Name": "The Flagship Brewing Company",
    "Address": "40 Minthorne St, Staten Island, NY 10301",
    "City": "NYC",
    "State": "NY",
    "latitude": 40.637237,
    "longitude": -74.075651,
    "Phone": "718-448-5284",
    "Website": "http://www.flagshipbrewery.nyc/"
  },
  {
    "Teams": "nbabkn",
    "Name": "Lee's Tavern",
    "Address": "60 Hancock St, Staten Island, NY 10305",
    "City": "NYC",
    "State": "NY",
    "latitude": 40.5887494,
    "longitude": -74.0951856,
    "Phone": "718-667-9749",
    "Website": ""
  },
  {
    "Teams": "nbabkn",
    "Name": "W's Bar And Grill",
    "Address": "7001 Amboy Rd, Staten Island, NY 10307",
    "City": "NYC",
    "State": "NY",
    "latitude": 40.5164956,
    "longitude": -74.2343322,
    "Phone": "718-948-9412",
    "Website": ""
  },
  {
    "Teams": "nbabkn;mlsnyc;mlsnyrb",
    "Name": "43 Bar & Grill",
    "Address": "43-06 43rd St, Sunnyside, NY 11104",
    "City": "NYC",
    "State": "NY",
    "latitude": 40.7449065,
    "longitude": -73.9213841,
    "Phone": "718-361-3090",
    "Website": "http://www.bar43.com/"
  },
  {
    "Teams": "nhlnyi",
    "Name": "Hurricane Grill & Wings",
    "Address": "275 Jericho Turnpike, Syosset, NY 11791",
    "City": "NYC",
    "State": "NY",
    "latitude": 40.8114335,
    "longitude": -73.5059065,
    "Phone": "516-921-9464",
    "Website": "http://www.hurricanewings.com/"
  },
  {
    "Teams": "nhlnyr",
    "Name": "Bradford's Grill & Tavern",
    "Address": "83 Bedford St, Stamford, CT 06901",
    "City": "NYC",
    "State": "CT",
    "latitude": 41.0559006,
    "longitude": -73.5385516,
    "Phone": "203-961-9999",
    "Website": "http://www.bradfordsstamford.com/"
  },
  {
    "Teams": "nhlnyr",
    "Name": "Demeters Tavern & Sports Bar",
    "Address": "51 Old White Plains Rd, Tarrytown, NY 10591",
    "City": "NYC",
    "State": "NY",
    "latitude": 41.0644898,
    "longitude": -73.8417046,
    "Phone": "914-631-9679",
    "Website": "http://demeterssportsbar.com/"
  },
  {
    "Teams": "nflbuf",
    "Name": "Duffy's Tavern",
    "Address": "856 River St, Paterson, NJ 07524",
    "City": "NYC",
    "State": "NJ",
    "latitude": 40.9405802,
    "longitude": -74.1481282,
    "Phone": "973-684-0788",
    "Website": ""
  },
  {
    "Teams": "nbabkn",
    "Name": "Zeppelin Hall Beer Garden",
    "Address": "88 Liberty View Dr, Jersey City, NJ 07302",
    "City": "NYC",
    "State": "NJ",
    "latitude": 40.7151551,
    "longitude": -74.0466871,
    "Phone": "201-721-8888",
    "Website": "http://zeppelinhall.com/about/"
  },
  {
    "Teams": "ncaabosu;ncaafosu",
    "Name": "Tully's Good Times Vestal",
    "Address": "4700 Vestal Pkwy E, Vestal, NY 13850",
    "City": "NYC",
    "State": "NY",
    "latitude": 42.0916763,
    "longitude": -75.9514388,
    "Phone": "607-644-1030",
    "Website": "http://www.tullysgoodtimes.com/"
  },
  {
    "Teams": "mlsnyc",
    "Name": "Sweeney's Irish Pub",
    "Address": "33 Orange Ave, Walden, NY 12586",
    "City": "NYC",
    "State": "NY",
    "latitude": 41.5590883,
    "longitude": -74.1863016,
    "Phone": "845-778-3337",
    "Website": "http://www.sweeneysirishpub.com/"
  },
  {
    "Teams": "nflbuf",
    "Name": "Valley Bowling Center",
    "Address": "13 N Chemung St, Waverly, NY 14892",
    "City": "NYC",
    "State": "NY",
    "latitude": 42.0114923,
    "longitude": -76.5293409,
    "Phone": "607-565-9946",
    "Website": "http://valleybowlingcenter.com/"
  },
  {
    "Teams": "ncaabvu",
    "Name": "Miller's Ale House - Allentown",
    "Address": "913 Airport Center Rd, Allentown, PA 18109",
    "City": "NYC",
    "State": "PA",
    "latitude": 40.6401137,
    "longitude": -75.438873,
    "Phone": "610-235-2511",
    "Website": "https://millersalehouse.com/locations/allentown/"
  },
  {
    "Teams": "ncaabarmy;ncaafarmy",
    "Name": "The Firstie Club",
    "Address": "West Point, NY 10996",
    "City": "NYC",
    "State": "NY 10996",
    "latitude": 41.3949498,
    "longitude": -73.9585331,
    "Phone": "832-581-6938",
    "Website": ""
  },
  {
    "Teams": "nhlnjd;mlsnyrb",
    "Name": "Mother's Ale House",
    "Address": "95 Mountainview Blvd, Wayne, NJ 07470",
    "City": "NYC",
    "State": "NJ",
    "latitude": 40.9146403,
    "longitude": -74.2649288,
    "Phone": "973-633-7400",
    "Website": "http://www.mothersalehouse.com/"
  },
  {
    "Teams": "nbanyk;ncaabpsu;ncaafpsu;ncaabvu",
    "Name": "Brother Jimmy's BBQ",
    "Address": "147 Mamaroneck Ave, White Plains, NY 10601",
    "City": "NYC",
    "State": "NY",
    "latitude": 41.0291329,
    "longitude": -73.7648648,
    "Phone": "914-358-4881",
    "Website": "http://www.brotherjimmys.com/white_plains"
  },
  {
    "Teams": "nbanyk",
    "Name": "The Brazen Fox",
    "Address": "175 Mamaroneck Ave, White Plains, NY 10601",
    "City": "NYC",
    "State": "NY",
    "latitude": 41.0284682,
    "longitude": -73.7646337,
    "Phone": "914-358-5911",
    "Website": "http://www.thebrazenfox.com/"
  },
  {
    "Teams": "ncaabsyr;ncaafsyr",
    "Name": "Ron Blacks Beer Hall",
    "Address": "181 Mamaroneck Ave, White Plains, NY 10601",
    "City": "NYC",
    "State": "NY",
    "latitude": 41.0283564,
    "longitude": -73.7644836,
    "Phone": "914-358-5811",
    "Website": "http://ronblacks.com/"
  },
  {
    "Teams": "ncaabsyr;ncaafsyr",
    "Name": "Wolf & Warrior Brewing Co.",
    "Address": "195 E Post Rd, White Plains, NY 10601",
    "City": "NYC",
    "State": "NY",
    "latitude": 41.029852,
    "longitude": -73.763667,
    "Phone": "914-368-8617",
    "Website": "http://wolfandwarrior.com/"
  },
  {
    "Teams": "nflsf",
    "Name": "Burke's Restaurant & Bar",
    "Address": "645 Bronx River Rd, Yonkers, NY 10704",
    "City": "NYC",
    "State": "NY",
    "latitude": 40.92183,
    "longitude": -73.8472442,
    "Phone": "914-237-5137",
    "Website": "https://www.burkesbar.com/"
  },
  {
    "Teams": "mlsnyc",
    "Name": "Heritage",
    "Address": "960 Mclean Ave, Yonkers, NY 10704",
    "City": "NYC",
    "State": "NY",
    "latitude": 40.9032892,
    "longitude": -73.8659203,
    "Phone": "914-776-7532",
    "Website": "https://www.facebook.com/theheritagebr/"
  }
]