[
  {
    "Teams": "nfldal",
    "Name": "Diablo's Music Lounge",
    "Address": "1750 W Lincoln Ave, Anaheim, CA 92801",
    "City": "OCCA",
    "State": "CA",
    "latitude": 33.8320846,
    "longitude": -117.9439845,
    "Phone": "714-786-0167",
    "Website": "http://diablosmusiclounge.com/"
  },
  {
    "Teams": "ncaabarmy;ncaafarmy;ncaabusc;ncaafusc",
    "Name": "Brewheim",
    "Address": "1931 E Wright Cir, Anaheim, CA 92806",
    "City": "OCCA",
    "State": "CA",
    "latitude": 33.8058287,
    "longitude": -117.8910332,
    "Phone": "714-453-4346",
    "Website": "https://www.brewheim.com/"
  },
  {
    "Teams": "nfllac",
    "Name": "Decades Bar and Grill",
    "Address": "195 W Center Street Promenade, Anaheim, CA 92805",
    "City": "OCCA",
    "State": "CA",
    "latitude": 33.8341748,
    "longitude": -117.9153233,
    "Phone": "714-904-1606",
    "Website": "http://www.decadesbarandgrill.com/"
  },
  {
    "Teams": "nhlana;mlblaa",
    "Name": "The Catch",
    "Address": "2100 E Katella Ave #104, Anaheim, CA 92806",
    "City": "OCCA",
    "State": "CA",
    "latitude": 33.8029534,
    "longitude": -117.8870689,
    "Phone": "714-935-0101",
    "Website": "http://www.catchanaheim.com/"
  },
  {
    "Teams": "ncaabarmy;ncaafarmy",
    "Name": "Golden Road Brewing Anaheim",
    "Address": "2210 E Orangewood Ave, Anaheim, CA 92806",
    "City": "OCCA",
    "State": "CA",
    "latitude": 33.795551,
    "longitude": -117.885172,
    "Phone": "714-912-4015",
    "Website": "http://www.goldenroad.la/"
  },
  {
    "Teams": "nhlana;mlblaa",
    "Name": "JT Schmid's Restaurant & Brewery",
    "Address": "2610 E Katella Ave, Anaheim, CA 92806",
    "City": "OCCA",
    "State": "CA",
    "latitude": 33.8056187,
    "longitude": -117.8771406,
    "Phone": "714-634-9200",
    "Website": "http://jtschmidsrestaurants.com/"
  },
  {
    "Teams": "nhlana",
    "Name": "Honda Center",
    "Address": "2695 E Katella Ave, Anaheim, CA 92806",
    "City": "OCCA",
    "State": "CA",
    "latitude": 33.8078476,
    "longitude": -117.8764687,
    "Phone": "714-704-2400",
    "Website": "http://www.hondacenter.com/"
  },
  {
    "Teams": "mlblad;nfllar",
    "Name": "Angelo's Hamburgers",
    "Address": "511 S State College Blvd, Anaheim, CA 92806",
    "City": "OCCA",
    "State": "CA",
    "latitude": 33.8358196,
    "longitude": -117.88966,
    "Phone": "714-533-1401",
    "Website": "http://www.angeloshamburgers.com/"
  },
  {
    "Teams": "mlblad",
    "Name": "Out of the Park Pizza",
    "Address": "6038 Ball Rd, Buena Park, CA 90620",
    "City": "OCCA",
    "State": "CA",
    "latitude": 33.815658,
    "longitude": -118.02671,
    "Phone": "714-699-1389",
    "Website": "http://www.outoftheparkpizza.com/"
  },
  {
    "Teams": "mlblad",
    "Name": "Rock & Brews Buena Park",
    "Address": "7777 Beach Blvd, Buena Park, CA 90620",
    "City": "OCCA",
    "State": "CA",
    "latitude": 33.8498128,
    "longitude": -117.9983449,
    "Phone": "714-266-0314",
    "Website": "http://www.rockandbrews.com/location/buena-park/"
  },
  {
    "Teams": "ncaabrutg;ncaafrutg",
    "Name": "The Harp Inn",
    "Address": "130 E 17th St, Costa Mesa, CA 92627",
    "City": "OCCA",
    "State": "CA",
    "latitude": 33.6369842,
    "longitude": -117.9207014,
    "Phone": "949-646-8855",
    "Website": "http://www.harpinn.com/"
  },
  {
    "Teams": "ncaabuf;ncaafuf",
    "Name": "Hooters",
    "Address": "1507 S Coast Dr, Costa Mesa, CA 92626",
    "City": "OCCA",
    "State": "CA",
    "latitude": 33.6905854,
    "longitude": -117.9211054,
    "Phone": "714-427-0755",
    "Website": "https://www.hooters.com/"
  },
  {
    "Teams": "mlblad",
    "Name": "Turner's Pub 33",
    "Address": "1562 Newport Blvd, Costa Mesa, CA 92627",
    "City": "OCCA",
    "State": "CA",
    "latitude": 33.6318079,
    "longitude": -117.9230794,
    "Phone": "949-548-6984",
    "Website": "https://www.facebook.com/TURNERSPUB33"
  },
  {
    "Teams": "ncaabku;ncaafku;nflsea;ncaabusc;ncaafusc",
    "Name": "Tavern+Bowl",
    "Address": "1875 Newport Blvd, Costa Mesa, CA 92627",
    "City": "OCCA",
    "State": "CA",
    "latitude": 33.6428023,
    "longitude": -117.9177523,
    "Phone": "949-438-2320",
    "Website": "http://www.tavernbowl.com/"
  },
  {
    "Teams": "ncaabuva;ncaafuva",
    "Name": "The Crack Shack - Costa Mesa",
    "Address": "196 E 17th St, Costa Mesa, CA 92627",
    "City": "OCCA",
    "State": "CA",
    "latitude": 33.6356846,
    "longitude": -117.9186113,
    "Phone": "949-383-5040",
    "Website": "http://www.crackshack.com/"
  },
  {
    "Teams": "ncaabucla;ncaafucla",
    "Name": "Newport Rib Company",
    "Address": "2196 Harbor Blvd, Costa Mesa, CA 92627",
    "City": "OCCA",
    "State": "CA",
    "latitude": 33.6541513,
    "longitude": -117.9188129,
    "Phone": "949-631-2110",
    "Website": "http://ribcompany.com/"
  },
  {
    "Teams": "mlblad;ncaabokst;ncaafokst;ncaabwis;ncaafwis",
    "Name": "Original Pizza",
    "Address": "2675 Irvine Ave D, Costa Mesa, CA 92627",
    "City": "OCCA",
    "State": "CA",
    "latitude": 33.658654,
    "longitude": -117.885022,
    "Phone": "949-574-4995",
    "Website": ""
  },
  {
    "Teams": "ncaabttu;ncaafttu;ncaabvu",
    "Name": "Garf's Sports Lounge",
    "Address": "3046 Bristol St, Costa Mesa, CA 92626",
    "City": "OCCA",
    "State": "CA",
    "latitude": 33.6816682,
    "longitude": -117.8854127,
    "Phone": "714-435-4070",
    "Website": "http://www.garfsbar.com/"
  },
  {
    "Teams": "mlblad",
    "Name": "Jeanie's Dirty Martini",
    "Address": "4362 Lincoln Ave, Cypress, CA 90630",
    "City": "OCCA",
    "State": "CA",
    "latitude": 33.8311238,
    "longitude": -118.0569136,
    "Phone": "714-826-0570",
    "Website": "http://jeaniesdirtymartini.com/"
  },
  {
    "Teams": "mlslag",
    "Name": "El Torito",
    "Address": "5995 Katella Ave, Cypress, CA 90630",
    "City": "OCCA",
    "State": "CA",
    "latitude": 33.803578,
    "longitude": -118.029014,
    "Phone": "714-761-8155",
    "Website": "http://locations.eltorito.com/store/cypress"
  },
  {
    "Teams": "mlblad",
    "Name": "Campus Billiards Craft Beer & Sports Bar",
    "Address": "9111 Valley View St #107, Cypress, CA 90630",
    "City": "OCCA",
    "State": "CA",
    "latitude": 33.830386,
    "longitude": -118.029005,
    "Phone": "714-952-2731",
    "Website": "https://craftbeerbar.business.site/"
  },
  {
    "Teams": "mlblad",
    "Name": "Oak Tree Sports Bar",
    "Address": "980 N Diamond Bar Blvd, Diamond Bar, CA 91765",
    "City": "OCCA",
    "State": "CA",
    "latitude": 34.0354346,
    "longitude": -117.8055315,
    "Phone": "909-860-3668",
    "Website": "http://www.oaktreelanes.net/"
  },
  {
    "Teams": "mlblad",
    "Name": "Lamppost Pizza",
    "Address": "10130 Warner Ave suite h, Fountain Valley, CA 92708",
    "City": "OCCA",
    "State": "CA",
    "latitude": 33.715592,
    "longitude": -117.952544,
    "Phone": "714-968-6128",
    "Website": "http://www.lamppostpizzafountainvalleyca.com/"
  },
  {
    "Teams": "ncaabnd;ncaafnd;nflphi;ncaabuw;ncaafuw",
    "Name": "Silky Sullivan's Restaurant & Irish Pub",
    "Address": "10201 Slater Ave, Fountain Valley, CA 92708",
    "City": "OCCA",
    "State": "CA",
    "latitude": 33.7092837,
    "longitude": -117.9508871,
    "Phone": "714-963-2718",
    "Website": "http://www.silkysullivans.com/"
  },
  {
    "Teams": "ncaabokst;ncaafokst",
    "Name": "Dickeys Barbecue Pit",
    "Address": "18120 Brookhurst St Ste 2, Fountain Valley, CA 92708",
    "City": "OCCA",
    "State": "CA",
    "latitude": 33.7002859,
    "longitude": -117.9524701,
    "Phone": "714-887-8022",
    "Website": "https://dickeys.alohaorderonline.com/Locations.aspx"
  },
  {
    "Teams": "mlslafc",
    "Name": "Slidebar Rock n' Roll Kitchen",
    "Address": "122 E Commonwealth Ave, Fullerton, CA 92832",
    "City": "OCCA",
    "State": "CA",
    "latitude": 33.8700811,
    "longitude": -117.9232018,
    "Phone": "714-871-2233",
    "Website": "http://www.slidebarfullerton.com/"
  },
  {
    "Teams": "mlblad",
    "Name": "BIGS Fullerton",
    "Address": "323 N State College Blvd, Fullerton, CA 92831",
    "City": "OCCA",
    "State": "CA",
    "latitude": 33.8731074,
    "longitude": -117.8899047,
    "Phone": "714-526-4950",
    "Website": "http://www.bigsfullerton.com/"
  },
  {
    "Teams": "nfloak",
    "Name": "Larry's Pizza",
    "Address": "926 W Orangethorpe Ave, Fullerton, CA 92832",
    "City": "OCCA",
    "State": "CA",
    "latitude": 33.85798,
    "longitude": -117.941278,
    "Phone": "714-871-3484",
    "Website": "http://www.larryspizzamenu.com/"
  },
  {
    "Teams": "nflpit",
    "Name": "2nd Floor Huntington Beach",
    "Address": "126 Main St, Huntington Beach, CA 92648",
    "City": "OCCA",
    "State": "CA",
    "latitude": 33.6577481,
    "longitude": -118.0009502,
    "Phone": "714-969-9000",
    "Website": "http://2ndfloorhb.com/"
  },
  {
    "Teams": "ncaabiowa;ncaafiowa",
    "Name": "Longboard Restaurant & Pub at Springdale",
    "Address": "14892 Springdale St, Huntington Beach, CA 92647",
    "City": "OCCA",
    "State": "CA",
    "latitude": 33.7455939,
    "longitude": -118.0237338,
    "Phone": "714-896-8700",
    "Website": "http://www.longboardrestaurant.com/"
  },
  {
    "Teams": "mlblad",
    "Name": "Harbour Rackhouse",
    "Address": "16903 Algonquin St, Huntington Beach, CA 92649",
    "City": "OCCA",
    "State": "CA",
    "latitude": 33.7162845,
    "longitude": -118.0511742,
    "Phone": "714-377-3893",
    "Website": "http://www.hbrackhouse.com/"
  },
  {
    "Teams": "mlblad",
    "Name": "Centerfield Sports Bar & Grill",
    "Address": "17296 Beach Blvd, Huntington Beach, CA 92647",
    "City": "OCCA",
    "State": "CA",
    "latitude": 33.7111592,
    "longitude": -117.9885651,
    "Phone": "714-848-0113",
    "Website": ""
  },
  {
    "Teams": "nflbuf",
    "Name": "Wings 'N Things Grill",
    "Address": "18302 Beach Blvd, Huntington Beach, CA 92648",
    "City": "OCCA",
    "State": "CA",
    "latitude": 33.6966682,
    "longitude": -117.9885267,
    "Phone": "714-375-0022",
    "Website": "http://www.wingsnthingsgrill.com/"
  },
  {
    "Teams": "mlblad",
    "Name": "MAX'S Sports Grill",
    "Address": "18862 Beach Blvd, Huntington Beach, CA 92648",
    "City": "OCCA",
    "State": "CA",
    "latitude": 33.6886934,
    "longitude": -117.9880407,
    "Phone": "714-962-8316",
    "Website": "http://maxsportsgrill.com/"
  },
  {
    "Teams": "ncaabaub;ncaafaub;mlslag;nfloak;ncaabucla;ncaafucla",
    "Name": "Killarney's Irish Pub",
    "Address": "209 Main St #5127, Huntington Beach, CA 92648",
    "City": "OCCA",
    "State": "CA",
    "latitude": 33.658521,
    "longitude": -118.0010072,
    "Phone": "714-536-7887",
    "Website": "http://killarneysirishpubhb.com/"
  },
  {
    "Teams": "ncaabasu;ncaafasu;ncaabmsu;ncaafmsu",
    "Name": "Cruisers Pizza Bar Grill",
    "Address": "210 5th St, Huntington Beach, CA 92648",
    "City": "OCCA",
    "State": "CA",
    "latitude": 33.6587802,
    "longitude": -118.0014193,
    "Phone": "657-301-2200",
    "Website": "http://www.cruiserspizzabargrill.com/"
  },
  {
    "Teams": "ncaabku;ncaafku;mlblad;ncaabmich;ncaafmich;ncaabvt;ncaafvt;ncaabwsu;ncaafwsu",
    "Name": "Baja Sharkeez",
    "Address": "211 Main St, Huntington Beach, CA 92648",
    "City": "OCCA",
    "State": "CA",
    "latitude": 33.6584951,
    "longitude": -118.0009763,
    "Phone": "714-960-5282",
    "Website": "http://sharkeez.net/"
  },
  {
    "Teams": "ncaabbay;ncaafbay",
    "Name": "TAPS Fish House & Brewery",
    "Address": "13390 Jamboree Rd, Irvine, CA 92602",
    "City": "OCCA",
    "State": "CA",
    "latitude": 33.7279452,
    "longitude": -117.7882348,
    "Phone": "714-619-0404",
    "Website": "http://www.tapsfishhouse.com/"
  },
  {
    "Teams": "ncaabarmy;ncaafarmy;ncaabaub;ncaafaub;ncaabcal;ncaafcal;ncaabmich;ncaafmich;ncaabminn;ncaafminn;ncaabttu;ncaafttu;ncaabuva;ncaafuva;ncaabwmu;ncaafwmu",
    "Name": "Buffalo Wild Wings",
    "Address": "14110 Culver Dr, Irvine, CA 92604",
    "City": "OCCA",
    "State": "CA",
    "latitude": 33.7086855,
    "longitude": -117.7829459,
    "Phone": "949-872-2999",
    "Website": "https://www.buffalowildwings.com/en/locations/detail/3347/"
  },
  {
    "Teams": "ncaabtcu;ncaaftcu",
    "Name": "Lamppost Pizza",
    "Address": "14450 Culver Dr E, Irvine, CA 92604",
    "City": "OCCA",
    "State": "CA",
    "latitude": 33.704198,
    "longitude": -117.785764,
    "Phone": "949-857-0160",
    "Website": "http://www.lamppost-backstreet.com/Irvine-Home.html"
  },
  {
    "Teams": "ncaabmich;ncaafmich",
    "Name": "Hotel Irvine",
    "Address": "6211, 17900 Jamboree Rd, Irvine, CA 92614",
    "City": "OCCA",
    "State": "CA",
    "latitude": 33.6778095,
    "longitude": -117.8403479,
    "Phone": "877-614-2137",
    "Website": "http://www.hotelirvine.com/"
  },
  {
    "Teams": "ncaabbay;ncaafbay;ncaabbc;ncaafbc;ncaabmiz;ncaafmiz;ncaabosu;ncaafosu;ncaabuva;ncaafuva",
    "Name": "Dave & Buster's",
    "Address": "661 Spectrum Center Dr, Irvine, CA 92618",
    "City": "OCCA",
    "State": "CA",
    "latitude": 33.650792,
    "longitude": -117.743609,
    "Phone": "949-727-0555",
    "Website": "https://www.daveandbusters.com/locations/irvine"
  },
  {
    "Teams": "mlblad",
    "Name": "Cabo Cantina",
    "Address": "100 Main St, Newport Beach, CA 92661",
    "City": "OCCA",
    "State": "CA",
    "latitude": 33.6013945,
    "longitude": -117.8996225,
    "Phone": "949-675-7760",
    "Website": "http://www.cabocantina.com/"
  },
  {
    "Teams": "ncaabpsu;ncaafpsu",
    "Name": "Blue Beet, The",
    "Address": "107 21st Pl, Newport Beach, CA 92663",
    "City": "OCCA",
    "State": "CA",
    "latitude": 33.608817,
    "longitude": -117.928805,
    "Phone": "949-675-2338",
    "Website": "http://www.thebluebeet.com/"
  },
  {
    "Teams": "ncaabiowa;ncaafiowa;mlblad;ncaabneb;ncaafneb;ncaabpur;ncaafpur;ncaabtex;ncaaftex",
    "Name": "Baja Sharkeez",
    "Address": "114 Mc Fadden Pl, Newport Beach, CA 92663",
    "City": "OCCA",
    "State": "CA",
    "latitude": 33.6083417,
    "longitude": -117.9279556,
    "Phone": "949-673-0292",
    "Website": "http://www.sharkeez.net/newport-beach/"
  },
  {
    "Teams": "ncaabtcu;ncaaftcu",
    "Name": "Muldoon's Irish Pub",
    "Address": "202 Newport Center Dr, Newport Beach, CA 92660",
    "City": "OCCA",
    "State": "CA",
    "latitude": 33.61236,
    "longitude": -117.874719,
    "Phone": "949-640-4110",
    "Website": "http://www.muldoonspub.com/"
  },
  {
    "Teams": "ncaabduke;ncaafduke;ncaabstan;ncaafstan;ncaabttu;ncaafttu",
    "Name": "On the Rocks Bar And Grill",
    "Address": "2332 West Coast Hwy, Newport Beach, CA 92663",
    "City": "OCCA",
    "State": "CA",
    "latitude": 33.6192533,
    "longitude": -117.9211929,
    "Phone": "949-673-8444",
    "Website": "http://www.ontherocksoc.com/"
  },
  {
    "Teams": "mlblad",
    "Name": "American Junkie",
    "Address": "2406 Newport Blvd, Newport Beach, CA 92663",
    "City": "OCCA",
    "State": "CA",
    "latitude": 33.6115236,
    "longitude": -117.9282651,
    "Phone": "949-675-4444",
    "Website": "http://www.americanjunkienb.com/"
  },
  {
    "Teams": "ncaabcolo;ncaafcolo",
    "Name": "Avila's El Ranchito - Newport Beach",
    "Address": "2800 Newport Blvd, Newport Beach, CA 92663",
    "City": "OCCA",
    "State": "CA",
    "latitude": 33.6130099,
    "longitude": -117.9289393,
    "Phone": "949-675-6855",
    "Website": "http://www.avilaselranchito.com/index.php"
  },
  {
    "Teams": "ncaabcal;ncaafcal",
    "Name": "CP Restaurant & Lounge",
    "Address": "2800 West Coast Hwy, Newport Beach, CA 92663",
    "City": "OCCA",
    "State": "CA",
    "latitude": 33.6206929,
    "longitude": -117.924569,
    "Phone": "949-631-8088",
    "Website": "http://www.cp2800.com/"
  },
  {
    "Teams": "mlblad;ncaabnd;ncaafnd",
    "Name": "Malarky's Irish Pub",
    "Address": "3011 Newport Blvd, Newport Beach, CA 92663",
    "City": "OCCA",
    "State": "CA",
    "latitude": 33.6150095,
    "longitude": -117.9305013,
    "Phone": "949-675-2340",
    "Website": "http://www.malarkyspub.com/"
  },
  {
    "Teams": "ncaabduke;ncaafduke",
    "Name": "Campus JAX",
    "Address": "3950 Campus Dr, Newport Beach, CA 92660",
    "City": "OCCA",
    "State": "CA",
    "latitude": 33.6650274,
    "longitude": -117.871931,
    "Phone": "949-261-6270",
    "Website": "http://www.campusjax.com/"
  },
  {
    "Teams": "ncaabduke;ncaafduke;ncaabmoh;ncaafmoh",
    "Name": "Classic Q",
    "Address": "4251 MacArthur Blvd, Newport Beach, CA 92660",
    "City": "OCCA",
    "State": "CA",
    "latitude": 33.6651266,
    "longitude": -117.8644285,
    "Phone": "949-261-9458",
    "Website": "https://www.classicq.com/"
  },
  {
    "Teams": "ncaabvu",
    "Name": "Fashion Island Hotel Newport Beach",
    "Address": "690 Newport Center Dr, Newport Beach, CA 92660",
    "City": "OCCA",
    "State": "CA",
    "latitude": 33.6197879,
    "longitude": -117.8751093,
    "Phone": "949-386-8361",
    "Website": "https://www.fashionislandhotel.com/"
  },
  {
    "Teams": "nflgb;mlblad;ncaabosu;ncaafosu;ncaabokst;ncaafokst;ncaabpur;ncaafpur;ncaabucla;ncaafucla",
    "Name": "Cruisers Pizza Bar Grill",
    "Address": "801 E Balboa Blvd, Newport Beach, CA 92661",
    "City": "OCCA",
    "State": "CA",
    "latitude": 33.6018721,
    "longitude": -117.8994129,
    "Phone": "949-220-9414",
    "Website": "http://www.cruiserspizzabargrill.com/"
  },
  {
    "Teams": "ncaabvan;ncaafvan;ncaabuva;ncaafuva",
    "Name": "Yard House",
    "Address": "849 Newport Center Dr, Newport Beach, CA 92660",
    "City": "OCCA",
    "State": "CA",
    "latitude": 33.617045,
    "longitude": -117.876218,
    "Phone": "949-640-9273",
    "Website": "https://www.yardhouse.com/locations/ca/newport-beach/newport-beach-fashion-island/8317"
  },
  {
    "Teams": "nhlana;mlblaa;ncaabneb;ncaafneb;nhlpit",
    "Name": "Danny K's Billiards & Sports Bar",
    "Address": "1096 N Main St, Orange, CA 92867",
    "City": "OCCA",
    "State": "CA",
    "latitude": 33.805894,
    "longitude": -117.867306,
    "Phone": "714-771-9706",
    "Website": "http://www.dannyks.com/"
  },
  {
    "Teams": "nhlana",
    "Name": "Chapman Crafted Beer",
    "Address": "123 N Cypress St, Orange, CA 92866",
    "City": "OCCA",
    "State": "CA",
    "latitude": 33.788414,
    "longitude": -117.856039,
    "Phone": "844-855-2337",
    "Website": "http://www.chapmancrafted.beer/"
  },
  {
    "Teams": "ncaabusc;ncaafusc",
    "Name": "Buffalo Wild Wings",
    "Address": "1500 E Village Way, Orange, CA 92865",
    "City": "OCCA",
    "State": "CA",
    "latitude": 33.8273516,
    "longitude": -117.8377998,
    "Phone": "714-921-3105",
    "Website": "https://buffalowildwings.com/en/locations/detail/588/"
  },
  {
    "Teams": "nhlana",
    "Name": "Tilted Kilt Pub and Eatery",
    "Address": "1625 W Katella Ave, Orange, CA 92867",
    "City": "OCCA",
    "State": "CA",
    "latitude": 33.8076055,
    "longitude": -117.8697203,
    "Phone": "714-633-5458",
    "Website": "http://www.tiltedkilt.com/orange/"
  },
  {
    "Teams": "nfllar;nflnyj",
    "Name": "Dave & Buster's",
    "Address": "20 City Blvd W g1, Orange, CA 92868",
    "City": "OCCA",
    "State": "CA",
    "latitude": 33.78508,
    "longitude": -117.894037,
    "Phone": "714-769-1515",
    "Website": "https://www.daveandbusters.com/locations/california-orange"
  },
  {
    "Teams": "mlslag",
    "Name": "El Torito",
    "Address": "3520 The City Dr S, Orange, CA 92868",
    "City": "OCCA",
    "State": "CA",
    "latitude": 33.7853342,
    "longitude": -117.8912448,
    "Phone": "714-939-6711",
    "Website": "http://www.eltorito.com/"
  },
  {
    "Teams": "ncaabgonz",
    "Name": "BJ's Restaurant & Brewhouse",
    "Address": "22022 El Paseo, Rancho Santa Margarita, CA 92688",
    "City": "OCCA",
    "State": "CA",
    "latitude": 33.6433473,
    "longitude": -117.5941465,
    "Phone": "949-835-1890",
    "Website": "http://www.bjsrestaurants.com/locations/ca/rancho-santa-margarita"
  },
  {
    "Teams": "mlslag",
    "Name": "Olde Ship",
    "Address": "1120 W 17th St, Santa Ana, CA 92706",
    "City": "OCCA",
    "State": "CA",
    "latitude": 33.7597829,
    "longitude": -117.8813092,
    "Phone": "714-550-6700",
    "Website": "http://www.theoldeship.com/"
  },
  {
    "Teams": "ncaabwsu;ncaafwsu",
    "Name": "Network Brewery",
    "Address": "1824 Carnegie Ave, Santa Ana, CA 92705",
    "City": "OCCA",
    "State": "CA",
    "latitude": 33.7108286,
    "longitude": -117.8456801,
    "Phone": "657-859-8004",
    "Website": "http://networkbrewery.com/"
  },
  {
    "Teams": "ncaabmia;ncaafmia",
    "Name": "Avenue K Bar",
    "Address": "1828 N Tustin Ave, Santa Ana, CA 92705",
    "City": "OCCA",
    "State": "CA",
    "latitude": 33.7619423,
    "longitude": -117.835375,
    "Phone": "714-541-9531",
    "Website": ""
  },
  {
    "Teams": "mlslafc",
    "Name": "Next Round Bar & Grill",
    "Address": "200 N Broadway, Santa Ana, CA 92701",
    "City": "OCCA",
    "State": "CA",
    "latitude": 33.7464613,
    "longitude": -117.869922,
    "Phone": "714-949-2016",
    "Website": "http://nextroundsa.com/"
  },
  {
    "Teams": "nfllar",
    "Name": "Applebee's Grill + Bar",
    "Address": "2800 N Main St, Santa Ana, CA 92705",
    "City": "OCCA",
    "State": "CA",
    "latitude": 33.774672,
    "longitude": -117.869315,
    "Phone": "657-212-6701",
    "Website": "https://restaurants.applebees.com/ca/santa-ana-77032/"
  },
  {
    "Teams": "ncaabbc;ncaafbc;ncaabmiz;ncaafmiz;ncaabttu;ncaafttu",
    "Name": "Buffalo Wild Wings",
    "Address": "3811 S Bristol St, Santa Ana, CA 92704",
    "City": "OCCA",
    "State": "CA",
    "latitude": 33.6967364,
    "longitude": -117.8850228,
    "Phone": "714-540-1737",
    "Website": "https://buffalowildwings.com/en/locations/detail/530/"
  },
  {
    "Teams": "ncaabcal;ncaafcal;mlblad",
    "Name": "Coach's Sports Grill",
    "Address": "1025 Pacific Coast Hwy, Seal Beach, CA 90740",
    "City": "OCCA",
    "State": "CA",
    "latitude": 33.744643,
    "longitude": -118.100955,
    "Phone": "562-431-5266",
    "Website": ""
  },
  {
    "Teams": "ncaabuga;ncaafuga;mlblad",
    "Name": "Glory Days Beachside Grill",
    "Address": "620 Pacific Coast Hwy, Seal Beach, CA 90740",
    "City": "OCCA",
    "State": "CA",
    "latitude": 33.7456821,
    "longitude": -118.105354,
    "Phone": "562-594-3800",
    "Website": "http://www.glorydayssportsgrill.com/"
  },
  {
    "Teams": "nflbal",
    "Name": "Rock & Brews",
    "Address": "1222 Irvine Blvd, Tustin, CA 92780",
    "City": "OCCA",
    "State": "CA",
    "latitude": 33.7469754,
    "longitude": -117.8081362,
    "Phone": "657-254-3040",
    "Website": "https://www.rockandbrews.com/tustin/"
  },
  {
    "Teams": "mlblad;ncaabore;ncaafore",
    "Name": "Tustin Brewing Co",
    "Address": "13011 Newport Ave #100, Tustin, CA 92780",
    "City": "OCCA",
    "State": "CA",
    "latitude": 33.7498508,
    "longitude": -117.8107831,
    "Phone": "714-665-2337",
    "Website": "http://www.tustinbrewery.com/"
  },
  {
    "Teams": "ncaabfsu;ncaaffsu;ncaabmia;ncaafmia",
    "Name": "17th Street Grill",
    "Address": "17320 17th St, Tustin, CA 92780",
    "City": "OCCA",
    "State": "CA",
    "latitude": 33.7590196,
    "longitude": -117.8286919,
    "Phone": "714-730-0003",
    "Website": "http://www.17thstreetgrill.com/"
  },
  {
    "Teams": "mlslag",
    "Name": "El Torito",
    "Address": "17420 17th St, Tustin, CA 92780",
    "City": "OCCA",
    "State": "CA",
    "latitude": 33.759323,
    "longitude": -117.827955,
    "Phone": "714-838-6630",
    "Website": "https://locations.eltorito.com/store/tustin"
  },
  {
    "Teams": "ncaabcsu;ncaafcsu",
    "Name": "Prego Mediterranean",
    "Address": "2409 Park Ave, Tustin, CA 92782",
    "City": "OCCA",
    "State": "CA",
    "latitude": 33.6982714,
    "longitude": -117.8281125,
    "Phone": "949-553-1333",
    "Website": "http://www.pregooc.com/"
  },
  {
    "Teams": "ncaabbc;ncaafbc;ncaabore;ncaafore;ncaabpsu;ncaafpsu",
    "Name": "JT Schmid's Restaurant & Brewery",
    "Address": "2415 Park Ave, Tustin, CA 92782",
    "City": "OCCA",
    "State": "CA",
    "latitude": 33.6980905,
    "longitude": -117.828632,
    "Phone": "714-258-0333",
    "Website": "http://www.jtschmidsrestaurants.com/"
  },
  {
    "Teams": "nflne",
    "Name": "The Auld Dubliner",
    "Address": "2497 Park Ave, Tustin, CA 92782",
    "City": "OCCA",
    "State": "CA",
    "latitude": 33.6981004,
    "longitude": -117.8272463,
    "Phone": "714-259-1562",
    "Website": "http://tustin.thedubpubs.com/"
  }
]