[
  {
    "Teams": "nflmia",
    "Name": "Cuba Libre Restaurant & Rum Bar - Philadelphia",
    "Address": "10 S 2nd St, Philadelphia, PA 19106",
    "City": "PHI",
    "State": "PA",
    "latitude": 39.949562,
    "longitude": -75.143928,
    "Phone": "215-627-0666",
    "Website": "http://www.cubalibrerestaurant.com/en/philadelphia"
  },
  {
    "Teams": "mlsphi",
    "Name": "The Victoria Freehouse",
    "Address": "10 S Front St, Philadelphia, PA 19106",
    "City": "PHI",
    "State": "PA",
    "latitude": 39.949235,
    "longitude": -75.142289,
    "Phone": "215-543-6089",
    "Website": "http://www.victoriafreehouse.com/"
  },
  {
    "Teams": "nbaphi",
    "Name": "Garage Fishtown",
    "Address": "100 E Girard Ave, Philadelphia, PA 19125",
    "City": "PHI",
    "State": "PA",
    "latitude": 39.9686398,
    "longitude": -75.1341832,
    "Phone": "215-515-3167",
    "Website": "https://www.garagephilly.com/"
  },
  {
    "Teams": "nflcle",
    "Name": "Rogues Gallery",
    "Address": "11 S 21st St, Philadelphia, PA 19103",
    "City": "PHI",
    "State": "PA",
    "latitude": 39.95308,
    "longitude": -75.1749785,
    "Phone": "215-561-1193",
    "Website": "http://www.roguesgalleryphilly.com/"
  },
  {
    "Teams": "nbaphi",
    "Name": "MilkBoy Philadelphia",
    "Address": "1100 Chestnut St, Philadelphia, PA 19107",
    "City": "PHI",
    "State": "PA",
    "latitude": 39.950125,
    "longitude": -75.1587931,
    "Phone": "215-925-6455",
    "Website": "http://www.milkboyphilly.com/"
  },
  {
    "Teams": "nbaphi;nflphi;nhlphi;mlbphi;mlsphi;ncaabvu",
    "Name": "Xfinity Live! Philadelphia",
    "Address": "1100 Pattison Ave, Philadelphia, PA 19148",
    "City": "PHI",
    "State": "PA",
    "latitude": 39.904365,
    "longitude": -75.169367,
    "Phone": "267-534-4264",
    "Website": "http://xfinitylive.com/"
  },
  {
    "Teams": "nhlphi",
    "Name": "Broad Street Bullies Pub",
    "Address": "1100 Pattison Avenue North Entrance, Philadelphia, PA 19148",
    "City": "PHI",
    "State": "PA",
    "latitude": 39.904522,
    "longitude": -75.169658,
    "Phone": "",
    "Website": "http://www.xfinitylive.com/dining/broad-street-bullies-pub"
  },
  {
    "Teams": "mlsphi",
    "Name": "Chickie's & Pete's Cafe",
    "Address": "11000 Roosevelt Blvd, Philadelphia, PA 19116",
    "City": "PHI",
    "State": "PA",
    "latitude": 40.1017639,
    "longitude": -75.0072162,
    "Phone": "215-856-9890",
    "Website": "http://chickiesandpetes.com/locations/roosevelt-blvd/"
  },
  {
    "Teams": "nflphi",
    "Name": "JD McGillicuddy's",
    "Address": "111 Cotton St, Philadelphia, PA 19127",
    "City": "PHI",
    "State": "PA",
    "latitude": 40.0255772,
    "longitude": -75.2221979,
    "Phone": "215-930-0209",
    "Website": "http://www.jdmcgillicuddysmanayunk.com/"
  },
  {
    "Teams": "ncaabvt;ncaafvt",
    "Name": "Wrap Shack",
    "Address": "112 S 11th St, Philadelphia, PA 19107",
    "City": "PHI",
    "State": "PA",
    "latitude": 39.9496576,
    "longitude": -75.1589197,
    "Phone": "267-758-2446",
    "Website": "http://wrapshackpa.com/"
  },
  {
    "Teams": "nflphi",
    "Name": "Devil's Den",
    "Address": "1148 S 11th St, Philadelphia, PA 19147",
    "City": "PHI",
    "State": "PA",
    "latitude": 39.9358085,
    "longitude": -75.1620574,
    "Phone": "215-339-0855",
    "Website": "http://www.devilsdenphilly.com/get-directions/"
  },
  {
    "Teams": "ncaabbama;ncaafbama;ncaabbay;ncaafbay;ncaabcle;ncaafcle;nflden;ncaabduke;ncaafduke;ncaabfau;ncaaffau;ncaabuf;ncaafuf;nflind;ncaabisu;ncaafisu;ncaabku;ncaafku;ncaabuk;ncaafuk;ncaablsu;ncaaflsu;ncaabmia;ncaafmia;ncaabmsu;ncaafmsu;ncaabpsu;ncaafpsu;nbaphi;nflphi;nhlphi;mlbphi;ncaabpur;ncaafpur;ncaabsyr;ncaafsyr;ncaabtamu;ncaaftamu;ncaabtex;ncaaftex;ncaabumass;ncaafumass;ncaabvu;ncaabwvu;ncaafwvu",
    "Name": "Field House",
    "Address": "1150 Filbert St, Philadelphia, PA 19107",
    "City": "PHI",
    "State": "PA",
    "latitude": 39.9528315,
    "longitude": -75.1589674,
    "Phone": "215-629-1520",
    "Website": "http://www.fieldhousephilly.com/"
  },
  {
    "Teams": "nflbal",
    "Name": "Cavanaugh's Restaurant & Sports Bar",
    "Address": "119 S 39th St, Philadelphia, PA 19104",
    "City": "PHI",
    "State": "PA",
    "latitude": 39.9544958,
    "longitude": -75.2000038,
    "Phone": "215-386-4889",
    "Website": "http://www.cavanaughsrestaurant.com/"
  },
  {
    "Teams": "nbaphi",
    "Name": "Han Dynasty",
    "Address": "123 Chestnut St, Philadelphia, PA 19106",
    "City": "PHI",
    "State": "PA",
    "latitude": 39.9484898,
    "longitude": -75.1436412,
    "Phone": "215-922-1888",
    "Website": "http://www.handynasty.net/"
  },
  {
    "Teams": "mlsphi",
    "Name": "The Plough & the Stars",
    "Address": "123 Chestnut Street Enter On 2nd St, 123 chestnut street on 2nd St, Philadelphia, PA 19106",
    "City": "PHI",
    "State": "PA",
    "latitude": 39.948697,
    "longitude": -75.143922,
    "Phone": "215-733-0300",
    "Website": "http://www.ploughstars.com/"
  },
  {
    "Teams": "nbaphi",
    "Name": "Garage Passyunk",
    "Address": "1231 E Passyunk Ave, Philadelphia, PA 19147",
    "City": "PHI",
    "State": "PA",
    "latitude": 39.933472,
    "longitude": -75.158784,
    "Phone": "215-278-2429",
    "Website": "http://garagephilly.com/"
  },
  {
    "Teams": "nflphi",
    "Name": "South Philly Bar & Grill",
    "Address": "1235 E Passyunk Ave, Philadelphia, PA 19147",
    "City": "PHI",
    "State": "PA",
    "latitude": 39.9334154,
    "longitude": -75.1588527,
    "Phone": "215-334-3300",
    "Website": "http://www.southphillybar.com/"
  },
  {
    "Teams": "ncaabcle;ncaafcle;ncaabneb;ncaafneb",
    "Name": "The Post",
    "Address": "129 S 30th St, Philadelphia, PA 19104",
    "City": "PHI",
    "State": "PA",
    "latitude": 39.9527483,
    "longitude": -75.1835766,
    "Phone": "267-353-8521",
    "Website": "http://thepostphl.com/"
  },
  {
    "Teams": "nbaphi;nflphi",
    "Name": "McGillin's Olde Ale House",
    "Address": "1310 Drury St, Philadelphia, PA 19107",
    "City": "PHI",
    "State": "PA",
    "latitude": 39.9501768,
    "longitude": -75.1626101,
    "Phone": "215-735-5562",
    "Website": "http://www.mcgillins.com/"
  },
  {
    "Teams": "nbaphi",
    "Name": "Boxers PHL",
    "Address": "1330 Walnut St, Philadelphia, PA 19107",
    "City": "PHI",
    "State": "PA",
    "latitude": 39.9491522,
    "longitude": -75.1633947,
    "Phone": "215-735-2977",
    "Website": "https://boxersphl.com/"
  },
  {
    "Teams": "ncaabuga;ncaafuga;mlsphi",
    "Name": "Lucky Strike Philadelphia",
    "Address": "1336 Chestnut St, Philadelphia, PA 19107",
    "City": "PHI",
    "State": "PA",
    "latitude": 39.9503202,
    "longitude": -75.1632049,
    "Phone": "215-545-2471",
    "Website": "http://www.bowlluckystrike.com/locations/pennsylvania/philadelphia/"
  },
  {
    "Teams": "nflphi",
    "Name": "Paddy Whacks Irish Sports Pub - South Street",
    "Address": "150 South St, Philadelphia, PA 19147",
    "City": "PHI",
    "State": "PA",
    "latitude": 39.9410426,
    "longitude": -75.1454846,
    "Phone": "215-464-7544",
    "Website": "http://www.paddywhackspub.com/2nd/homepage.php"
  },
  {
    "Teams": "ncaabfsu;ncaaffsu;mlsphi",
    "Name": "Fado Irish Pub",
    "Address": "1500 Locust St, Philadelphia, PA 19102",
    "City": "PHI",
    "State": "PA",
    "latitude": 39.9483519,
    "longitude": -75.1663447,
    "Phone": "215-893-9700",
    "Website": "http://www.fadoirishpub.com/philadelphia/"
  },
  {
    "Teams": "ncaabbc;ncaafbc;ncaabbuff;ncaafbuff;ncaabcin;ncaafcin;ncaabmu;ncaabmich;ncaafmich;nbaphi;nhlphi;nflpit;ncaabuva;ncaafuva",
    "Name": "Fox & Hound",
    "Address": "1501 Spruce St, Philadelphia, PA 19102",
    "City": "PHI",
    "State": "PA",
    "latitude": 39.947312,
    "longitude": -75.166556,
    "Phone": "215-732-8610",
    "Website": "https://www.foxandhound.com/locations/phillydowntown"
  },
  {
    "Teams": "ncaabnc;ncaafnc;ncaabou;ncaafou;nbaphi",
    "Name": "Misconduct Tavern",
    "Address": "1511 Locust St, Philadelphia, PA 19102",
    "City": "PHI",
    "State": "PA",
    "latitude": 39.9485895,
    "longitude": -75.1666436,
    "Phone": "215-732-5797",
    "Website": "http://www.misconduct-tavern.com/"
  },
  {
    "Teams": "ncaabcin;ncaafcin;ncaabnw;ncaafnw;nflphi;nhlphi;mlbphi;mlsphi;ncaabtem;ncaaftem",
    "Name": "Chickie's & Pete's",
    "Address": "1526 Packer Ave, Philadelphia, PA 19145",
    "City": "PHI",
    "State": "PA",
    "latitude": 39.9116793,
    "longitude": -75.174641,
    "Phone": "215-218-0500",
    "Website": "https://chickiesandpetes.com/location/south-philadelphia-2/"
  },
  {
    "Teams": "ncaabosu;ncaafosu",
    "Name": "Ladder 15",
    "Address": "1528 Sansom St, Philadelphia, PA 19102",
    "City": "PHI",
    "State": "PA",
    "latitude": 39.9503639,
    "longitude": -75.1669139,
    "Phone": "215-964-9755",
    "Website": "http://www.ladder15philly.com/"
  },
  {
    "Teams": "nbaphi",
    "Name": "Giovani's Bar & Grill",
    "Address": "1533 Chestnut St, Philadelphia, PA 19102",
    "City": "PHI",
    "State": "PA",
    "latitude": 39.951333,
    "longitude": -75.166797,
    "Phone": "215-568-0800",
    "Website": "http://giovanibarandgrill.com/"
  },
  {
    "Teams": "nbaphi",
    "Name": "Nick's Roast Beef Bar & Grille",
    "Address": "16 S 2nd St, Philadelphia, PA 19106",
    "City": "PHI",
    "State": "PA",
    "latitude": 39.9495146,
    "longitude": -75.1439313,
    "Phone": "215-928-9411",
    "Website": "http://www.nicksroastbeefbarandgrille.com/"
  },
  {
    "Teams": "nflbuf",
    "Name": "Tir na nOg Irish Bar & Grill",
    "Address": "1600 Arch St, Philadelphia, PA 19103",
    "City": "PHI",
    "State": "PA",
    "latitude": 39.954371,
    "longitude": -75.1667271,
    "Phone": "267-514-1700",
    "Website": "http://www.tirnanogphilly.com/"
  },
  {
    "Teams": "nflphi;mlbphi",
    "Name": "Founding Fathers Sports Bar & Grill",
    "Address": "1612 South St, Philadelphia, PA 19146",
    "City": "PHI",
    "State": "PA",
    "latitude": 39.9440341,
    "longitude": -75.1692872,
    "Phone": "267-519-0253",
    "Website": "http://foundingfathersbar.com/"
  },
  {
    "Teams": "nflphi",
    "Name": "Philadium Tavern",
    "Address": "1631 Packer Ave, Philadelphia, PA 19145",
    "City": "PHI",
    "State": "PA",
    "latitude": 39.9125338,
    "longitude": -75.1763655,
    "Phone": "215-271-5220",
    "Website": "http://philadiumtavern.com/"
  },
  {
    "Teams": "ncaabore;ncaafore",
    "Name": "St. Stephen's Green",
    "Address": "1701 Green St, Philadelphia, PA 19130",
    "City": "PHI",
    "State": "PA",
    "latitude": 39.964637,
    "longitude": -75.166055,
    "Phone": "215-769-3291",
    "Website": ""
  },
  {
    "Teams": "ncaabvu",
    "Name": "Evil Genius Beer Company",
    "Address": "1727 N Front St, Philadelphia, PA 19122",
    "City": "PHI",
    "State": "PA",
    "latitude": 39.9757949,
    "longitude": -75.133939,
    "Phone": "215-425-6820",
    "Website": "http://evilgenius.beer/"
  },
  {
    "Teams": "ncaabvu",
    "Name": "Misconduct Tavern",
    "Address": "1801 John F Kennedy Blvd, Philadelphia, PA 19103",
    "City": "PHI",
    "State": "PA",
    "latitude": 39.9543942,
    "longitude": -75.1698496,
    "Phone": "267-928-4297",
    "Website": "http://www.misconducttavern.com/"
  },
  {
    "Teams": "ncaabksu;ncaafksu;ncaabmsst;ncaafmsst;nflphi;ncaabsc;ncaafsc;ncaabwis;ncaafwis",
    "Name": "Cavanaugh's Rittenhouse",
    "Address": "1823 Sansom St, Philadelphia, PA 19103",
    "City": "PHI",
    "State": "PA",
    "latitude": 39.9511145,
    "longitude": -75.1715758,
    "Phone": "215-665-9500",
    "Website": "http://www.cavsrittenhouse.com/"
  },
  {
    "Teams": "ncaabnc;ncaafnc;ncaabnd;ncaafnd",
    "Name": "James Restaurant & Bar",
    "Address": "1835 Arch St, Philadelphia, PA 19103",
    "City": "PHI",
    "State": "PA",
    "latitude": 39.9555197,
    "longitude": -75.1709461,
    "Phone": "267-324-5005",
    "Website": "http://jamesphiladelphia.com/"
  },
  {
    "Teams": "nbaphi",
    "Name": "Drinker's Pub",
    "Address": "1903 Chestnut St, Philadelphia, PA 19103",
    "City": "PHI",
    "State": "PA",
    "latitude": 39.9520989,
    "longitude": -75.172064,
    "Phone": "215-564-0914",
    "Website": "http://www.drinkersrittenhouse.com/"
  },
  {
    "Teams": "nflkc",
    "Name": "Big Charlie's Saloon",
    "Address": "1953 S 11th St, Philadelphia, PA 19148",
    "City": "PHI",
    "State": "PA",
    "latitude": 39.9249452,
    "longitude": -75.163906,
    "Phone": "",
    "Website": ""
  },
  {
    "Teams": "ncaabnd;ncaafnd;nflphi;ncaabtem;ncaaftem;ncaabucf;ncaafucf",
    "Name": "City Tap House Logan Square",
    "Address": "2 Logan Square, Philadelphia, PA 19103",
    "City": "PHI",
    "State": "PA",
    "latitude": 39.9559106,
    "longitude": -75.169578,
    "Phone": "215-587-9040",
    "Website": "https://www.citytap.com/location/logan-square/"
  },
  {
    "Teams": "nbaphi;nflphi",
    "Name": "Tabu",
    "Address": "200 S 12th St, Philadelphia, PA 19107",
    "City": "PHI",
    "State": "PA",
    "latitude": 39.9484577,
    "longitude": -75.1607286,
    "Phone": "215-964-9675",
    "Website": "http://tabuphilly.com/"
  },
  {
    "Teams": "nbaphi",
    "Name": "Irish Pub",
    "Address": "2007 Walnut St, Philadelphia, PA 19103",
    "City": "PHI",
    "State": "PA",
    "latitude": 39.950886,
    "longitude": -75.174032,
    "Phone": "215-568-5603",
    "Website": "http://www.irishpubphilly.com/"
  },
  {
    "Teams": "nbaphi",
    "Name": "Woody's",
    "Address": "202 S 13th St, Philadelphia, PA 19107",
    "City": "PHI",
    "State": "PA",
    "latitude": 39.9487677,
    "longitude": -75.1623666,
    "Phone": "215-545-1893",
    "Website": "http://www.woodysbar.com/"
  },
  {
    "Teams": "nbaphi",
    "Name": "Urban Saloon",
    "Address": "2120 Fairmount Ave, Philadelphia, PA 19130",
    "City": "PHI",
    "State": "PA",
    "latitude": 39.9671872,
    "longitude": -75.1729283,
    "Phone": "215-232-5359",
    "Website": "http://www.urbansaloon.com/"
  },
  {
    "Teams": "nbaphi;ncaabtenn;ncaaftenn;ncaabvu;ncaabuva;ncaafuva",
    "Name": "Vesper Sporting Club - Center City",
    "Address": "223 S Sydenham St, Philadelphia, PA 19102",
    "City": "PHI",
    "State": "PA",
    "latitude": 39.948896,
    "longitude": -75.166757,
    "Phone": "267-317-8804",
    "Website": "http://www.vespersportingclub.com/"
  },
  {
    "Teams": "ncaabnd;ncaafnd",
    "Name": "Mac's Tavern",
    "Address": "226 Market St, Philadelphia, PA 19106",
    "City": "PHI",
    "State": "PA",
    "latitude": 39.9498119,
    "longitude": -75.1447673,
    "Phone": "267-324-5507",
    "Website": "http://www.macstavern.com/"
  },
  {
    "Teams": "ncaabosu;ncaafosu;nbaphi;ncaabpit;ncaafpit;ncaabvt;ncaafvt",
    "Name": "Sto's Bar",
    "Address": "236 Market St, Philadelphia, PA 19106",
    "City": "PHI",
    "State": "PA",
    "latitude": 39.949801,
    "longitude": -75.145145,
    "Phone": "267-687-8653",
    "Website": ""
  },
  {
    "Teams": "ncaabpit;ncaafpit",
    "Name": "Landmark Americana Tap & Grill",
    "Address": "2481 N 54th St, Philadelphia, PA 19131",
    "City": "PHI",
    "State": "PA",
    "latitude": 39.9960637,
    "longitude": -75.2337527,
    "Phone": "610-660-2100",
    "Website": "http://www.landmarkamericana.com/cl-home"
  },
  {
    "Teams": "ncaabtem;ncaaftem",
    "Name": "SouthHouse",
    "Address": "2535 S 13th St, Philadelphia, PA 19148",
    "City": "PHI",
    "State": "PA",
    "latitude": 39.91804,
    "longitude": -75.168707,
    "Phone": "267-314-5937",
    "Website": "http://www.southhousephilly.com/"
  },
  {
    "Teams": "nhlstl",
    "Name": "The Jack's NYB",
    "Address": "2739 S 16th St, Philadelphia, PA 19145",
    "City": "PHI",
    "State": "PA",
    "latitude": 39.9162834,
    "longitude": -75.1746194,
    "Phone": "",
    "Website": ""
  },
  {
    "Teams": "nbaphi",
    "Name": "The Market Tavern",
    "Address": "3000 Market St, Philadelphia, PA 19104",
    "City": "PHI",
    "State": "PA",
    "latitude": 39.9546024,
    "longitude": -75.1838311,
    "Phone": "215-222-7400",
    "Website": "http://www.themarkettavernphilly.com/"
  },
  {
    "Teams": "nfldal;ncaabusf;ncaafusf;ncaabucla;ncaafucla;ncaabusc;ncaafusc",
    "Name": "Dave & Buster's",
    "Address": "325 N Christopher Columbus Blvd, Philadelphia, PA 19106",
    "City": "PHI",
    "State": "PA",
    "latitude": 39.9562183,
    "longitude": -75.1385712,
    "Phone": "215-413-1951",
    "Website": "https://www.daveandbusters.com/locations/philadelphia"
  },
  {
    "Teams": "nbaphi",
    "Name": "New Deck Tavern",
    "Address": "3408 Sansom St, Philadelphia, PA 19104",
    "City": "PHI",
    "State": "PA",
    "latitude": 39.9535171,
    "longitude": -75.1926123,
    "Phone": "215-386-4600",
    "Website": "http://www.newdecktavern.com/"
  },
  {
    "Teams": "nflphi;mlbphi",
    "Name": "Chickie's & Pete's",
    "Address": "3601 S Broad St, Philadelphia, PA 19148",
    "City": "PHI",
    "State": "PA",
    "latitude": 39.9014315,
    "longitude": -75.1712963,
    "Phone": "",
    "Website": "http://chickiesandpetes.com/location/stadiums/"
  },
  {
    "Teams": "ncaabpsu;ncaafpsu",
    "Name": "Wissahickon Brewing Company",
    "Address": "3705 W School House Ln, Philadelphia, PA 19129",
    "City": "PHI",
    "State": "PA",
    "latitude": 40.013713,
    "longitude": -75.200813,
    "Phone": "215-483-8833",
    "Website": "http://www.wissahickonbrew.com/"
  },
  {
    "Teams": "mlsphi",
    "Name": "The Spicy Belly",
    "Address": "3847 Terrace Street, Philadelphia, PA, Philadelphia, PA 19128",
    "City": "PHI",
    "State": "PA",
    "latitude": 40.020451,
    "longitude": -75.212339,
    "Phone": "215-482-2095",
    "Website": "http://thespicybelly.com/"
  },
  {
    "Teams": "ncaabduke;ncaafduke;nflne;ncaabokst;ncaafokst;mlsphi",
    "Name": "Smiths Restaurant & Bar",
    "Address": "39 S 19th St, Philadelphia, PA 19103",
    "City": "PHI",
    "State": "PA",
    "latitude": 39.9522612,
    "longitude": -75.1717394,
    "Phone": "267-546-2669",
    "Website": "https://www.smithsrestaurantbar.com/"
  },
  {
    "Teams": "nbaphi",
    "Name": "Copabanana University City",
    "Address": "4000 Spruce St, Philadelphia, PA 19104",
    "City": "PHI",
    "State": "PA",
    "latitude": 39.9516133,
    "longitude": -75.2031982,
    "Phone": "215-382-1330",
    "Website": "http://www.copabananauc.com/"
  },
  {
    "Teams": "nflbal;ncaabvt;ncaafvt",
    "Name": "MilkBoy South Street",
    "Address": "401 South St, Philadelphia, PA 19147",
    "City": "PHI",
    "State": "PA",
    "latitude": 39.9417193,
    "longitude": -75.1492966,
    "Phone": "215-925-6455",
    "Website": "http://www.milkboysouthstreet.com/"
  },
  {
    "Teams": "ncaabcal;ncaafcal;ncaabiowa;ncaafiowa;mlbphi;mlsphi;ncaabstan;ncaafstan;ncaabtamu;ncaaftamu;ncaabuw;ncaafuw;ncaabwsu;ncaafwsu;ncaabore;ncaafore;nflphi",
    "Name": "Cavanaugh's Headhouse",
    "Address": "421 S 2nd St, Philadelphia, PA 19147",
    "City": "PHI",
    "State": "PA",
    "latitude": 39.9422842,
    "longitude": -75.1449611,
    "Phone": "215-928-9307",
    "Website": "http://www.cavsheadhouse.com/"
  },
  {
    "Teams": "nflphi",
    "Name": "Sona Pub & Kitchen",
    "Address": "4417 Main St, Philadelphia, PA 19127",
    "City": "PHI",
    "State": "PA",
    "latitude": 40.026308,
    "longitude": -75.225354,
    "Phone": "484-273-0481",
    "Website": "http://www.sonapub.com/"
  },
  {
    "Teams": "nflphi",
    "Name": "Nick's Roast Beef, Woodhaven Rd.",
    "Address": "4501 Woodhaven Rd, Philadelphia, PA 19154",
    "City": "PHI",
    "State": "PA",
    "latitude": 40.083729,
    "longitude": -74.9661299,
    "Phone": "215-637-5151",
    "Website": "https://www.nicksrbwoodhaven.com/"
  },
  {
    "Teams": "nbaphi;nflphi;nhlphi;nflpit",
    "Name": "O'Neals Pub",
    "Address": "611 S 3rd St, Philadelphia, PA 19147",
    "City": "PHI",
    "State": "PA",
    "latitude": 39.9410306,
    "longitude": -75.147402,
    "Phone": "215-574-9495",
    "Website": "http://www.onealspub.com/"
  },
  {
    "Teams": "mlsphi",
    "Name": "Brauhaus Schmitz",
    "Address": "718 South St, Philadelphia, PA 19147",
    "City": "PHI",
    "State": "PA",
    "latitude": 39.9422148,
    "longitude": -75.1545813,
    "Phone": "267-909-8814",
    "Website": "http://www.brauhausschmitz.com/"
  },
  {
    "Teams": "nbaphi",
    "Name": "New Wave Cafe",
    "Address": "784 S 3rd St, Philadelphia, PA 19147",
    "City": "PHI",
    "State": "PA",
    "latitude": 39.93808,
    "longitude": -75.1485269,
    "Phone": "215-922-8484",
    "Website": "http://www.newwavecafe.com/"
  },
  {
    "Teams": "nflno",
    "Name": "Acadia",
    "Address": "824 S 8th St, Philadelphia, PA 19147",
    "City": "PHI",
    "State": "PA",
    "latitude": 39.9388884,
    "longitude": -75.1564379,
    "Phone": "215-922-7200",
    "Website": "http://www.acadiaphilly.com/"
  },
  {
    "Teams": "nflphi",
    "Name": "Paddy Whacks Irish Sports Pub - Welsh Road",
    "Address": "9241-43 Roosevelt Blvd, Philadelphia, PA 19114",
    "City": "PHI",
    "State": "PA",
    "latitude": 40.074489,
    "longitude": -75.031733,
    "Phone": "215-464-7544",
    "Website": "http://www.paddywhackspub.com/"
  },
  {
    "Teams": "nhlphi",
    "Name": "Maggie's Waterfront Cafe",
    "Address": "9242 N Delaware Ave, Philadelphia, PA 19114",
    "City": "PHI",
    "State": "PA",
    "latitude": 40.0436091,
    "longitude": -74.9896527,
    "Phone": "215-637-6716",
    "Website": "http://maggieswaterfront.com/"
  },
  {
    "Teams": "ncaabaub;ncaafaub",
    "Name": "City Tap House University City",
    "Address": "The Radian, 3925 Walnut St, Philadelphia, PA 19104",
    "City": "PHI",
    "State": "PA",
    "latitude": 39.9542298,
    "longitude": -75.2014869,
    "Phone": "215-662-0105",
    "Website": "https://www.citytap.com/location/ucity/"
  }
]