[
  {
    "Teams": "nflsf",
    "Name": "Tailgaters Sports Bar & Grill",
    "Address": "4605 Golf Course Rd, Antioch, CA 94531, USA",
    "City": "SF",
    "State": "CA",
    "latitude": 37.9766803,
    "longitude": -121.8024762,
    "Phone": "925-754-2277",
    "Website": "http://tailgaterssportsbars.com/"
  },
  {
    "Teams": "ncaabku;ncaafku;mlboak;nhlsjs;ncaabvu",
    "Name": "Bittersweet Bistro",
    "Address": "787 Rio Del Mar Blvd b, Aptos, CA 95003, USA",
    "City": "SF",
    "State": "CA",
    "latitude": 36.974674,
    "longitude": -121.888563,
    "Phone": "831-662-9799",
    "Website": "http://www.bittersweetbistro.com/"
  },
  {
    "Teams": "ncaabunm;ncaafunm",
    "Name": "Triple Rock Brewing",
    "Address": "1920 Shattuck Ave, Berkeley, CA 94704, USA",
    "City": "SF",
    "State": "CA",
    "latitude": 37.873416,
    "longitude": -122.2687553,
    "Phone": "510-843-2739",
    "Website": "http://triplerock.com/"
  },
  {
    "Teams": "ncaabtex;ncaaftex",
    "Name": "Spats Berkeley",
    "Address": "1974 Shattuck Ave, Berkeley, CA 94704, USA",
    "City": "SF",
    "State": "CA",
    "latitude": 37.8726272,
    "longitude": -122.2687247,
    "Phone": "510-841-7225",
    "Website": "http://www.spatsberkeley.com/"
  },
  {
    "Teams": "nbagsw;ncaabmich;ncaafmich",
    "Name": "Bobby G's Pizzeria",
    "Address": "2072 University Ave, Berkeley, CA 94704, USA",
    "City": "SF",
    "State": "CA",
    "latitude": 37.8718454,
    "longitude": -122.2690149,
    "Phone": "510-665-8866",
    "Website": "https://bobbygspizzeria.com/"
  },
  {
    "Teams": "ncaabcal;ncaafcal",
    "Name": "Pappy's Grill & Sports Bar",
    "Address": "2367 Telegraph Ave, Berkeley, CA 94704, USA",
    "City": "SF",
    "State": "CA",
    "latitude": 37.8675789,
    "longitude": -122.2587864,
    "Phone": "510-405-1000",
    "Website": "http://www.pappysontelegraph.com/"
  },
  {
    "Teams": "ncaabcal;ncaafcal",
    "Name": "The Bear's Lair",
    "Address": "2495 Bancroft Way, Berkeley, CA 94720, USA",
    "City": "SF",
    "State": "CA",
    "latitude": 37.8687084,
    "longitude": -122.2603782,
    "Phone": "510-665-3968",
    "Website": "http://www.bearslairberkeley.com/"
  },
  {
    "Teams": "nflsf",
    "Name": "Buffalo Wild Wings",
    "Address": "6051 Lone Tree Way, Brentwood, CA 94513, USA",
    "City": "SF",
    "State": "CA",
    "latitude": 37.961168,
    "longitude": -121.7393196,
    "Phone": "925-240-7481",
    "Website": "https://www.buffalowildwings.com/en/locations/detail/389/"
  },
  {
    "Teams": "nflsf",
    "Name": "Tailgaters Sports Bar & Grill",
    "Address": "8065 Brentwood Blvd, Brentwood, CA 94513, USA",
    "City": "SF",
    "State": "CA",
    "latitude": 37.939235,
    "longitude": -121.6970999,
    "Phone": "925-513-8281",
    "Website": "http://tailgaterssportsbars.com/"
  },
  {
    "Teams": "nbagsw;nflsf",
    "Name": "7 Mile House Sports Bar & Grill",
    "Address": "2800 Bayshore Blvd, Brisbane, CA 94005, USA",
    "City": "SF",
    "State": "CA",
    "latitude": 37.704341,
    "longitude": -122.4074737,
    "Phone": "415-467-2343",
    "Website": "http://www.7milehouse.com/"
  },
  {
    "Teams": "nhlsjs",
    "Name": "Flights Restaurant Burlingame",
    "Address": "1100 Burlingame Ave, Burlingame, CA 94010, USA",
    "City": "SF",
    "State": "CA",
    "latitude": 37.5797044,
    "longitude": -122.3456551,
    "Phone": "650-513-6059",
    "Website": "http://www.flightsrestaurants.com/"
  },
  {
    "Teams": "nbagsw",
    "Name": "Barrelhouse",
    "Address": "305 California Dr, Burlingame, CA 94010, USA",
    "City": "SF",
    "State": "CA",
    "latitude": 37.5798833,
    "longitude": -122.3458652,
    "Phone": "650-340-8642",
    "Website": "http://barrelhouseburlingame.com/"
  },
  {
    "Teams": "nflden;mlblad",
    "Name": "Rock Bottom Restaurant & Brewery",
    "Address": "1875 S Bascom Ave #700, Campbell, CA 95008, USA",
    "City": "SF",
    "State": "CA",
    "latitude": 37.2890093,
    "longitude": -121.9340408,
    "Phone": "408-377-0707",
    "Website": "https://rockbottom.com/locations/san-jose/"
  },
  {
    "Teams": "nhlsjs",
    "Name": "Water Tower Kitchen",
    "Address": "201 Orchard City Dr, Campbell, CA 95008, USA",
    "City": "SF",
    "State": "CA",
    "latitude": 37.2865709,
    "longitude": -121.94404,
    "Phone": "408-502-9550",
    "Website": "http://www.watertowerkitchen.com/"
  },
  {
    "Teams": "nbabos;mlbbos;nflne",
    "Name": "Little Lou's BBQ",
    "Address": "2455 S Winchester Blvd, Campbell, CA 95008, USA",
    "City": "SF",
    "State": "CA",
    "latitude": 37.2786154,
    "longitude": -121.9507893,
    "Phone": "408-356-5768",
    "Website": "http://www.littlelousbbq.com/"
  },
  {
    "Teams": "nflgb",
    "Name": "Khartoum Bar",
    "Address": "300 Orchard City Dr, Campbell, CA 95008, USA",
    "City": "SF",
    "State": "CA",
    "latitude": 37.2857034,
    "longitude": -121.9437609,
    "Phone": "408-379-6340",
    "Website": ""
  },
  {
    "Teams": "nhlsjs",
    "Name": "Flights Restaurant Campbell",
    "Address": "368 E Campbell Ave, Campbell, CA 95008, USA",
    "City": "SF",
    "State": "CA",
    "latitude": 37.2869095,
    "longitude": -121.9434408,
    "Phone": "408-364-1564",
    "Website": "http://flightsrestaurants.com/"
  },
  {
    "Teams": "nflphi",
    "Name": "New Jersey's: cheesesteaks and sports bar",
    "Address": "923 W Hamilton Ave, Campbell, CA 95008, USA",
    "City": "SF",
    "State": "CA",
    "latitude": 37.2945367,
    "longitude": -121.9661583,
    "Phone": "408-370-2326",
    "Website": ""
  },
  {
    "Teams": "ncaabbsu;ncaafbsu",
    "Name": "Beer Dogs",
    "Address": "7032 Sylvan Rd, Citrus Heights, CA 95610, USA",
    "City": "SF",
    "State": "CA",
    "latitude": 38.6939575,
    "longitude": -121.2896926,
    "Phone": "916-547-2597",
    "Website": "http://www.beer-dogs.com/"
  },
  {
    "Teams": "ncaabbsu;ncaafbsu",
    "Name": "Buffalo Wild WIngs",
    "Address": "2090 Diamond Blvd, Concord, CA 94520, USA",
    "City": "SF",
    "State": "CA",
    "latitude": 37.9746387,
    "longitude": -122.0579001,
    "Phone": "925-609-9784",
    "Website": "http://buffalowildwings.com/"
  },
  {
    "Teams": "mlblad",
    "Name": "BJ's Restaurant & Brewhouse",
    "Address": "385 Sun Valley Mall, Concord, CA 94520, USA",
    "City": "SF",
    "State": "CA",
    "latitude": 37.9690484,
    "longitude": -122.061708,
    "Phone": "925-849-1090",
    "Website": "http://www.bjsrestaurants.com/locations/ca/concord"
  },
  {
    "Teams": "ncaabneb;ncaafneb",
    "Name": "Legends at Diablo Creek",
    "Address": "4050 Port Chicago Hwy, Concord, CA 94520, USA",
    "City": "SF",
    "State": "CA",
    "latitude": 38.0135449,
    "longitude": -122.0235497,
    "Phone": "925-687-4111",
    "Website": "http://www.legendsdiablocreekbeta.com/"
  },
  {
    "Teams": "nflsf",
    "Name": "American River Pizza & Grill",
    "Address": "2966 CA-49, Cool, CA 95614, USA",
    "City": "SF",
    "State": "CA",
    "latitude": 38.888624,
    "longitude": -121.017065,
    "Phone": "530-887-1969",
    "Website": "https://www.americanriverpizza.com/"
  },
  {
    "Teams": "nbagsw",
    "Name": "Pig In A Pickle",
    "Address": "341 Corte Madera Town Center, Corte Madera, CA 94925, USA",
    "City": "SF",
    "State": "CA",
    "latitude": 37.9275941,
    "longitude": -122.5168635,
    "Phone": "415-891-3265",
    "Website": "https://piginapickle.com/"
  },
  {
    "Teams": "ncaabstan;ncaafstan",
    "Name": "Moseley's Sports Bar",
    "Address": "55 Tamal Vista Blvd, Corte Madera, CA 94925, USA",
    "City": "SF",
    "State": "CA",
    "latitude": 37.9334761,
    "longitude": -122.517296,
    "Phone": "415-704-7437",
    "Website": "https://www.moseleyssportsbar.com/"
  },
  {
    "Teams": "nbagsw",
    "Name": "Last Stop Sports Bar and Lounge",
    "Address": "6192 Mission St, Daly City, CA 94014, USA",
    "City": "SF",
    "State": "CA",
    "latitude": 37.7069071,
    "longitude": -122.4588459,
    "Phone": "415-416-2634",
    "Website": "http://laststopbar.com/"
  },
  {
    "Teams": "ncaabsyr;ncaafsyr",
    "Name": "McGah's Pub & Pianos",
    "Address": "148 E Prospect Ave, Danville, CA 94526, USA",
    "City": "SF",
    "State": "CA",
    "latitude": 37.822159,
    "longitude": -121.999387,
    "Phone": "925-743-8466",
    "Website": "http://www.mcgahs.com/"
  },
  {
    "Teams": "nflne;nhlsjs;ncaabtcu;ncaaftcu",
    "Name": "Tower Grille",
    "Address": "301 Hartz Ave, Danville, CA 94526, USA",
    "City": "SF",
    "State": "CA",
    "latitude": 37.822268,
    "longitude": -122.0012115,
    "Phone": "925-820-6996",
    "Website": "http://towergrillofdanville.com/"
  },
  {
    "Teams": "mlssj",
    "Name": "Norm's Place",
    "Address": "356 Hartz Ave, Danville, CA 94526, USA",
    "City": "SF",
    "State": "CA",
    "latitude": 37.8221442,
    "longitude": -122.0001711,
    "Phone": "925-552-6676",
    "Website": "http://www.normsgrill.com/"
  },
  {
    "Teams": "nbasac",
    "Name": "University of Beer-Davis",
    "Address": "615 3rd St, Davis, CA 95616, USA",
    "City": "SF",
    "State": "CA",
    "latitude": 38.5448575,
    "longitude": -121.7406421,
    "Phone": "530-759-1990",
    "Website": "http://theuob.com/"
  },
  {
    "Teams": "ncaabnd;ncaafnd",
    "Name": "El Dorado Saloon & Grill",
    "Address": "879 Embarcadero Dr, El Dorado Hills, CA 95762, USA",
    "City": "SF",
    "State": "CA",
    "latitude": 38.7092869,
    "longitude": -121.085055,
    "Phone": "916-941-3600",
    "Website": "http://www.eldoradosaloonandgrill.com/"
  },
  {
    "Teams": "nflpit",
    "Name": "Steve's Pizza",
    "Address": "9135 W Stockton Blvd, Elk Grove, CA 95758, USA",
    "City": "SF",
    "State": "CA",
    "latitude": 38.4254874,
    "longitude": -121.3983703,
    "Phone": "916-683-2200",
    "Website": "http://www.stevespizza.com/"
  },
  {
    "Teams": "nbagsw",
    "Name": "The Broken Rack",
    "Address": "5768 Peladeau St, Emeryville, CA 94608, USA",
    "City": "SF",
    "State": "CA",
    "latitude": 37.8386943,
    "longitude": -122.2896229,
    "Phone": "510-652-9808",
    "Website": "https://www.thebrokenrack.com/"
  },
  {
    "Teams": "ncaabbama;ncaafbama;ncaabarmy;ncaafarmy;ncaabku;ncaafku;ncaabnavy;ncaafnavy;ncaabneb;ncaafneb;nflsf",
    "Name": "Players Sports Pub & Grill",
    "Address": "4060 Sunrise Blvd, Fair Oaks, CA 95628, USA",
    "City": "SF",
    "State": "CA",
    "latitude": 38.6394916,
    "longitude": -121.2709357,
    "Phone": "916-967-8492",
    "Website": "http://www.playerspub.net/"
  },
  {
    "Teams": "nflsf",
    "Name": "Legends at Paradise Valley Sports Bar & Grill",
    "Address": "3990 Paradise Valley Dr, Fairfield, CA 94533, USA",
    "City": "SF",
    "State": "CA",
    "latitude": 38.2964019,
    "longitude": -122.0246349,
    "Phone": "707-421-2234",
    "Website": "http://www.legendsparadisevalleybeta.com/"
  },
  {
    "Teams": "nflden",
    "Name": "Dolan's",
    "Address": "199 Blue Ravine Rd, Folsom, CA 95630, USA",
    "City": "SF",
    "State": "CA",
    "latitude": 38.6543157,
    "longitude": -121.1785438,
    "Phone": "916-932-4750",
    "Website": "http://www.dolansbarinfolsom.com/"
  },
  {
    "Teams": "ncaabbsu;ncaafbsu",
    "Name": "Folsom Tap House & Kitchen",
    "Address": "25005 Blue Ravine Rd #140, Folsom, CA 95630, USA",
    "City": "SF",
    "State": "CA",
    "latitude": 38.688556,
    "longitude": -121.1236357,
    "Phone": "916-292-5711",
    "Website": "http://www.folsomtaphouse.com/"
  },
  {
    "Teams": "ncaabtcu;ncaaftcu",
    "Name": "Buffalo Wild Wings",
    "Address": "2759 E Bidwell St, Folsom, CA 95630, USA",
    "City": "SF",
    "State": "CA",
    "latitude": 38.6547003,
    "longitude": -121.1240931,
    "Phone": "916-496-8700",
    "Website": "http://buffalowildwings.com/"
  },
  {
    "Teams": "nflmin",
    "Name": "Churchill Arms Pub",
    "Address": "649 E Bidwell St, Folsom, CA 95630, USA",
    "City": "SF",
    "State": "CA",
    "latitude": 38.6721096,
    "longitude": -121.1626955,
    "Phone": "916-984-3706",
    "Website": "http://www.churchillarmspub.com/"
  },
  {
    "Teams": "nfldal",
    "Name": "Round Table Pizza",
    "Address": "9500 Greenback Ln, Folsom, CA 95630, USA",
    "City": "SF",
    "State": "CA",
    "latitude": 38.675476,
    "longitude": -121.199753,
    "Phone": "916-989-1133",
    "Website": "http://www.roundtablepizza.com/order"
  },
  {
    "Teams": "nflsf",
    "Name": "Jack's Brewing Company",
    "Address": "39176 Argonaut Way, Fremont, CA 94538, USA",
    "City": "SF",
    "State": "CA",
    "latitude": 37.5440893,
    "longitude": -121.9874809,
    "Phone": "510-796-2036",
    "Website": "https://www.facebook.com/JacksBrewing/"
  },
  {
    "Teams": "nflsf",
    "Name": "Buffalo Wild Wings",
    "Address": "43821 Pacific Commons Blvd, Fremont, CA 94538, USA",
    "City": "SF",
    "State": "CA",
    "latitude": 37.5011636,
    "longitude": -121.9714621,
    "Phone": "510-656-1634",
    "Website": "https://www.buffalowildwings.com/en/locations/detail/516/"
  },
  {
    "Teams": "nflsf",
    "Name": "Straw Hat Pizza",
    "Address": "1053 1st St, Gilroy, CA 95020, USA",
    "City": "SF",
    "State": "CA",
    "latitude": 37.0139503,
    "longitude": -121.592333,
    "Phone": "408-842-2745",
    "Website": "https://www.strawhatpizzagilroy.com/"
  },
  {
    "Teams": "ncaabmsu;ncaafmsu;mlssj;nhlsjs",
    "Name": "Double D's Sports Grille",
    "Address": "354 N Santa Cruz Ave, Los Gatos, CA 95030, USA",
    "City": "SF",
    "State": "CA",
    "latitude": 37.2285665,
    "longitude": -121.9808444,
    "Phone": "408-402-3407",
    "Website": "http://doubleds.com/"
  },
  {
    "Teams": "nhlsjs",
    "Name": "Flights Restaurant Los Gatos",
    "Address": "5306, 165 Los Gatos-Saratoga Rd, Los Gatos, CA 95030, USA",
    "City": "SF",
    "State": "CA",
    "latitude": 37.228088,
    "longitude": -121.980004,
    "Phone": "408-354-3434",
    "Website": "http://flightsrestaurants.com/"
  },
  {
    "Teams": "nflsf",
    "Name": "Rivets American Grill",
    "Address": "2307 Oakdale Rd, Modesto, CA 95355, USA",
    "City": "SF",
    "State": "CA",
    "latitude": 37.6745479,
    "longitude": -120.9580408,
    "Phone": "209-846-0501",
    "Website": "https://www.facebook.com/Rivetsgrill/"
  },
  {
    "Teams": "ncaabnd;ncaafnd",
    "Name": "P Wexford's Pub",
    "Address": "3313 McHenry Ave, Modesto, CA 95350, USA",
    "City": "SF",
    "State": "CA",
    "latitude": 37.6859918,
    "longitude": -120.9946859,
    "Phone": "209-576-7939",
    "Website": ""
  },
  {
    "Teams": "ncaabmsu;ncaafmsu;ncaabstan;ncaafstan;ncaabucla;ncaafucla",
    "Name": "Knuckles Sports Bar",
    "Address": "1 Old Golf Course Rd, Monterey, CA 93940, USA",
    "City": "SF",
    "State": "CA",
    "latitude": 36.5916519,
    "longitude": -121.8774523,
    "Phone": "831-372-1234",
    "Website": "http://www.hyattregencymonterey.com/"
  },
  {
    "Teams": "ncaabnavy;ncaafnavy",
    "Name": "Trident Room",
    "Address": "1 University Circle, Monterey, CA 93943, USA",
    "City": "SF",
    "State": "CA",
    "latitude": 36.5975973,
    "longitude": -121.8740955,
    "Phone": "831-656-7508",
    "Website": "https://monterey.navylifesw.com/programs/e9a77d63-83d6-4abb-b3d8-517a568d27f1"
  },
  {
    "Teams": "ncaabcle;ncaafcle;ncaabuf;ncaafuf;ncaabwis;ncaafwis",
    "Name": "Sports Page",
    "Address": "1431 Plymouth St, Mountain View, CA 94043, USA",
    "City": "SF",
    "State": "CA",
    "latitude": 37.4161493,
    "longitude": -122.0786363,
    "Phone": "650-961-1992",
    "Website": "http://www.sportspagesf.com/"
  },
  {
    "Teams": "nbagsw",
    "Name": "O'Malley's Sports Pub",
    "Address": "2135 Old Middlefield Way, Mountain View, CA 94043, USA",
    "City": "SF",
    "State": "CA",
    "latitude": 37.4142123,
    "longitude": -122.0936008,
    "Phone": "650-965-1162",
    "Website": "https://m.facebook.com/pages/OMalleys-Sports-Pub/1107623159281906"
  },
  {
    "Teams": "ncaabgt;ncaafgt;ncaabumd;ncaafumd;ncaabmsu;ncaafmsu;mlssea",
    "Name": "St. Stephen's Green",
    "Address": "223 Castro St, Mountain View, CA 94041, USA",
    "City": "SF",
    "State": "CA",
    "latitude": 37.3934652,
    "longitude": -122.0790549,
    "Phone": "650-964-9151",
    "Website": "http://www.ststephensgreen.com/"
  },
  {
    "Teams": "nhlsjs",
    "Name": "Flights Restaurant Mountain View",
    "Address": "800 California St Suite 100, Mountain View, CA 94041, USA",
    "City": "SF",
    "State": "CA",
    "latitude": 37.3916112,
    "longitude": -122.0806819,
    "Phone": "650-386-6424",
    "Website": "http://www.flightsrestaurants.com/"
  },
  {
    "Teams": "ncaabmsu;ncaafmsu",
    "Name": "Tied House",
    "Address": "954 Villa St, Mountain View, CA 94041, USA",
    "City": "SF",
    "State": "CA",
    "latitude": 37.3947099,
    "longitude": -122.0806799,
    "Phone": "650-965-2739",
    "Website": "http://tiedhouse.com/"
  },
  {
    "Teams": "nbagsw",
    "Name": "alaMar Kitchen & Bar",
    "Address": "100 Grand Ave #111, Oakland, CA 94612, USA",
    "City": "SF",
    "State": "CA",
    "latitude": 37.8115,
    "longitude": -122.264514,
    "Phone": "510-907-7555",
    "Website": "http://www.alamaroakland.com/"
  },
  {
    "Teams": "nbagsw",
    "Name": "Mad Oak Bar",
    "Address": "135 12th St, Oakland, CA 94607, USA",
    "City": "SF",
    "State": "CA",
    "latitude": 37.7997525,
    "longitude": -122.2646421,
    "Phone": "510-924-2047",
    "Website": "http://www.madoakbar.com/"
  },
  {
    "Teams": "nbagsw",
    "Name": "Awaken Cafe",
    "Address": "1429 Broadway, Oakland, CA 94612, USA",
    "City": "SF",
    "State": "CA",
    "latitude": 37.8051481,
    "longitude": -122.2708725,
    "Phone": "510-863-1440",
    "Website": "http://www.awakencafe.com/"
  },
  {
    "Teams": "nbagsw",
    "Name": "Philomena",
    "Address": "1801 14th Ave, Oakland, CA 94606, USA",
    "City": "SF",
    "State": "CA",
    "latitude": 37.7921506,
    "longitude": -122.2428904,
    "Phone": "510-532-2399",
    "Website": "http://www.philomenapizza.com/"
  },
  {
    "Teams": "nbagsw",
    "Name": "The Legionnaire Saloon",
    "Address": "2272 Telegraph Ave, Oakland, CA 94612, USA",
    "City": "SF",
    "State": "CA",
    "latitude": 37.8123698,
    "longitude": -122.2685786,
    "Phone": "510-891-8660",
    "Website": "http://www.legionnairesaloon.com/"
  },
  {
    "Teams": "ncaabfsu;ncaaffsu;nbagsw;mlboak;nfloak",
    "Name": "Halftime Sports Bar",
    "Address": "316 14th St, Oakland, CA 94612, USA",
    "City": "SF",
    "State": "CA",
    "latitude": 37.8033062,
    "longitude": -122.2679321,
    "Phone": "510-836-4400",
    "Website": "http://halftimesportbar.letseat.at/"
  },
  {
    "Teams": "ncaabduke;ncaafduke;mlboak",
    "Name": "Grand Oaks",
    "Address": "3701 Grand Ave, Oakland, CA 94610, USA",
    "City": "SF",
    "State": "CA",
    "latitude": 37.8164724,
    "longitude": -122.2456446,
    "Phone": "510-451-5253",
    "Website": "http://www.grandoaksrestaurant.com/"
  },
  {
    "Teams": "ncaabstan;ncaafstan",
    "Name": "Federation Brewing",
    "Address": "420 3rd St a, Oakland, CA 94607, USA",
    "City": "SF",
    "State": "CA",
    "latitude": 37.796707,
    "longitude": -122.27511,
    "Phone": "510-496-4228",
    "Website": "http://www.federationbrewing.com/"
  },
  {
    "Teams": "ncaablou;ncaaflou",
    "Name": "Kingfish Pub & Cafe",
    "Address": "5227 Telegraph Ave, Oakland, CA 94609, USA",
    "City": "SF",
    "State": "CA",
    "latitude": 37.838448,
    "longitude": -122.2624735,
    "Phone": "510-655-7373",
    "Website": "http://kingfishpubandcafe.com/"
  },
  {
    "Teams": "mlschi;nbagsw",
    "Name": "CA��A Cuban Parlor & Cafe",
    "Address": "530 Lake Park Ave, Oakland, CA 94610, USA",
    "City": "SF",
    "State": "CA",
    "latitude": 37.810391,
    "longitude": -122.246565,
    "Phone": "510-832-1515",
    "Website": "http://canaoakland.com/"
  },
  {
    "Teams": "nflsea",
    "Name": "McNally's Irish Pub",
    "Address": "5352 College Ave, Oakland, CA 94618, USA",
    "City": "SF",
    "State": "CA",
    "latitude": 37.8392856,
    "longitude": -122.2511898,
    "Phone": "510-655-3929",
    "Website": "http://www.mcnallys1933.com/"
  },
  {
    "Teams": "nbagsw;mlboak;nhlsjs;ncaabtex;ncaaftex;ncaabwis;ncaafwis",
    "Name": "George & Walt's",
    "Address": "5445 College Ave, Oakland, CA 94618, USA",
    "City": "SF",
    "State": "CA",
    "latitude": 37.8410706,
    "longitude": -122.2515485,
    "Phone": "510-653-7441",
    "Website": ""
  },
  {
    "Teams": "ncaabduke;ncaafduke;nflgb;mlblad;ncaabmsu;ncaafmsu;mlboak;nflphi;mlssj;nhlsjs;ncaabtlsa;ncaaftlsa;ncaabwsu;ncaafwsu;ncaabwvu;ncaafwvu;ncaabwis;ncaafwis",
    "Name": "The Athletic Club Oakland",
    "Address": "59 Grand Ave, Oakland, CA 94612, USA",
    "City": "SF",
    "State": "CA",
    "latitude": 37.8112425,
    "longitude": -122.2656017,
    "Phone": "510-922-8204",
    "Website": "https://www.theacoakland.com/"
  },
  {
    "Teams": "mlboak",
    "Name": "Fort Green",
    "Address": "736 Washington St, Oakland, CA 94607, USA",
    "City": "SF",
    "State": "CA",
    "latitude": 37.800439,
    "longitude": -122.274881,
    "Phone": "510-593-2172",
    "Website": "http://fortgreenoakland.com/"
  },
  {
    "Teams": "nhlsjs",
    "Name": "Plank",
    "Address": "98 Broadway, Oakland, CA 94607, USA",
    "City": "SF",
    "State": "CA",
    "latitude": 37.7948581,
    "longitude": -122.2763555,
    "Phone": "510-817-0980",
    "Website": "http://plankoakland.com/"
  },
  {
    "Teams": "ncaabbut;ncaabusc;ncaafusc",
    "Name": "The Fourth Bore Tap Room & Grill",
    "Address": "#134, 2, Orinda Theatre Square, Orinda, CA 94563, USA",
    "City": "SF",
    "State": "CA",
    "latitude": 37.8784602,
    "longitude": -122.1825901,
    "Phone": "925-254-1183",
    "Website": "https://www.thefourthbore.com/"
  },
  {
    "Teams": "ncaabduke;ncaafduke;nflpit;ncaabpur;ncaafpur;ncaabucla;ncaafucla;ncaabvu",
    "Name": "The Patio",
    "Address": "412 Emerson St, Palo Alto, CA 94301, USA",
    "City": "SF",
    "State": "CA",
    "latitude": 37.4452193,
    "longitude": -122.163868,
    "Phone": "650-322-2575",
    "Website": "http://www.thepatiopa.com/"
  },
  {
    "Teams": "ncaabcolo;ncaafcolo;ncaabduke;ncaafduke;nbagsw;ncaabmsu;ncaafmsu;ncaabnavy;ncaafnavy;mlboak;ncaabosu;ncaafosu;ncaabpsu;ncaafpsu;ncaabstan;ncaafstan;ncaabsyr;ncaafsyr;ncaabtex;ncaaftex;ncaabucla;ncaafucla;ncaabuva;ncaafuva",
    "Name": "The Old Pro",
    "Address": "541 Ramona St, Palo Alto, CA 94301, USA",
    "City": "SF",
    "State": "CA",
    "latitude": 37.4448897,
    "longitude": -122.1612954,
    "Phone": "650-326-1446",
    "Website": "http://www.oldpropa.com/"
  },
  {
    "Teams": "ncaabaub;ncaafaub;nfldal",
    "Name": "Magoo's Grill of Pleasant Hill",
    "Address": "1250 Contra Costa Blvd # 203, Pleasant Hill, CA 94523, USA",
    "City": "SF",
    "State": "CA",
    "latitude": 37.9592724,
    "longitude": -122.0609396,
    "Phone": "925-682-4868",
    "Website": "http://www.magoosgrill.com/"
  },
  {
    "Teams": "nflsf",
    "Name": "Damo Sushi",
    "Address": "508 Contra Costa Blvd R, Pleasant Hill, CA 94523, USA",
    "City": "SF",
    "State": "CA",
    "latitude": 37.9812837,
    "longitude": -122.0682725,
    "Phone": "925-288-0007",
    "Website": ""
  },
  {
    "Teams": "nflsf",
    "Name": "Sunshine Saloon Sports Bar and Charcoal Grill",
    "Address": "1807 Santa Rita Rd # K, Pleasanton, CA 94566, USA",
    "City": "SF",
    "State": "CA",
    "latitude": 37.6779938,
    "longitude": -121.875369,
    "Phone": "925-846-6108",
    "Website": "http://www.sunshinesaloon.com/"
  },
  {
    "Teams": "ncaabwsu;ncaafwsu",
    "Name": "The Hop Yard Alehouse & Grill",
    "Address": "3015 Hopyard Rd, Pleasanton, CA 94588, USA",
    "City": "SF",
    "State": "CA",
    "latitude": 37.677102,
    "longitude": -121.8974527,
    "Phone": "925-426-9600",
    "Website": "http://www.hopyard.com/"
  },
  {
    "Teams": "nflden;ncaabwmu;ncaafwmu",
    "Name": "Pick 6 Sports Lounge",
    "Address": "4825 Hopyard Rd, Pleasanton, CA 94588, USA",
    "City": "SF",
    "State": "CA",
    "latitude": 37.6919795,
    "longitude": -121.9017893,
    "Phone": "925-416-0606",
    "Website": "http://www.pick6lounge.com/"
  },
  {
    "Teams": "ncaabiowa;ncaafiowa;nflsf",
    "Name": "Bleachers Sports Bar & Grill",
    "Address": "2167 Hilltop Dr A, Redding, CA 96002, USA",
    "City": "SF",
    "State": "CA",
    "latitude": 40.5760193,
    "longitude": -122.3576508,
    "Phone": "530-222-6555",
    "Website": "https://www.facebook.com/BleachersSportsBarAndGrill530/"
  },
  {
    "Teams": "nflsf",
    "Name": "Shasta Niners Clubhouse",
    "Address": "4830 Cedars Road, Redding, CA 96001, USA",
    "City": "SF",
    "State": "CA",
    "latitude": 40.544303,
    "longitude": -122.390037,
    "Phone": "530-524-2587",
    "Website": "/teams/san-francisco-49ers/bars/shasta-niners-clubhouse-4830-cedars-road-redding-ca-96001-usa"
  },
  {
    "Teams": "nflsf",
    "Name": "Round Table Clubhouse",
    "Address": "900 Dana Dr Suite A15, Redding, CA 96003, USA",
    "City": "SF",
    "State": "CA",
    "latitude": 40.5876608,
    "longitude": -122.3561591,
    "Phone": "530-223-1975",
    "Website": "https://ordering.roundtablepizza.com/site/rt226"
  },
  {
    "Teams": "nflsf",
    "Name": "5th Quarter Pizza",
    "Address": "3611, 976 Woodside Rd, Redwood City, CA 94061, USA",
    "City": "SF",
    "State": "CA",
    "latitude": 37.4636144,
    "longitude": -122.2252416,
    "Phone": "650-369-2686",
    "Website": "https://www.5thquarterpizzamenu.com/"
  },
  {
    "Teams": "ncaabmich;ncaafmich",
    "Name": "Freewheel Brewing Company",
    "Address": "3736 Florence St, Redwood City, CA 94063, USA",
    "City": "SF",
    "State": "CA",
    "latitude": 37.4782969,
    "longitude": -122.1870338,
    "Phone": "650-365-2337",
    "Website": "http://freewheelbrewing.com/"
  },
  {
    "Teams": "nflsf",
    "Name": "The Patty Shack",
    "Address": "909 Main St, Redwood City, CA 94063, USA",
    "City": "SF",
    "State": "CA",
    "latitude": 37.4848928,
    "longitude": -122.2260416,
    "Phone": "650-364-1400",
    "Website": "https://www.pattyshackrwc.com/"
  },
  {
    "Teams": "ncaabarmy;ncaafarmy",
    "Name": "Mandango's Sports Bar & Grill",
    "Address": "106 N Sunrise Ave, Roseville, CA 95661, USA",
    "City": "SF",
    "State": "CA",
    "latitude": 38.7447968,
    "longitude": -121.2670626,
    "Phone": "916-797-7678",
    "Website": "http://mandangosmenu.com/"
  },
  {
    "Teams": "ncaabasu;ncaafasu;ncaabusc;ncaafusc",
    "Name": "Buffalo Wild Wings",
    "Address": "1168 Galleria Blvd #200, Roseville, CA 95678, USA",
    "City": "SF",
    "State": "CA",
    "latitude": 38.7717047,
    "longitude": -121.2643862,
    "Phone": "916-742-5153",
    "Website": "https://buffalowildwings.com/en/locations/detail/674/"
  },
  {
    "Teams": "ncaabfsu;ncaaffsu;ncaabiowa;ncaafiowa",
    "Name": "Bunz Sports Pub & Grub",
    "Address": "311 Judah St, Roseville, CA 95678, USA",
    "City": "SF",
    "State": "CA",
    "latitude": 38.7446611,
    "longitude": -121.2851848,
    "Phone": "916-786-6655",
    "Website": "http://www.bunzsportspub.com/"
  },
  {
    "Teams": "ncaabfsu;ncaaffsu;ncaabstan;ncaafstan",
    "Name": "Legends at Woodcreek Sports Bar & Grill",
    "Address": "5880 Woodcreek Oaks Blvd, Roseville, CA 95747, USA",
    "City": "SF",
    "State": "CA",
    "latitude": 38.7771055,
    "longitude": -121.3313841,
    "Phone": "916-771-5161",
    "Website": "http://www.legendswoodcreek.com/"
  },
  {
    "Teams": "ncaabarmy;ncaafarmy",
    "Name": "Yard House",
    "Address": "E, 1166 Roseville Pkwy, Roseville, CA 95678, USA",
    "City": "SF",
    "State": "CA",
    "latitude": 38.7687955,
    "longitude": -121.2700328,
    "Phone": "916-780-9273",
    "Website": "https://www.yardhouse.com/locations/ca/roseville/roseville-the-fountains/8331"
  },
  {
    "Teams": "nfloak;nflphi;nbasac;ncaabstan;ncaafstan",
    "Name": "Limelight Bar & Caf��",
    "Address": "1014 Alhambra Blvd, Sacramento, CA 95816, USA",
    "City": "SF",
    "State": "CA",
    "latitude": 38.5723975,
    "longitude": -121.4657446,
    "Phone": "916-446-2236",
    "Website": "http://www.limelightsac.com/"
  },
  {
    "Teams": "nbasac",
    "Name": "Sauced BBQ & Spirits - Sacramento",
    "Address": "1028 7th St, Sacramento, CA 95814, USA",
    "City": "SF",
    "State": "CA",
    "latitude": 38.5806049,
    "longitude": -121.4978379,
    "Phone": "916-400-4341",
    "Website": "http://www.saucedbbqandspirits.com/sauced-home-sacramento.html"
  },
  {
    "Teams": "mlblad;nbasac",
    "Name": "Firestone Public House",
    "Address": "1132 16th St, Sacramento, CA 95814, USA",
    "City": "SF",
    "State": "CA",
    "latitude": 38.5761679,
    "longitude": -121.4863232,
    "Phone": "916-446-0888",
    "Website": "http://firestonepublichouse.com/"
  },
  {
    "Teams": "mlblad;nbasac;ncaabstan;ncaafstan;ncaabwvu;ncaafwvu",
    "Name": "Field House | American Sports Pub",
    "Address": "1310 Fulton Ave Suite D, Sacramento, CA 95825, USA",
    "City": "SF",
    "State": "CA",
    "latitude": 38.5893209,
    "longitude": -121.401049,
    "Phone": "916-487-1045",
    "Website": "http://www.fieldhousesac.com/"
  },
  {
    "Teams": "nflbuf;nbasac",
    "Name": "University Of Beer-Sacramento",
    "Address": "1510 16th St #300, Sacramento, CA 95814, USA",
    "City": "SF",
    "State": "CA",
    "latitude": 38.5722709,
    "longitude": -121.4879742,
    "Phone": "916-996-4844",
    "Website": "http://uobsac.com/"
  },
  {
    "Teams": "ncaabduke;ncaafduke;nbasac;ncaabsdsu;ncaafsdsu",
    "Name": "de Vere's Irish Pub",
    "Address": "1521 L St, Sacramento, CA 95814, USA",
    "City": "SF",
    "State": "CA",
    "latitude": 38.57621,
    "longitude": -121.486547,
    "Phone": "916-231-9947",
    "Website": "http://deverespub.com/"
  },
  {
    "Teams": "ncaabbsu;ncaafbsu",
    "Name": "Squeeze Burger",
    "Address": "1630 K St, Sacramento, CA 95814, USA",
    "City": "SF",
    "State": "CA",
    "latitude": 38.5765782,
    "longitude": -121.4847507,
    "Phone": "916-492-2499",
    "Website": "http://www.squeezeburger.com/"
  },
  {
    "Teams": "ncaabxu",
    "Name": "SacYard Community Tap House",
    "Address": "1725 33rd St, Sacramento, CA 95816, USA",
    "City": "SF",
    "State": "CA",
    "latitude": 38.5642676,
    "longitude": -121.4656301,
    "Phone": "916-400-4708",
    "Website": "https://sacyard.beer/"
  },
  {
    "Teams": "ncaabfsu;ncaaffsu",
    "Name": "Serpentine Fox Prohibition Grille",
    "Address": "2645 El Camino Ave, Sacramento, CA 95821, USA",
    "City": "SF",
    "State": "CA",
    "latitude": 38.6110278,
    "longitude": -121.3998052,
    "Phone": "916-913-1159",
    "Website": "http://www.serpentinefox.com/"
  },
  {
    "Teams": "nbasac",
    "Name": "Cheaters Sports Bar",
    "Address": "3221 Folsom Blvd, Sacramento, CA 95816, USA",
    "City": "SF",
    "State": "CA",
    "latitude": 38.568174,
    "longitude": -121.4646892,
    "Phone": "916-736-0563",
    "Website": ""
  },
  {
    "Teams": "ncaabcolo;ncaafcolo",
    "Name": "Buffalo Wild Wings",
    "Address": "3600 N Freeway Blvd #100, Sacramento, CA 95834, USA",
    "City": "SF",
    "State": "CA",
    "latitude": 38.6391873,
    "longitude": -121.4991264,
    "Phone": "916-928-5748",
    "Website": "https://buffalowildwings.com/en/locations/detail/420/"
  },
  {
    "Teams": "ncaabnev;ncaafnev;nbasac",
    "Name": "19 Handles Pub & Grill",
    "Address": "4235 Arden Way, Sacramento, CA 95864, USA",
    "City": "SF",
    "State": "CA",
    "latitude": 38.5961932,
    "longitude": -121.3653362,
    "Phone": "916-487-4979",
    "Website": "http://www.19handles.com/"
  },
  {
    "Teams": "nflsf",
    "Name": "Pete's Restaurant & Brewhouse",
    "Address": "4571 Gateway Park Blvd, Sacramento, CA 95834, USA",
    "City": "SF",
    "State": "CA",
    "latitude": 38.6555638,
    "longitude": -121.5031778,
    "Phone": "916-575-9950",
    "Website": "https://petesrandb.com/petes-natomas/"
  },
  {
    "Teams": "ncaabore;ncaafore;nbasac",
    "Name": "Pine Cove Tavern",
    "Address": "509 29th St, Sacramento, CA 95816, USA",
    "City": "SF",
    "State": "CA",
    "latitude": 38.578805,
    "longitude": -121.4657827,
    "Phone": "916-446-3624",
    "Website": "http://pinecovetavern.com/"
  },
  {
    "Teams": "ncaabuf;ncaafuf;ncaaborst;ncaaforst;ncaabusc;ncaafusc",
    "Name": "The Bank",
    "Address": "629 J St, Sacramento, CA 95814, USA",
    "City": "SF",
    "State": "CA",
    "latitude": 38.5816522,
    "longitude": -121.4976095,
    "Phone": "916-557-9910",
    "Website": "https://www.thebank629j.com/"
  },
  {
    "Teams": "ncaabariz;ncaafariz;ncaabbay;ncaafbay;ncaabbc;ncaafbc;ncaabcal;ncaafcal;ncaabgonz;ncaabmsu;ncaafmsu;ncaabmich;ncaafmich;ncaabnw;ncaafnw;ncaabou;ncaafou;ncaabokst;ncaafokst;nbasac;ncaabtcu;ncaaftcu;ncaabtex;ncaaftex;ncaabucla;ncaafucla;ncaabusc;ncaafusc;ncaabuva;ncaafuva;ncaabvt;ncaafvt;ncaabwsu;ncaafwsu;ncaabwis;ncaafwis",
    "Name": "Clubhouse 56",
    "Address": "723 56th St, Sacramento, CA 95819, USA",
    "City": "SF",
    "State": "CA",
    "latitude": 38.5679115,
    "longitude": -121.4334227,
    "Phone": "916-454-5656",
    "Website": "http://ch56sports.com/"
  },
  {
    "Teams": "ncaabaub;ncaafaub;ncaabnd;ncaafnd",
    "Name": "Pitch and Fiddle",
    "Address": "8704 La Riviera Dr, Sacramento, CA 95826, USA",
    "City": "SF",
    "State": "CA",
    "latitude": 38.562999,
    "longitude": -121.38011,
    "Phone": "916-573-4782",
    "Website": "http://www.pitchandfiddle.com/"
  },
  {
    "Teams": "nfloak;nbasac",
    "Name": "Republic Bar & Grill",
    "Address": "908 15th St, Sacramento, CA 95814, USA",
    "City": "SF",
    "State": "CA",
    "latitude": 38.5792796,
    "longitude": -121.4864982,
    "Phone": "916-822-5152",
    "Website": "http://www.republicsac.com/"
  },
  {
    "Teams": "nflsf",
    "Name": "Salinas Pizza & Pints",
    "Address": "156 E Laurel Dr, Salinas, CA 93906, USA",
    "City": "SF",
    "State": "CA",
    "latitude": 36.6979952,
    "longitude": -121.6489127,
    "Phone": "831-424-1911",
    "Website": "http://salinas-pizza-pints.cafes-usa.com/"
  },
  {
    "Teams": "nflsf",
    "Name": "Pizza Factory",
    "Address": "1945 Natividad Rd, Salinas, CA 93906, USA",
    "City": "SF",
    "State": "CA",
    "latitude": 36.7143839,
    "longitude": -121.6245216,
    "Phone": "831-444-0100",
    "Website": "http://pizzafactory.com/"
  },
  {
    "Teams": "nflsf",
    "Name": "BJ's Restaurant & Brewhouse",
    "Address": "1140 El Camino Real Suite 271, San Bruno, CA 94066, USA",
    "City": "SF",
    "State": "CA",
    "latitude": 37.6360627,
    "longitude": -122.4186398,
    "Phone": "650-243-4530",
    "Website": "https://www.bjsrestaurants.com/locations/ca/san-bruno"
  },
  {
    "Teams": "ncaabbama;ncaafbama;mlbbos;nbagsw;nflne;ncaabpit;ncaafpit",
    "Name": "Connecticut Yankee",
    "Address": "100 Connecticut St, San Francisco, CA 94107, USA",
    "City": "SF",
    "State": "CA",
    "latitude": 37.764953,
    "longitude": -122.39807,
    "Phone": "415-552-4440",
    "Website": "http://www.pourguys.com/connecticut-yankee/"
  },
  {
    "Teams": "ncaabcsu;ncaafcsu;nbagsw",
    "Name": "Harmonic Brewing",
    "Address": "1050 26th St, San Francisco, CA 94107, USA",
    "City": "SF",
    "State": "CA",
    "latitude": 37.7516236,
    "longitude": -122.3900315,
    "Phone": "415-872-6817",
    "Website": "http://www.harmonicbrewing.com/"
  },
  {
    "Teams": "nbagsw;ncaabmich;ncaafmich;ncaabstan;ncaafstan",
    "Name": "Trademark",
    "Address": "1123 Folsom St, San Francisco, CA 94103, USA",
    "City": "SF",
    "State": "CA",
    "latitude": 37.7760827,
    "longitude": -122.4083496,
    "Phone": "415-738-8838",
    "Website": "http://www.trademarksfc.com/"
  },
  {
    "Teams": "nbagsw;ncaabind;ncaafind",
    "Name": "Union Square Sports Bar",
    "Address": "115 Mason St, San Francisco, CA 94102, USA",
    "City": "SF",
    "State": "CA",
    "latitude": 37.7846095,
    "longitude": -122.4096074,
    "Phone": "415-345-8484",
    "Website": ""
  },
  {
    "Teams": "nbacle",
    "Name": "R Bar",
    "Address": "1176 Sutter St, San Francisco, CA 94109, USA",
    "City": "SF",
    "State": "CA",
    "latitude": 37.7880383,
    "longitude": -122.4198636,
    "Phone": "415-567-7441",
    "Website": "http://rbarsf.com/"
  },
  {
    "Teams": "ncaabusc;ncaafusc",
    "Name": "Mayes Oyster House",
    "Address": "1233 Polk St, San Francisco, CA 94109, USA",
    "City": "SF",
    "State": "CA",
    "latitude": 37.7883035,
    "longitude": -122.4204437,
    "Phone": "415-885-1233",
    "Website": "http://www.mayessf.com/"
  },
  {
    "Teams": "mlssj",
    "Name": "McTeague's Saloon",
    "Address": "1237 Polk St, San Francisco, CA 94109, USA",
    "City": "SF",
    "State": "CA",
    "latitude": 37.7883785,
    "longitude": -122.4204317,
    "Phone": "415-776-1237",
    "Website": "http://mcteaguessaloon.com/"
  },
  {
    "Teams": "ncaabark;ncaafark;nfldal;nfldet;ncaabuf;ncaafuf;nbagsw;ncaabgonz;mlbsf;ncaabtem;ncaaftem;ncaabutah;ncaafutah;ncaabvu;ncaabxu",
    "Name": "Pete's Tavern",
    "Address": "128 King St, San Francisco, CA 94107, USA",
    "City": "SF",
    "State": "CA",
    "latitude": 37.7795021,
    "longitude": -122.3907083,
    "Phone": "415-817-5040",
    "Website": "http://www.petestavernsf.com/"
  },
  {
    "Teams": "ncaabtenn;ncaaftenn",
    "Name": "Blooms Saloon",
    "Address": "1318 18th St, San Francisco, CA 94107, USA",
    "City": "SF",
    "State": "CA",
    "latitude": 37.7627985,
    "longitude": -122.3960369,
    "Phone": "415-552-6707",
    "Website": ""
  },
  {
    "Teams": "nbalal",
    "Name": "Zeki's Bar",
    "Address": "1319 California St, San Francisco, CA 94109, USA",
    "City": "SF",
    "State": "CA",
    "latitude": 37.7910333,
    "longitude": -122.4161345,
    "Phone": "415-928-0677",
    "Website": "http://www.zekisbar.com/"
  },
  {
    "Teams": "nbagsw;ncaabttu;ncaafttu",
    "Name": "Eddie Rickenbacker's",
    "Address": "133 2nd St, San Francisco, CA 94105, USA",
    "City": "SF",
    "State": "CA",
    "latitude": 37.7876139,
    "longitude": -122.3990969,
    "Phone": "415-800-6659",
    "Website": "http://www.eddierickssf.com/"
  },
  {
    "Teams": "nbagsw",
    "Name": "Tiki Haven",
    "Address": "1334 Noriega St, San Francisco, CA 94122, USA",
    "City": "SF",
    "State": "CA",
    "latitude": 37.7544168,
    "longitude": -122.478208,
    "Phone": "415-731-3757",
    "Website": "http://www.tikihavensf.com/"
  },
  {
    "Teams": "nhlbos;nbabos;ncaabcolo;ncaafcolo;nflne;ncaabmiss;ncaafmiss",
    "Name": "Tupelo",
    "Address": "1337 Grant Ave, San Francisco, CA 94133, USA",
    "City": "SF",
    "State": "CA",
    "latitude": 37.7992702,
    "longitude": -122.4075249,
    "Phone": "415-981-9177",
    "Website": "http://tupelosf.com/"
  },
  {
    "Teams": "nbagsw",
    "Name": "The Corner Spot",
    "Address": "1368 Irving St, San Francisco, CA 94122, USA",
    "City": "SF",
    "State": "CA",
    "latitude": 37.7639853,
    "longitude": -122.4726867,
    "Phone": "415-742-5572",
    "Website": "https://www.facebook.com/SFTheCornerSpot"
  },
  {
    "Teams": "nflnyj;ncaabore;ncaafore",
    "Name": "The Wreck Room",
    "Address": "1390 California St, San Francisco, CA 94109, USA",
    "City": "SF",
    "State": "CA",
    "latitude": 37.7912488,
    "longitude": -122.4172264,
    "Phone": "415-932-6715",
    "Website": "http://www.thewreckroomsf.com/"
  },
  {
    "Teams": "nflno",
    "Name": "Black Magic Voodoo Lounge",
    "Address": "1400 Lombard St, San Francisco, CA 94123, USA",
    "City": "SF",
    "State": "CA",
    "latitude": 37.8014415,
    "longitude": -122.4248325,
    "Phone": "415-931-8711",
    "Website": ""
  },
  {
    "Teams": "nbagsw;mlbsf;nhlsjs",
    "Name": "Steffs",
    "Address": "141 2nd St, San Francisco, CA 94105, USA",
    "City": "SF",
    "State": "CA",
    "latitude": 37.7876059,
    "longitude": -122.3989719,
    "Phone": "415-777-1844",
    "Website": ""
  },
  {
    "Teams": "ncaabapp;ncaafapp",
    "Name": "Hazel Southern Bar & Kitchen",
    "Address": "1446 Market St, San Francisco, CA 94102, USA",
    "City": "SF",
    "State": "CA",
    "latitude": 37.776156,
    "longitude": -122.418641,
    "Phone": "415-964-9644",
    "Website": "http://hazelsf.com/"
  },
  {
    "Teams": "ncaabaub;ncaafaub",
    "Name": "Nick's Crispy Tacos",
    "Address": "1500 Broadway, San Francisco, CA 94109, USA",
    "City": "SF",
    "State": "CA",
    "latitude": 37.7962105,
    "longitude": -122.4221262,
    "Phone": "415-409-8226",
    "Website": "http://www.nickscrispytacos.com/"
  },
  {
    "Teams": "nflbuf;ncaabbuff;ncaafbuff;ncaablsu;ncaaflsu;ncaabnavy;ncaafnavy;nflphi;ncaabsmu;ncaafsmu",
    "Name": "NorthStar Cafe",
    "Address": "1560 Powell St, San Francisco, CA 94133, USA",
    "City": "SF",
    "State": "CA",
    "latitude": 37.7992152,
    "longitude": -122.410405,
    "Phone": "415-397-0577",
    "Website": ""
  },
  {
    "Teams": "nflchi;nhlchi;mlbchc;nbagsw",
    "Name": "The BAR ��� on Dolores",
    "Address": "1600 Dolores St, San Francisco, CA 94110, USA",
    "City": "SF",
    "State": "CA",
    "latitude": 37.7437303,
    "longitude": -122.4246468,
    "Phone": "415-695-1745",
    "Website": "http://www.thebarondolores.com/"
  },
  {
    "Teams": "ncaabcin;ncaafcin;ncaabcle;ncaafcle;nbagsw;ncaabisu;ncaafisu;ncaabumd;ncaafumd;ncaabmiss;ncaafmiss;ncaabtcu;ncaaftcu;ncaabvu",
    "Name": "The Boardroom",
    "Address": "1600 Powell St, San Francisco, CA 94133, USA",
    "City": "SF",
    "State": "CA",
    "latitude": 37.7994286,
    "longitude": -122.4105541,
    "Phone": "415-982-8898",
    "Website": "http://www.boardroomsf.com/"
  },
  {
    "Teams": "nbagsw",
    "Name": "The Ave Bar",
    "Address": "1607 Ocean Ave, San Francisco, CA 94112, USA",
    "City": "SF",
    "State": "CA",
    "latitude": 37.7244216,
    "longitude": -122.4594669,
    "Phone": "415-587-6645",
    "Website": "http://www.theavebar.com/"
  },
  {
    "Teams": "nbagsw;ncaablou;ncaaflou;ncaabmia;ncaafmia;ncaabnev;ncaafnev;mlboak;nflsf;mlbsf;nhlsjs;ncaabstan;ncaafstan;ncaabtuln;ncaaftuln;ncaabwvu;ncaafwvu",
    "Name": "The San Francisco Athletic Club",
    "Address": "1750 Divisadero St, San Francisco, CA 94115, USA",
    "City": "SF",
    "State": "CA",
    "latitude": 37.7860795,
    "longitude": -122.4398341,
    "Phone": "415-923-8989",
    "Website": "http://www.thesfac.com/"
  },
  {
    "Teams": "nbagsw;nflhou",
    "Name": "Cabin",
    "Address": "1750 Polk St, San Francisco, CA 94109, USA",
    "City": "SF",
    "State": "CA",
    "latitude": 37.7930671,
    "longitude": -122.4210433,
    "Phone": "415-549-7111",
    "Website": "http://www.cabinsf.com/"
  },
  {
    "Teams": "nbagsw",
    "Name": "Barrel Head Brewhouse",
    "Address": "1785 Fulton St, San Francisco, CA 94117, USA",
    "City": "SF",
    "State": "CA",
    "latitude": 37.7757115,
    "longitude": -122.4460537,
    "Phone": "415-416-6989",
    "Website": "http://www.barrelheadsf.com/"
  },
  {
    "Teams": "nbagsw;ncaabmich;ncaafmich;mlbsf",
    "Name": "The Taco Shop at Underdogs",
    "Address": "1824 Irving St, San Francisco, CA 94122, USA",
    "City": "SF",
    "State": "CA",
    "latitude": 37.7636886,
    "longitude": -122.4776562,
    "Phone": "415-566-8700",
    "Website": "http://tacoshopsf.com/"
  },
  {
    "Teams": "nbagsw",
    "Name": "Chug Pub",
    "Address": "1849 Lincoln Way, San Francisco, CA 94122, USA",
    "City": "SF",
    "State": "CA",
    "latitude": 37.7652484,
    "longitude": -122.4782002,
    "Phone": "415-242-9930",
    "Website": "http://chugpub.com/"
  },
  {
    "Teams": "nbagsw",
    "Name": "Pa'ina Restaurant & Lounge",
    "Address": "1865 Post St, San Francisco, CA 94115, USA",
    "City": "SF",
    "State": "CA",
    "latitude": 37.785132,
    "longitude": -122.432371,
    "Phone": "415-829-2642",
    "Website": "http://www.painasf.com/"
  },
  {
    "Teams": "nflmin",
    "Name": "Bell Tower",
    "Address": "1900 Polk St, San Francisco, CA 94109, USA",
    "City": "SF",
    "State": "CA",
    "latitude": 37.7943219,
    "longitude": -122.4212581,
    "Phone": "415-567-9596",
    "Website": "http://places.singleplatform.com/the-bell-tower/menu"
  },
  {
    "Teams": "nflcin;nfldal;ncaabuga;ncaafuga;nflind;ncaabpur;ncaafpur;ncaabucla;ncaafucla;ncaabvan;ncaafvan;ncaabvt;ncaafvt",
    "Name": "Bus Stop",
    "Address": "1901 Union St, San Francisco, CA 94123, USA",
    "City": "SF",
    "State": "CA",
    "latitude": 37.7976027,
    "longitude": -122.4306951,
    "Phone": "415-567-6905",
    "Website": "http://www.busstop-sf.com/"
  },
  {
    "Teams": "nbagsw",
    "Name": "Parkside Tavern",
    "Address": "1940 Taraval St, San Francisco, CA 94116, USA",
    "City": "SF",
    "State": "CA",
    "latitude": 37.7426841,
    "longitude": -122.487153,
    "Phone": "415-731-8900",
    "Website": "http://www.parksidetavernsf.com/"
  },
  {
    "Teams": "ncaabbama;ncaafbama;ncaabgt;ncaafgt;nflmia;ncaabmich;ncaafmich;ncaabstan;ncaafstan;ncaabsyr;ncaafsyr;ncaabucf;ncaafucf;ncaabuva;ncaafuva",
    "Name": "The Blue Light",
    "Address": "1979 Union St, San Francisco, CA 94123, USA",
    "City": "SF",
    "State": "CA",
    "latitude": 37.7973926,
    "longitude": -122.4317439,
    "Phone": "415-922-5510",
    "Website": "http://www.bluelightsf.com/"
  },
  {
    "Teams": "nbagsw",
    "Name": "The Ch�_efta�_n Authent�_c Ir�_sh Pub & Restaurant",
    "Address": "198 5th St, San Francisco, CA 94103, USA",
    "City": "SF",
    "State": "CA",
    "latitude": 37.7814644,
    "longitude": -122.4052868,
    "Phone": "415-625-0436",
    "Website": "http://thechieftain.com/"
  },
  {
    "Teams": "ncaabasu;ncaafasu;mlbsf;ncaabwake;ncaafwake",
    "Name": "Silver Cloud Restaurant & Karaoke Bar",
    "Address": "1994 Lombard St, San Francisco, CA 94123, USA",
    "City": "SF",
    "State": "CA",
    "latitude": 37.8002203,
    "longitude": -122.4342895,
    "Phone": "415-922-1977",
    "Website": "http://silvercloudsf.com/"
  },
  {
    "Teams": "ncaabfsu;ncaaffsu;nbagsw;ncaabku;ncaafku;nhlwsh",
    "Name": "Patriot House Pub",
    "Address": "2 Embarcadero Center 3rd floor, San Francisco, CA 94111, USA",
    "City": "SF",
    "State": "CA",
    "latitude": 37.7949674,
    "longitude": -122.3989043,
    "Phone": "415-986-0797",
    "Website": "http://www.patriothousepub.com/"
  },
  {
    "Teams": "ncaabbc;ncaafbc;ncaabou;ncaafou;ncaabsdsu;ncaafsdsu;mlbsf",
    "Name": "Shanghai Kelly's",
    "Address": "2064 Polk St, San Francisco, CA 94109, USA",
    "City": "SF",
    "State": "CA",
    "latitude": 37.7958531,
    "longitude": -122.4216,
    "Phone": "415-771-3300",
    "Website": ""
  },
  {
    "Teams": "nbagsw;ncaabnw;ncaafnw",
    "Name": "House Rules",
    "Address": "2227 Polk St, San Francisco, CA 94109, USA",
    "City": "SF",
    "State": "CA",
    "latitude": 37.7972649,
    "longitude": -122.4222637,
    "Phone": "415-722-9109",
    "Website": "http://www.houserulessf.com/"
  },
  {
    "Teams": "nflcar;nbagsw;ncaabind;ncaafind;ncaabmsu;ncaafmsu;ncaabmiz;ncaafmiz;mlboak;mlbsf",
    "Name": "Greens Sports Bar",
    "Address": "2239 Polk St, San Francisco, CA 94109, USA",
    "City": "SF",
    "State": "CA",
    "latitude": 37.7975649,
    "longitude": -122.42239,
    "Phone": "415-775-4287",
    "Website": ""
  },
  {
    "Teams": "nbagsw",
    "Name": "Campus",
    "Address": "2241 Chestnut St, San Francisco, CA 94123, USA",
    "City": "SF",
    "State": "CA",
    "latitude": 37.8001603,
    "longitude": -122.440202,
    "Phone": "415-722-9109",
    "Website": ""
  },
  {
    "Teams": "nbagsw",
    "Name": "Hi Tops",
    "Address": "2247 Market St, San Francisco, CA 94114, USA",
    "City": "SF",
    "State": "CA",
    "latitude": 37.7649114,
    "longitude": -122.4316669,
    "Phone": "415-551-2500",
    "Website": "http://www.hitopssf.com/"
  },
  {
    "Teams": "nbagsw",
    "Name": "The Sea Star",
    "Address": "2289 3rd St, San Francisco, CA 94107, USA",
    "City": "SF",
    "State": "CA",
    "latitude": 37.7607375,
    "longitude": -122.3883525,
    "Phone": "415-552-5330",
    "Website": "https://www.theseastarsf.com/"
  },
  {
    "Teams": "ncaabosu;ncaafosu",
    "Name": "Teeth",
    "Address": "2323 Mission St, San Francisco, CA 94110, USA",
    "City": "SF",
    "State": "CA",
    "latitude": 37.7598602,
    "longitude": -122.4190055,
    "Phone": "415-285-2380",
    "Website": "http://teethbarsf.com/"
  },
  {
    "Teams": "ncaabgt;ncaafgt;ncaabmich;ncaafmich",
    "Name": "Barrel Proof",
    "Address": "2331 Mission St, San Francisco, CA 94110, USA",
    "City": "SF",
    "State": "CA",
    "latitude": 37.7597051,
    "longitude": -122.4188878,
    "Phone": "415-932-6132",
    "Website": "http://www.barrelproofsf.com/"
  },
  {
    "Teams": "nbagsw;mlbsf",
    "Name": "Public House",
    "Address": "24 Willie Mays Plaza, San Francisco, CA 94107, USA",
    "City": "SF",
    "State": "CA",
    "latitude": 37.7779162,
    "longitude": -122.3910323,
    "Phone": "415-644-0240",
    "Website": "http://www.publichousesf.com/"
  },
  {
    "Teams": "nbagsw;mlboak;mlbsf;nhlsjs",
    "Name": "Schroeder's",
    "Address": "240 Front St, San Francisco, CA 94111, USA",
    "City": "SF",
    "State": "CA",
    "latitude": 37.7939392,
    "longitude": -122.3987702,
    "Phone": "415-421-4778",
    "Website": "http://www.schroederssf.com/"
  },
  {
    "Teams": "mlbsf",
    "Name": "Double Play bar and grill",
    "Address": "2401 16th St, San Francisco, CA 94103, USA",
    "City": "SF",
    "State": "CA",
    "latitude": 37.7653592,
    "longitude": -122.4106189,
    "Phone": "415-621-9859",
    "Website": "http://www.doubleplay.co/"
  },
  {
    "Teams": "nbagsw;ncaabore;ncaafore",
    "Name": "Bartlett Hall",
    "Address": "242 O'Farrell St, San Francisco, CA 94102, USA",
    "City": "SF",
    "State": "CA",
    "latitude": 37.786595,
    "longitude": -122.408809,
    "Phone": "415-433-4332",
    "Website": "http://bartletthall.com/"
  },
  {
    "Teams": "nbagsw",
    "Name": "Fire Fly Sports Bar",
    "Address": "2457 Noriega St, San Francisco, CA 94122, USA",
    "City": "SF",
    "State": "CA",
    "latitude": 37.7534097,
    "longitude": -122.4902513,
    "Phone": "415-682-8877",
    "Website": ""
  },
  {
    "Teams": "ncaabill;ncaafill",
    "Name": "3rd Street Tap Room",
    "Address": "251 3rd St, San Francisco, CA 94103, USA",
    "City": "SF",
    "State": "CA",
    "latitude": 37.7846834,
    "longitude": -122.3996684,
    "Phone": "415-757-0285",
    "Website": "http://www.facebook.com/3rdstreettaproom"
  },
  {
    "Teams": "nbagsw",
    "Name": "Hockey Haven",
    "Address": "2603, 3625 Balboa St, San Francisco, CA 94121, USA",
    "City": "SF",
    "State": "CA",
    "latitude": 37.7755787,
    "longitude": -122.4978124,
    "Phone": "415-752-4413",
    "Website": ""
  },
  {
    "Teams": "nbagsw",
    "Name": "Glen Park Station",
    "Address": "2816 Diamond St, San Francisco, CA 94131, USA",
    "City": "SF",
    "State": "CA",
    "latitude": 37.7341845,
    "longitude": -122.4341597,
    "Phone": "415-333-4633",
    "Website": ""
  },
  {
    "Teams": "ncaabcu;nbagsw;ncaabiowa;ncaafiowa;ncaabminn;ncaafminn;ncaabneb;ncaafneb;ncaabvu",
    "Name": "Final Final",
    "Address": "2990 Baker St, San Francisco, CA 94123, USA",
    "City": "SF",
    "State": "CA",
    "latitude": 37.7985426,
    "longitude": -122.4458232,
    "Phone": "415-931-7800",
    "Website": "http://finalfinalbar.com/"
  },
  {
    "Teams": "ncaabttu;ncaafttu",
    "Name": "Mauna Loa Club",
    "Address": "3009 Fillmore St, San Francisco, CA 94123, USA",
    "City": "SF",
    "State": "CA",
    "latitude": 37.7973142,
    "longitude": -122.4357175,
    "Phone": "415-563-5137",
    "Website": ""
  },
  {
    "Teams": "nbagsw;mlboak;mlbsf;ncaabvu;ncaabuva;ncaafuva",
    "Name": "Royal Exchange",
    "Address": "301 Sacramento St, San Francisco, CA 94111, USA",
    "City": "SF",
    "State": "CA",
    "latitude": 37.7941424,
    "longitude": -122.3992059,
    "Phone": "415-956-1710",
    "Website": "http://www.royalexchange.com/"
  },
  {
    "Teams": "nbagsw;mlspor",
    "Name": "Big Rec Taproom",
    "Address": "3066 24th St, San Francisco, CA 94133, USA",
    "City": "SF",
    "State": "CA",
    "latitude": 37.752677,
    "longitude": -122.413437,
    "Phone": "415-796-3676",
    "Website": "http://bigrectaproom.com/"
  },
  {
    "Teams": "nbagsw;ncaabpit;ncaafpit;nhlpit;nflpit;ncaabsc;ncaafsc",
    "Name": "Giordano Bros.",
    "Address": "3108 16th St, San Francisco, CA 94103, USA",
    "City": "SF",
    "State": "CA",
    "latitude": 37.7650551,
    "longitude": -122.4223095,
    "Phone": "415-437-2767",
    "Website": "http://www.giordanobros.com/"
  },
  {
    "Teams": "nbagsw;ncaabiowa;ncaafiowa",
    "Name": "Ted's Sports Bar & Grill",
    "Address": "312 Harriet St, San Francisco, CA 94103, USA",
    "City": "SF",
    "State": "CA",
    "latitude": 37.7752597,
    "longitude": -122.4029322,
    "Phone": "415-861-2811",
    "Website": ""
  },
  {
    "Teams": "nbagsw",
    "Name": "Baby Blues BBQ",
    "Address": "3149 Mission St, San Francisco, CA 94110, USA",
    "City": "SF",
    "State": "CA",
    "latitude": 37.746883,
    "longitude": -122.4188691,
    "Phone": "415-896-4250",
    "Website": "http://babybluesbbq.com/"
  },
  {
    "Teams": "ncaabttu;ncaafttu",
    "Name": "San Francisco Brewing Co.",
    "Address": "3150 Polk St, San Francisco, CA 94109, USA",
    "City": "SF",
    "State": "CA",
    "latitude": 37.8058697,
    "longitude": -122.4230558,
    "Phone": "415-484-2337",
    "Website": "http://www.sfbrewingco.com/"
  },
  {
    "Teams": "ncaaborst;ncaaforst",
    "Name": "Elixir",
    "Address": "3200 16th St, San Francisco, CA 94103, USA",
    "City": "SF",
    "State": "CA",
    "latitude": 37.764903,
    "longitude": -122.4243006,
    "Phone": "415-552-1633",
    "Website": "http://www.elixirsf.com/"
  },
  {
    "Teams": "ncaabfsu;ncaaffsu;nbagsw;ncaabpur;ncaafpur",
    "Name": "The Napper Tandy",
    "Address": "3200 24th St, San Francisco, CA 94110, USA",
    "City": "SF",
    "State": "CA",
    "latitude": 37.7524975,
    "longitude": -122.4165414,
    "Phone": "415-550-7510",
    "Website": "https://www.thenappertandysf.com/"
  },
  {
    "Teams": "ncaabtex;ncaaftex",
    "Name": "Jaxson",
    "Address": "3231 Fillmore St, San Francisco, CA 94123, USA",
    "City": "SF",
    "State": "CA",
    "latitude": 37.7994788,
    "longitude": -122.4362177,
    "Phone": "415-335-6282",
    "Website": "http://www.jaxsonsf.com/"
  },
  {
    "Teams": "nflchi;nhlchi;mlbchc;ncaabind;ncaafind;ncaabpsu;ncaafpsu;ncaabtamu;ncaaftamu",
    "Name": "Monaghan's Bar",
    "Address": "3243 Pierce St, San Francisco, CA 94123, USA",
    "City": "SF",
    "State": "CA",
    "latitude": 37.80005,
    "longitude": -122.439695,
    "Phone": "415-872-7916",
    "Website": ""
  },
  {
    "Teams": "nflphi;mlbphi",
    "Name": "Jake's Steaks",
    "Address": "3301 Buchanan St, San Francisco, CA 94123, USA",
    "City": "SF",
    "State": "CA",
    "latitude": 37.800613,
    "longitude": -122.432967,
    "Phone": "415-922-2211",
    "Website": "http://www.jakessteaks.net/"
  },
  {
    "Teams": "nbagsw;nflkc;mlboak;ncaabutah;ncaafutah;ncaabwvu;ncaafwvu",
    "Name": "BuzzWorks",
    "Address": "365 11th St, San Francisco, CA 94103, USA",
    "City": "SF",
    "State": "CA",
    "latitude": 37.771318,
    "longitude": -122.412902,
    "Phone": "415-558-1533",
    "Website": "http://www.sfbuzzworks.com/"
  },
  {
    "Teams": "nbagsw",
    "Name": "The Dubliner",
    "Address": "3838 24th St, San Francisco, CA 94114, USA",
    "City": "SF",
    "State": "CA",
    "latitude": 37.751746,
    "longitude": -122.428342,
    "Phone": "415-826-2279",
    "Website": "http://www.dublinerbarsf.com/"
  },
  {
    "Teams": "nbagsw;mlblad",
    "Name": "Rumors",
    "Address": "398 7th St, San Francisco, CA 94103, USA",
    "City": "SF",
    "State": "CA",
    "latitude": 37.7754916,
    "longitude": -122.406591,
    "Phone": "415-553-6169",
    "Website": "http://www.rumorssf.com/"
  },
  {
    "Teams": "nbagsw;ncaabpur;ncaafpur",
    "Name": "Valley Tavern",
    "Address": "4054 24th St, San Francisco, CA 94114, USA",
    "City": "SF",
    "State": "CA",
    "latitude": 37.7514932,
    "longitude": -122.4331805,
    "Phone": "415-285-0674",
    "Website": "http://www.valleytavern.com/"
  },
  {
    "Teams": "ncaabuconn;ncaafuconn;nbagsw;ncaabuw;ncaafuw;ncaabwis;ncaafwis",
    "Name": "Dobbs Ferry Bar",
    "Address": "406 Hayes St, San Francisco, CA 94102, USA",
    "City": "SF",
    "State": "CA",
    "latitude": 37.7770464,
    "longitude": -122.4232683,
    "Phone": "415-857-6791",
    "Website": "http://www.dobbsferrysf.com/dobbs-bar/"
  },
  {
    "Teams": "nbagsw",
    "Name": "The Abbey Tavern",
    "Address": "4100 Geary Blvd, San Francisco, CA 94118, USA",
    "City": "SF",
    "State": "CA",
    "latitude": 37.7812691,
    "longitude": -122.4633654,
    "Phone": "415-221-7767",
    "Website": "http://www.abbeytavern-sf.com/"
  },
  {
    "Teams": "nbagsw;nflsf",
    "Name": "SoMa StrEat Food Park",
    "Address": "428 11th St, San Francisco, CA 94103, USA",
    "City": "SF",
    "State": "CA",
    "latitude": 37.7697686,
    "longitude": -122.4120492,
    "Phone": "",
    "Website": "http://www.somastreatfoodpark.com/"
  },
  {
    "Teams": "mlblad",
    "Name": "Flying Pig Bistro Pub",
    "Address": "433 S Van Ness Ave, San Francisco, CA 94103, USA",
    "City": "SF",
    "State": "CA",
    "latitude": 37.7662846,
    "longitude": -122.4174305,
    "Phone": "415-934-1234",
    "Website": "http://www.flyingpigbistropub.com/"
  },
  {
    "Teams": "nbagsw",
    "Name": "Rocks Den",
    "Address": "4431 Mission St, San Francisco, CA 94112, USA",
    "City": "SF",
    "State": "CA",
    "latitude": 37.727187,
    "longitude": -122.432629,
    "Phone": "415-769-5100",
    "Website": "http://www.rocksden.com/"
  },
  {
    "Teams": "nbagsw;ncaabpur;ncaafpur;nflsf;nhlsjs;ncaabusc;ncaafusc",
    "Name": "Golden Gate Tap Room",
    "Address": "449 Powell St, San Francisco, CA 94108, USA",
    "City": "SF",
    "State": "CA",
    "latitude": 37.7889748,
    "longitude": -122.4086776,
    "Phone": "415-677-9999",
    "Website": "http://www.ggtaproom.com/"
  },
  {
    "Teams": "nbagsw",
    "Name": "McCarthy's",
    "Address": "46 W Portal Ave, San Francisco, CA 94127, USA",
    "City": "SF",
    "State": "CA",
    "latitude": 37.7403747,
    "longitude": -122.466518,
    "Phone": "415-564-1412",
    "Website": ""
  },
  {
    "Teams": "nflden;nbagsw",
    "Name": "Nickies",
    "Address": "466 Haight St, San Francisco, CA 94117, USA",
    "City": "SF",
    "State": "CA",
    "latitude": 37.7723603,
    "longitude": -122.4298578,
    "Phone": "415-255-0300",
    "Website": "http://www.nickies.com/"
  },
  {
    "Teams": "nflbal",
    "Name": "Thieves Tavern",
    "Address": "496 14th St, San Francisco, CA 94103, USA",
    "City": "SF",
    "State": "CA",
    "latitude": 37.7681288,
    "longitude": -122.4241735,
    "Phone": "415-252-9082",
    "Website": "https://www.facebook.com/pages/Thieves-Tavern/107434495960019"
  },
  {
    "Teams": "nbagsw",
    "Name": "Score Bar and Lounge",
    "Address": "498 Broadway, San Francisco, CA 94133, USA",
    "City": "SF",
    "State": "CA",
    "latitude": 37.7982708,
    "longitude": -122.4052423,
    "Phone": "415-992-2790",
    "Website": ""
  },
  {
    "Teams": "nbagsw;ncaabnd;ncaafnd",
    "Name": "Irish Times",
    "Address": "500 Sacramento St, San Francisco, CA 94111, USA",
    "City": "SF",
    "State": "CA",
    "latitude": 37.794076,
    "longitude": -122.401669,
    "Phone": "415-217-5060",
    "Website": "http://www.sfirishtimes.com/"
  },
  {
    "Teams": "ncaabpur;ncaafpur",
    "Name": "Mad Dog in the Fog",
    "Address": "530 Haight St, San Francisco, CA 94117, USA",
    "City": "SF",
    "State": "CA",
    "latitude": 37.7721618,
    "longitude": -122.431029,
    "Phone": "415-626-7279",
    "Website": "https://www.maddoginthefog.com/"
  },
  {
    "Teams": "nbagsw",
    "Name": "Brick & Beam",
    "Address": "555 North Point St, San Francisco, CA 94133, USA",
    "City": "SF",
    "State": "CA",
    "latitude": 37.8061217,
    "longitude": -122.4163727,
    "Phone": "415-202-3612",
    "Website": "http://fishermanswharf.hyatt.com/hyatt/hotels/entertainment/restaurants/index.jsp#200008"
  },
  {
    "Teams": "nbagsw;ncaabmich;ncaafmich",
    "Name": "The Blarney Stone Bar",
    "Address": "5625 Geary Blvd, San Francisco, CA 94121, USA",
    "City": "SF",
    "State": "CA",
    "latitude": 37.7800803,
    "longitude": -122.4799507,
    "Phone": "415-386-9914",
    "Website": "https://m.facebook.com/blarney.sf"
  },
  {
    "Teams": "nbagsw",
    "Name": "Pete's",
    "Address": "570 Green St, San Francisco, CA 94133, USA",
    "City": "SF",
    "State": "CA",
    "latitude": 37.7997712,
    "longitude": -122.408554,
    "Phone": "415-398-2551",
    "Website": "http://petesongreen.com/"
  },
  {
    "Teams": "nbagsw;ncaabuk;ncaafuk;nflsf;mlbsf;ncaabuw;ncaafuw",
    "Name": "Local Tap",
    "Address": "600 3rd St, San Francisco, CA 94107, USA",
    "City": "SF",
    "State": "CA",
    "latitude": 37.779825,
    "longitude": -122.394356,
    "Phone": "415-814-2257",
    "Website": "http://localtapsf.com/"
  },
  {
    "Teams": "nbagsw",
    "Name": "Spark Social SF",
    "Address": "601 Mission Bay Boulevard North, San Francisco, CA 94158, USA",
    "City": "SF",
    "State": "CA",
    "latitude": 37.7707567,
    "longitude": -122.3917062,
    "Phone": "",
    "Website": "http://sparksocialsf.com/"
  },
  {
    "Teams": "nbagsw;ncaabrutg;ncaafrutg",
    "Name": "Chief Sullivan's",
    "Address": "622 Green St, San Francisco, CA 94133, USA",
    "City": "SF",
    "State": "CA",
    "latitude": 37.799561,
    "longitude": -122.409674,
    "Phone": "415-722-9109",
    "Website": "http://www.chiefsullivanssf.com/"
  },
  {
    "Teams": "nbagsw;ncaabksu;ncaafksu",
    "Name": "Richmond Republic Draught House",
    "Address": "642 Clement St, San Francisco, CA 94118, USA",
    "City": "SF",
    "State": "CA",
    "latitude": 37.7830947,
    "longitude": -122.4662397,
    "Phone": "415-702-6069",
    "Website": "http://www.richmondrepublicsf.com/"
  },
  {
    "Teams": "nbagsw;ncaabumass;ncaafumass",
    "Name": "ThirstyBear Brewing Company",
    "Address": "661 Howard St, San Francisco, CA 94105, USA",
    "City": "SF",
    "State": "CA",
    "latitude": 37.7853454,
    "longitude": -122.3995264,
    "Phone": "415-974-0905",
    "Website": "http://www.thirstybear.com/"
  },
  {
    "Teams": "nbagsw;nfllac;ncaabnc;ncaafnc;mlssj;mlssea",
    "Name": "Danny Coyle's",
    "Address": "668 Haight St, San Francisco, CA 94117, USA",
    "City": "SF",
    "State": "CA",
    "latitude": 37.771859,
    "longitude": -122.4332758,
    "Phone": "415-558-8375",
    "Website": "http://www.dannycoyles.com/"
  },
  {
    "Teams": "nbagsw;ncaabgonz",
    "Name": "Hardwood Bar & Smokery",
    "Address": "680 8th St Ste. 170, San Francisco, CA 94103, USA",
    "City": "SF",
    "State": "CA",
    "latitude": 37.7705385,
    "longitude": -122.4050036,
    "Phone": "415-796-2437",
    "Website": "http://hardwoodsf.com/"
  },
  {
    "Teams": "nbagsw",
    "Name": "STEINS",
    "Address": "731 Clement St, San Francisco, CA 94118, USA",
    "City": "SF",
    "State": "CA",
    "latitude": 37.7827187,
    "longitude": -122.4671973,
    "Phone": "415-221-3888",
    "Website": ""
  },
  {
    "Teams": "ncaabku;ncaafku",
    "Name": "Yancy's Saloon",
    "Address": "734 Irving St, San Francisco, CA 94122, USA",
    "City": "SF",
    "State": "CA",
    "latitude": 37.764243,
    "longitude": -122.465875,
    "Phone": "415-665-6551",
    "Website": ""
  },
  {
    "Teams": "nbagsw",
    "Name": "The Lister Bar",
    "Address": "77 Cambon Dr, San Francisco, CA 94132, USA",
    "City": "SF",
    "State": "CA",
    "latitude": 37.7175999,
    "longitude": -122.4736277,
    "Phone": "415-584-4445",
    "Website": "http://thelisterbar.com/"
  },
  {
    "Teams": "nbagsw;ncaabmu;nflphi;nflsf;nhlsjs",
    "Name": "The Kezar Pub",
    "Address": "770 Stanyan St, San Francisco, CA 94117, USA",
    "City": "SF",
    "State": "CA",
    "latitude": 37.7678671,
    "longitude": -122.4531134,
    "Phone": "415-386-9292",
    "Website": "https://kezar.pub/"
  },
  {
    "Teams": "nbagsw",
    "Name": "The Chapel",
    "Address": "777 Valencia St, San Francisco, CA 94110, USA",
    "City": "SF",
    "State": "CA",
    "latitude": 37.760512,
    "longitude": -122.4212468,
    "Phone": "415-551-5157",
    "Website": "http://www.thechapelsf.com/"
  },
  {
    "Teams": "ncaabcal;ncaafcal;ncaabuf;ncaafuf;ncaabshu",
    "Name": "The Brew Coop",
    "Address": "819 Valencia St, San Francisco, CA 94110, USA",
    "City": "SF",
    "State": "CA",
    "latitude": 37.75976,
    "longitude": -122.4211721,
    "Phone": "",
    "Website": "http://www.thebrewcoop.com/"
  },
  {
    "Teams": "nhlsjs",
    "Name": "Philospher's Club",
    "Address": "824 Ulloa St, San Francisco, CA 94127, USA",
    "City": "SF",
    "State": "CA",
    "latitude": 37.7409035,
    "longitude": -122.4653686,
    "Phone": "415-753-0599",
    "Website": "https://m.facebook.com/Philosophers-Club-"
  },
  {
    "Teams": "nbagsw",
    "Name": "Blackthorn",
    "Address": "834 Irving St, San Francisco, CA 94122, USA",
    "City": "SF",
    "State": "CA",
    "latitude": 37.7641355,
    "longitude": -122.4670389,
    "Phone": "415-564-6626",
    "Website": "http://www.blackthornsf.com/"
  },
  {
    "Teams": "ncaabku;ncaafku",
    "Name": "The Pub",
    "Address": "851 Beach St, San Francisco, CA 94109, USA",
    "City": "SF",
    "State": "CA",
    "latitude": 37.8062216,
    "longitude": -122.4227688,
    "Phone": "415-351-0500",
    "Website": "http://www.thepubsf.com/"
  },
  {
    "Teams": "ncaabbay;ncaafbay;nflgb;ncaabwsu;ncaafwsu;ncaabwis;ncaafwis",
    "Name": "Hara Club",
    "Address": "875 Geary St, San Francisco, CA 94109, USA",
    "City": "SF",
    "State": "CA",
    "latitude": 37.785953,
    "longitude": -122.417622,
    "Phone": "415-673-3148",
    "Website": "http://www.harasf.com/"
  },
  {
    "Teams": "nflnyg;nhlnyi;nbanyk;mlbnym;nhlnyr;mlbnyy;ncaabniu;ncaafniu;mlbsf;ncaabwis;ncaafwis",
    "Name": "Ace's",
    "Address": "998 Sutter St, San Francisco, CA 94109, USA",
    "City": "SF",
    "State": "CA",
    "latitude": 37.7882824,
    "longitude": -122.416572,
    "Phone": "415-673-0644",
    "Website": "http://www.acesbarsf.com/"
  },
  {
    "Teams": "nflsf",
    "Name": "5th Quarter Sports Bar & Grill",
    "Address": "1373 Kooser Rd, San Jose, CA 95118, USA",
    "City": "SF",
    "State": "CA",
    "latitude": 37.246507,
    "longitude": -121.889021,
    "Phone": "408-265-7033",
    "Website": "http://s172518151.onlinehome.us/5thquarter/site/"
  },
  {
    "Teams": "ncaabfsu;ncaaffsu",
    "Name": "Bibo's NY Pizza",
    "Address": "1431 Bird Ave, San Jose, CA 95125, USA",
    "City": "SF",
    "State": "CA",
    "latitude": 37.306478,
    "longitude": -121.8917274,
    "Phone": "408-217-9084",
    "Website": "http://www.bibosnypizza.com/"
  },
  {
    "Teams": "ncaabbsu;ncaafbsu;nflcin;ncaabcsu;ncaafcsu;mlblad;ncaablsu;ncaaflsu;ncaabsjsu;ncaafsjsu;ncaabwvu;ncaafwvu",
    "Name": "4th St Pizza Co",
    "Address": "150 E Santa Clara St, San Jose, CA 95113, USA",
    "City": "SF",
    "State": "CA",
    "latitude": 37.3374315,
    "longitude": -121.8874851,
    "Phone": "408-286-7500",
    "Website": "http://4thstpizzaco.com/"
  },
  {
    "Teams": "nhlbos;nhlnsh;nhlpit;nhlsjs;ncaabsjsu;ncaafsjsu;nhltbl;nhlwsh;nhlwpg",
    "Name": "Stanley's Sports Bar",
    "Address": "1500 S 10th St, San Jose, CA 95112, USA",
    "City": "SF",
    "State": "CA",
    "latitude": 37.3197173,
    "longitude": -121.8643293,
    "Phone": "408-999-6718",
    "Website": "http://sharks.nhl.com/club/microhome.htm"
  },
  {
    "Teams": "ncaabku;ncaafku;ncaabmich;ncaafmich;ncaabore;ncaafore;ncaabpsu;ncaafpsu;mlssj;nhlsjs;ncaabtamu;ncaaftamu;ncaabucf;ncaafucf;ncaabwsu;ncaafwsu",
    "Name": "Rookies Sports Lodge",
    "Address": "1535 Meridian Ave #10, San Jose, CA 95125, USA",
    "City": "SF",
    "State": "CA",
    "latitude": 37.2969144,
    "longitude": -121.9139009,
    "Phone": "408-445-2121",
    "Website": "http://www.rookieslodge.com/"
  },
  {
    "Teams": "mlblad",
    "Name": "Tomato Thyme",
    "Address": "1560 Hamilton Ave, San Jose, CA 95125, USA",
    "City": "SF",
    "State": "CA",
    "latitude": 37.2933924,
    "longitude": -121.9120876,
    "Phone": "408-723-7333",
    "Website": "http://www.tomato-thyme.com/"
  },
  {
    "Teams": "ncaabmich;ncaafmich;ncaabneb;ncaafneb",
    "Name": "Buffalo Wild Wings",
    "Address": "1620 Saratoga Ave, San Jose, CA 95129, USA",
    "City": "SF",
    "State": "CA",
    "latitude": 37.2929251,
    "longitude": -121.9901477,
    "Phone": "408-370-6701",
    "Website": "http://buffalowildwings.com/"
  },
  {
    "Teams": "ncaaborst;ncaaforst",
    "Name": "Hermitage Brewing Company",
    "Address": "1627 S 7th St, San Jose, CA 95112, USA",
    "City": "SF",
    "State": "CA",
    "latitude": 37.3130175,
    "longitude": -121.8673766,
    "Phone": "408-291-0966",
    "Website": "http://hermitagebrewing.com/"
  },
  {
    "Teams": "mlssj;nhlsjs",
    "Name": "Jack's Bar & Lounge",
    "Address": "167 E Taylor St, San Jose, CA 95112, USA",
    "City": "SF",
    "State": "CA",
    "latitude": 37.3509711,
    "longitude": -121.8967427,
    "Phone": "408-287-5225",
    "Website": "http://jacksbarsanjose.com/"
  },
  {
    "Teams": "nhlsjs",
    "Name": "High Five Pizza Company",
    "Address": "171 Branham Ln, San Jose, CA 95136, USA",
    "City": "SF",
    "State": "CA",
    "latitude": 37.267411,
    "longitude": -121.8323133,
    "Phone": "408-629-6800",
    "Website": "http://hi5catering.com/"
  },
  {
    "Teams": "ncaabmu;mlssj;nhlsjs",
    "Name": "The Brit",
    "Address": "173 W Santa Clara St, San Jose, CA 95113, USA",
    "City": "SF",
    "State": "CA",
    "latitude": 37.3350189,
    "longitude": -121.8937039,
    "Phone": "408-278-1400",
    "Website": "http://www.britanniaarmsdowntown.com/"
  },
  {
    "Teams": "nflsf;ncaabutah;ncaafutah",
    "Name": "Zone 8 Sports Bar & Grill",
    "Address": "1887 Matrix Blvd, San Jose, CA 95110, USA",
    "City": "SF",
    "State": "CA",
    "latitude": 37.3715192,
    "longitude": -121.9192161,
    "Phone": "408-453-4030",
    "Website": "https://www.casinom8trix.com/dining/"
  },
  {
    "Teams": "ncaabgonz",
    "Name": "O'Flaherty's Irish Pub",
    "Address": "25 N San Pedro St, San Jose, CA 95110, USA",
    "City": "SF",
    "State": "CA",
    "latitude": 37.33551,
    "longitude": -121.893395,
    "Phone": "408-947-8007",
    "Website": "http://www.oflahertyspub.com/"
  },
  {
    "Teams": "mlssj",
    "Name": "Maya's Cafe",
    "Address": "2616 Union Ave, San Jose, CA 95124, USA",
    "City": "SF",
    "State": "CA",
    "latitude": 37.2744625,
    "longitude": -121.9327653,
    "Phone": "408-559-8700",
    "Website": "http://mayas-cafe.cafes-city.com/"
  },
  {
    "Teams": "mlblad",
    "Name": "SmokeEaters Hot Wings",
    "Address": "29 S 3rd St, San Jose, CA 95113, USA",
    "City": "SF",
    "State": "CA",
    "latitude": 37.3362191,
    "longitude": -121.8880502,
    "Phone": "408-293-9976",
    "Website": "http://smoke-eaters.com/"
  },
  {
    "Teams": "nhlsjs",
    "Name": "Henry's World Famous Hi-Life",
    "Address": "301 W St John St, San Jose, CA 95110, USA",
    "City": "SF",
    "State": "CA",
    "latitude": 37.335486,
    "longitude": -121.898197,
    "Phone": "408-295-5414",
    "Website": "https://template.citycheers.com/96613"
  },
  {
    "Teams": "nfldal;nflden;nflpit;ncaabusc;ncaafusc",
    "Name": "The Blue Chip",
    "Address": "325 S 1st St, San Jose, CA 95113, USA",
    "City": "SF",
    "State": "CA",
    "latitude": 37.3309881,
    "longitude": -121.8870459,
    "Phone": "408-971-2898",
    "Website": "http://thebluechipultra.com/"
  },
  {
    "Teams": "nflbuf;mlssj",
    "Name": "Britannia Arms",
    "Address": "3530, 1087 S De Anza Blvd, San Jose, CA 95129, USA",
    "City": "SF",
    "State": "CA",
    "latitude": 37.306932,
    "longitude": -122.032713,
    "Phone": "408-252-7262",
    "Website": "http://www.britanniaarmsdeanza.com/"
  },
  {
    "Teams": "mlssj",
    "Name": "Hapa's Brewing Company",
    "Address": "460 Lincoln Ave #90, San Jose, CA 95126, USA",
    "City": "SF",
    "State": "CA",
    "latitude": 37.32,
    "longitude": -121.908028,
    "Phone": "408-982-3299",
    "Website": "http://www.hapasbrewing.com/"
  },
  {
    "Teams": "ncaabisu;ncaafisu;mlssj;nhlsjs",
    "Name": "Britannia Arms Almaden",
    "Address": "5027 Almaden Expy, San Jose, CA 95118, USA",
    "City": "SF",
    "State": "CA",
    "latitude": 37.2579777,
    "longitude": -121.8769437,
    "Phone": "408-266-0550",
    "Website": "http://britanniaarms.com/fresh/index.php/"
  },
  {
    "Teams": "nhlsjs",
    "Name": "Old Wagon Saloon & Grill",
    "Address": "73 N San Pedro St, San Jose, CA 95110, USA",
    "City": "SF",
    "State": "CA",
    "latitude": 37.336435,
    "longitude": -121.8940059,
    "Phone": "408-971-9346",
    "Website": "http://www.theoldwagonsaloon.com/"
  },
  {
    "Teams": "mlssj;nhlsjs",
    "Name": "High Five at the Plex",
    "Address": "800 Embedded Way, San Jose, CA 95138, USA",
    "City": "SF",
    "State": "CA",
    "latitude": 37.2657423,
    "longitude": -121.793611,
    "Phone": "408-365-5500",
    "Website": "http://www.gotoplex.com/at-the-plex/high-five-at-the-plex/"
  },
  {
    "Teams": "ncaabsjsu;ncaafsjsu",
    "Name": "Buffalo Wild Wings",
    "Address": "859 Blossom Hill Rd, San Jose, CA 95123, USA",
    "City": "SF",
    "State": "CA",
    "latitude": 37.2505766,
    "longitude": -121.8566797,
    "Phone": "408-363-1690",
    "Website": "http://buffalowildwings.com/"
  },
  {
    "Teams": "nhlsjs",
    "Name": "Blue Water Seafood & Crab",
    "Address": "860 Willow St Suite 100, San Jose, CA 95125, USA",
    "City": "SF",
    "State": "CA",
    "latitude": 37.310278,
    "longitude": -121.896251,
    "Phone": "408-289-8879",
    "Website": "http://bluewaterseafoodandcrabca.com/"
  },
  {
    "Teams": "mlblad;nhlsjs",
    "Name": "San Pedro Square Market Bar",
    "Address": "87 N San Pedro St, San Jose, CA 95110, USA",
    "City": "SF",
    "State": "CA",
    "latitude": 37.3364966,
    "longitude": -121.8943123,
    "Phone": "",
    "Website": "http://www.sanpedrosquaremarket.com/"
  },
  {
    "Teams": "ncaabasu;ncaafasu;ncaabnev;ncaafnev;nhlsjs;ncaabuw;ncaafuw",
    "Name": "Rookies Sports Lodge Downtown SJ",
    "Address": "99 S 1st St, San Jose, CA 95113, USA",
    "City": "SF",
    "State": "CA",
    "latitude": 37.3343564,
    "longitude": -121.8895339,
    "Phone": "408-292-4300",
    "Website": "http://www.rookieslodge.com/"
  },
  {
    "Teams": "mlboak",
    "Name": "The Englander Sports Pub & Restaurant",
    "Address": "101 Parrott St, San Leandro, CA 94577, USA",
    "City": "SF",
    "State": "CA",
    "latitude": 37.7218872,
    "longitude": -122.1531826,
    "Phone": "510-357-3571",
    "Website": "http://www.englanderpub.com/"
  },
  {
    "Teams": "ncaabaub;ncaafaub;ncaabcal;ncaafcal;ncaabuf;ncaafuf;ncaabksu;ncaafksu;ncaabmsu;ncaafmsu;mlboak;nfloak",
    "Name": "Ricky's Sports Theatre & Grill",
    "Address": "15028 Hesperian Blvd, San Leandro, CA 94578, USA",
    "City": "SF",
    "State": "CA",
    "latitude": 37.704288,
    "longitude": -122.129291,
    "Phone": "510-317-0200",
    "Website": "http://rickys.com/"
  },
  {
    "Teams": "nfllac",
    "Name": "The Swingin' Door",
    "Address": "106 E 25th Ave, San Mateo, CA 94403, USA",
    "City": "SF",
    "State": "CA",
    "latitude": 37.545086,
    "longitude": -122.3045991,
    "Phone": "650-522-9800",
    "Website": "http://theswingindoor.com/"
  },
  {
    "Teams": "ncaabmich;ncaafmich",
    "Name": "Route 92 Sports Bar",
    "Address": "2128 S El Camino Real, San Mateo, CA 94403, USA",
    "City": "SF",
    "State": "CA",
    "latitude": 37.547182,
    "longitude": -122.3088773,
    "Phone": "650-312-1587",
    "Website": ""
  },
  {
    "Teams": "nbagsw",
    "Name": "Wursthall",
    "Address": "310 Baldwin Ave, San Mateo, CA 94401, USA",
    "City": "SF",
    "State": "CA",
    "latitude": 37.567287,
    "longitude": -122.324631,
    "Phone": "650-931-4282",
    "Website": "http://wursthall.com/"
  },
  {
    "Teams": "nbagsw",
    "Name": "3rd Ave Sports Bar & Grill",
    "Address": "77 E 3rd Ave, San Mateo, CA 94401, USA",
    "City": "SF",
    "State": "CA",
    "latitude": 37.564191,
    "longitude": -122.32477,
    "Phone": "650-340-9872",
    "Website": "http://3rd-ave-sports-bar-grill.business.site/"
  },
  {
    "Teams": "nbagsw",
    "Name": "Flatiron",
    "Address": "724 B St, San Rafael, CA 94901, USA",
    "City": "SF",
    "State": "CA",
    "latitude": 37.9711616,
    "longitude": -122.5294438,
    "Phone": "415-453-4318",
    "Website": "http://flatironsanrafael.com/"
  },
  {
    "Teams": "nflsf",
    "Name": "San Rafael Joe's",
    "Address": "931 4th St, San Rafael, CA 94901, USA",
    "City": "SF",
    "State": "CA",
    "latitude": 37.972741,
    "longitude": -122.526869,
    "Phone": "415-456-2425",
    "Website": "http://www.sanrafaeljoes.com/"
  },
  {
    "Teams": "ncaabasu;ncaafasu;ncaabneb;ncaafneb;ncaabosu;ncaafosu;nflsea",
    "Name": "Buffalo Wild Wings",
    "Address": "200 Montgomery St, San Ramon, CA 94583, USA",
    "City": "SF",
    "State": "CA",
    "latitude": 37.7645489,
    "longitude": -121.9524667,
    "Phone": "925-380-6631",
    "Website": "https://buffalowildwings.com/en"
  },
  {
    "Teams": "nflsea",
    "Name": "Firehouse No. 37",
    "Address": "250 Market Pl, San Ramon, CA 94583, USA",
    "City": "SF",
    "State": "CA",
    "latitude": 37.763884,
    "longitude": -121.9526233,
    "Phone": "925-380-6565",
    "Website": "http://www.firehouse37.com/"
  },
  {
    "Teams": "nbagsw",
    "Name": "Taplands",
    "Address": "1171 Homestead Rd, Santa Clara, CA 95050, USA",
    "City": "SF",
    "State": "CA",
    "latitude": 37.3484128,
    "longitude": -121.9461112,
    "Phone": "408-709-2990",
    "Website": "http://www.taplands.com/"
  },
  {
    "Teams": "mlssj",
    "Name": "Wicked Chicken",
    "Address": "2565 The Alameda, Santa Clara, CA 95050, USA",
    "City": "SF",
    "State": "CA",
    "latitude": 37.345126,
    "longitude": -121.935984,
    "Phone": "408-246-9464",
    "Website": "http://www.wickedchickenwings.com/"
  },
  {
    "Teams": "nflsf",
    "Name": "Fiorillo's Restaurant and Banquet Facilities",
    "Address": "638 El Camino Real, Santa Clara, CA 95050, USA",
    "City": "SF",
    "State": "CA",
    "latitude": 37.354428,
    "longitude": -121.941608,
    "Phone": "408-984-0414",
    "Website": "http://www.fiorillos.com/"
  },
  {
    "Teams": "nflind",
    "Name": "West Side Grill",
    "Address": "3082 Marlow Rd, Santa Rosa, CA 95403, USA",
    "City": "SF",
    "State": "CA",
    "latitude": 38.465778,
    "longitude": -122.750827,
    "Phone": "707-573-9453",
    "Website": "http://www.shannonswestsidegrill.com"
  },
  {
    "Teams": "ncaabcal;ncaafcal;nbagsw;nflsf;nhlsjs",
    "Name": "Victory House",
    "Address": "3215 Coffey Ln #4, Santa Rosa, CA 95403, USA",
    "City": "SF",
    "State": "CA",
    "latitude": 38.4677654,
    "longitude": -122.746337,
    "Phone": "707-757-9041",
    "Website": "https://visitepicenter.com/victory-house-sports-bar/"
  },
  {
    "Teams": "ncaabstan;ncaafstan",
    "Name": "Juncture Taproom & Lounge",
    "Address": "4357 Montgomery Dr, Santa Rosa, CA 95405, USA",
    "City": "SF",
    "State": "CA",
    "latitude": 38.4573305,
    "longitude": -122.6720647,
    "Phone": "707-293-9702",
    "Website": "https://www.facebook.com/confluencetaproom/"
  },
  {
    "Teams": "ncaabwis;ncaafwis",
    "Name": "Third Street Aleworks",
    "Address": "610 3rd St, Santa Rosa, CA 95404, USA",
    "City": "SF",
    "State": "CA",
    "latitude": 38.4398345,
    "longitude": -122.7125642,
    "Phone": "707-523-3060",
    "Website": "http://thirdstreetaleworks.com/"
  },
  {
    "Teams": "ncaabpur;ncaafpur",
    "Name": "Off The Rails Brewing Co.",
    "Address": "111 S Murphy Ave, Sunnyvale, CA 94086, USA",
    "City": "SF",
    "State": "CA",
    "latitude": 37.3773851,
    "longitude": -122.0301596,
    "Phone": "408-773-9500",
    "Website": "http://www.offtherailsbrewing.com/"
  },
  {
    "Teams": "ncaabou;ncaafou",
    "Name": "Metro City",
    "Address": "151 S Murphy Ave, Sunnyvale, CA 94086, USA",
    "City": "SF",
    "State": "CA",
    "latitude": 37.3769,
    "longitude": -122.03045,
    "Phone": "408-685-2477",
    "Website": "http://metrocitysunnyvale.com/"
  },
  {
    "Teams": "nhlsjs",
    "Name": "Jake's of Sunnyvale",
    "Address": "174 E Fremont Ave, Sunnyvale, CA 94087, USA",
    "City": "SF",
    "State": "CA",
    "latitude": 37.3517131,
    "longitude": -122.0296279,
    "Phone": "408-720-8884",
    "Website": "http://www.jakesrestaurants.com/"
  },
  {
    "Teams": "ncaabbama;ncaafbama;ncaabucla;ncaafucla",
    "Name": "Lilly Mac's",
    "Address": "187 S Murphy Ave, Sunnyvale, CA 94086, USA",
    "City": "SF",
    "State": "CA",
    "latitude": 37.3763502,
    "longitude": -122.0304656,
    "Phone": "408-732-0200",
    "Website": "http://www.lillymacs.com/"
  },
  {
    "Teams": "nbagsw",
    "Name": "Berts Stadium Sports Bar",
    "Address": "208 S Fair Oaks Ave, Sunnyvale, CA 94086, USA",
    "City": "SF",
    "State": "CA",
    "latitude": 37.3738147,
    "longitude": -122.0207835,
    "Phone": "408-749-1080",
    "Website": ""
  },
  {
    "Teams": "ncaabfsu;ncaaffsu;ncaabuga;ncaafuga",
    "Name": "Sauced BBQ & Spirits - Walnut Creek",
    "Address": "1410 Locust St, Walnut Creek, CA 94596, USA",
    "City": "SF",
    "State": "CA",
    "latitude": 37.8992537,
    "longitude": -122.0618497,
    "Phone": "925-433-5957",
    "Website": "http://www.saucedbbqandspirits.com/"
  },
  {
    "Teams": "ncaabduke;ncaafduke;ncaabfsu;ncaaffsu;nbagsw;ncaabmsu;ncaafmsu;nflnyg;nflnyj;nhlsjs;ncaabucla;ncaafucla;nhlwsh",
    "Name": "Stadium Pub",
    "Address": "1420 Lincoln Ave, Walnut Creek, CA 94596, USA",
    "City": "SF",
    "State": "CA",
    "latitude": 37.9007015,
    "longitude": -122.0612388,
    "Phone": "925-256-7302",
    "Website": "http://thestadiumpub.com/"
  },
  {
    "Teams": "ncaabusc;ncaafusc",
    "Name": "Modern China Cafe",
    "Address": "1525 N Main St, Walnut Creek, CA 94596, USA",
    "City": "SF",
    "State": "CA",
    "latitude": 37.9004268,
    "longitude": -122.0615615,
    "Phone": "925-988-8008",
    "Website": "http://www.modernchinacafe.com/"
  },
  {
    "Teams": "ncaabcolo;ncaafcolo",
    "Name": "Mike Hess Brewing",
    "Address": "2351 Oak Grove Rd, Walnut Creek, CA 94598, USA",
    "City": "SF",
    "State": "CA",
    "latitude": 37.928724,
    "longitude": -122.0166683,
    "Phone": "",
    "Website": "http://www.mikehessbrewing.com/"
  },
  {
    "Teams": "nfloak",
    "Name": "Thirsty Mule LLC",
    "Address": "168 Old Waterville Rd, Oakland, ME 04963, USA",
    "City": "SF",
    "State": "ME",
    "latitude": 44.5449139,
    "longitude": -69.6955188,
    "Phone": "207-465-9700",
    "Website": "http://www.thethirstymule.com/"
  }
]