[
  {
    "Teams": "ncaabuva;ncaafuva",
    "Name": "The Admiral",
    "Address": "1 Dupont Cir NW, Washington, DC 20036",
    "City": "WAS",
    "State": "DC",
    "latitude": 38.9090754,
    "longitude": -77.0444829,
    "Phone": "202-506-6696",
    "Website": "https://www.theadmiraldc.com/"
  },
  {
    "Teams": "ncaabfsu;ncaaffsu",
    "Name": "Walter's Sports Bar",
    "Address": "10 N St SE, Washington, DC 20024",
    "City": "WAS",
    "State": "DC",
    "latitude": 38.8747801,
    "longitude": -77.008717,
    "Phone": "202-499-3919",
    "Website": "https://waltersdc.com/"
  },
  {
    "Teams": "mlsdc",
    "Name": "Gordon Biersch",
    "Address": "100 M St SE, Washington, DC 20003",
    "City": "WAS",
    "State": "DC",
    "latitude": 38.876765,
    "longitude": -77.005579,
    "Phone": "202-484-2739",
    "Website": "http://www.gordonbiersch.com/locations/navy-yard"
  },
  {
    "Teams": "ncaablsu;ncaaflsu;ncaabtcu;ncaaftcu",
    "Name": "The Brig DC",
    "Address": "1007 8th St SE, Washington, DC 20003",
    "City": "WAS",
    "State": "DC",
    "latitude": 38.8777745,
    "longitude": -76.9951692,
    "Phone": "202-675-1000",
    "Website": "http://www.thebrigdc.com/"
  },
  {
    "Teams": "mlbwas",
    "Name": "Bolt Burger",
    "Address": "1010 Massachusetts Ave NW, Washington, DC 20001",
    "City": "WAS",
    "State": "DC",
    "latitude": 38.9033359,
    "longitude": -77.0267125,
    "Phone": "202-320-9200",
    "Website": "http://www.boltburgerdc.com/"
  },
  {
    "Teams": "mlsdc;mlbwas",
    "Name": "Duffy's Irish Pub",
    "Address": "1016 H St NE, Washington, DC 20002",
    "City": "WAS",
    "State": "DC",
    "latitude": 38.9004141,
    "longitude": -76.992005,
    "Phone": "202-462-9464",
    "Website": "http://www.dcduffys.com/"
  },
  {
    "Teams": "mlbbal;ncaabpsu;ncaafpsu",
    "Name": "Nobles Bar And Grill",
    "Address": "1024 S Charles St, Baltimore, MD 21230",
    "City": "WAS",
    "State": "MD",
    "latitude": 39.277302,
    "longitude": -76.6145719,
    "Phone": "410-727-1355",
    "Website": "http://www.noblesbarandgrill.com/"
  },
  {
    "Teams": "mlbbal;ncaabmu",
    "Name": "The Abbey Burger Bistro",
    "Address": "1041 Marshall St, Baltimore, MD 21230",
    "City": "WAS",
    "State": "MD",
    "latitude": 39.2771965,
    "longitude": -76.6129042,
    "Phone": "443-453-9698",
    "Website": "http://www.abbeyburgerbistro.com/"
  },
  {
    "Teams": "nhlwsh",
    "Name": "29 Diner",
    "Address": "10536 Fairfax Blvd, Fairfax, VA 22030",
    "City": "WAS",
    "State": "VA",
    "latitude": 38.8580828,
    "longitude": -77.308886,
    "Phone": "703-352-0029",
    "Website": "http://29diner.com/"
  },
  {
    "Teams": "nflphi;ncaabvu",
    "Name": "Magerks Pub & Grill Federal Hill",
    "Address": "1061 S Charles St, Baltimore, MD 21230",
    "City": "WAS",
    "State": "MD",
    "latitude": 39.2769582,
    "longitude": -76.6141434,
    "Phone": "410-576-9230",
    "Website": "http://www.magerks.com/"
  },
  {
    "Teams": "ncaabwsu;ncaafwsu",
    "Name": "Pinstripes",
    "Address": "1064 Wisconsin Ave NW, Washington, DC 20007",
    "City": "WAS",
    "State": "DC",
    "latitude": 38.904584,
    "longitude": -77.063016,
    "Phone": "202-625-6500",
    "Website": "https://pinstripes.com/"
  },
  {
    "Teams": "ncaabpit;ncaafpit",
    "Name": "Church Hall",
    "Address": "1070 Wisconsin Ave NW, Washington, DC 20007",
    "City": "WAS",
    "State": "DC",
    "latitude": 38.9046839,
    "longitude": -77.0630219,
    "Phone": "202-847-0953",
    "Website": "http://www.churchhalldc.com/"
  },
  {
    "Teams": "mlbbal",
    "Name": "The Yard",
    "Address": "110 S Eutaw St, Baltimore, MD 21201",
    "City": "WAS",
    "State": "MD",
    "latitude": 39.2869166,
    "longitude": -76.6214219,
    "Phone": "410-209-2853",
    "Website": "http://www.marriott.com/hotel-restaurants/bwiih-baltimore-marriott-inner-harbor-at-camden-yards/the-yard/81195/home-page.mi"
  },
  {
    "Teams": "ncaabmiz;ncaafmiz;ncaabrutg;ncaafrutg",
    "Name": "Maddy's Taproom",
    "Address": "1100 13th St NW, Washington, DC 20005",
    "City": "WAS",
    "State": "DC",
    "latitude": 38.9039028,
    "longitude": -77.0299083,
    "Phone": "202-408-5500",
    "Website": "http://maddystaproom.com/"
  },
  {
    "Teams": "ncaabpit;ncaafpit;ncaabshu;nflwas",
    "Name": "Capitol City Brewing Company",
    "Address": "1100 New York Ave NW, Washington, DC 20005",
    "City": "WAS",
    "State": "DC",
    "latitude": 38.9000059,
    "longitude": -77.027418,
    "Phone": "202-628-2222",
    "Website": "http://capcitybrew.com/"
  },
  {
    "Teams": "nflno",
    "Name": "Little Miss Whiskey's Golden Dollar",
    "Address": "1104 H St NE, Washington, DC 20002",
    "City": "WAS",
    "State": "DC",
    "latitude": 38.900437,
    "longitude": -76.991211,
    "Phone": "202-555-1212",
    "Website": "http://www.littlemisswhiskeys.com/"
  },
  {
    "Teams": "nflsf;ncaabuva;ncaafuva;ncaabvt;ncaafvt;ncaabxu",
    "Name": "Home Team Grill",
    "Address": "1109 Jefferson Davis Hwy, Fredericksburg, VA 22401",
    "City": "WAS",
    "State": "VA",
    "latitude": 38.3074934,
    "longitude": -77.4798835,
    "Phone": "540-479-1011",
    "Website": "http://www.hometeamgrill.com/"
  },
  {
    "Teams": "nhlbos;mlbbos;nhlnsh;nhlpit;nhlsjs;nhltbl;nhlwsh;nhlwpg",
    "Name": "Bugsy's Pizza Restaurant",
    "Address": "111 King St, Alexandria, VA 22314",
    "City": "WAS",
    "State": "VA",
    "latitude": 38.804511,
    "longitude": -77.04081,
    "Phone": "703-683-0313",
    "Website": "https://www.bugsyspizzamenu.com/"
  },
  {
    "Teams": "ncaabuva;ncaafuva",
    "Name": "The Charles Baltimore",
    "Address": "1110 S Charles St, Baltimore, MD 21230",
    "City": "WAS",
    "State": "MD",
    "latitude": 39.2764178,
    "longitude": -76.6146719,
    "Phone": "410-727-2333",
    "Website": "http://www.thecharlesbaltimore.com/"
  },
  {
    "Teams": "nflbal;ncaabfsu;ncaaffsu",
    "Name": "Mother's Federal Hill Grille",
    "Address": "1113 S Charles St, Baltimore, MD 21230",
    "City": "WAS",
    "State": "MD",
    "latitude": 39.2763196,
    "longitude": -76.6140756,
    "Phone": "410-244-8686",
    "Website": "http://www.mothersgrille.com/"
  },
  {
    "Teams": "ncaabbama;ncaafbama",
    "Name": "Wayward Smokehouse",
    "Address": "1117 S Charles St, Baltimore, MD 21230",
    "City": "WAS",
    "State": "MD",
    "latitude": 39.2762241,
    "longitude": -76.6141965,
    "Phone": "410-223-2269",
    "Website": "http://www.waywardsmoke.com/"
  },
  {
    "Teams": "mlbwas",
    "Name": "Primetime Sports Bar & Grille",
    "Address": "11250 James Swart Cir, Fairfax, VA 22030",
    "City": "WAS",
    "State": "VA",
    "latitude": 38.8551866,
    "longitude": -77.3360373,
    "Phone": "703-352-0260",
    "Website": "http://www.primetimesportsandgrill.com/"
  },
  {
    "Teams": "mlbwas",
    "Name": "The Bullpen",
    "Address": "1201 Half St SE, Washington, DC 20003",
    "City": "WAS",
    "State": "DC",
    "latitude": 38.8760778,
    "longitude": -77.0078379,
    "Phone": "202-244-0592",
    "Website": "https://thebullpendc.com/"
  },
  {
    "Teams": "mlsdc;ncaabisu;ncaafisu",
    "Name": "Elephant & Castle",
    "Address": "1201 Pennsylvania Ave NW, Washington, DC 20004",
    "City": "WAS",
    "State": "DC",
    "latitude": 38.8956005,
    "longitude": -77.0283679,
    "Phone": "202-347-7707",
    "Website": "http://www.elephantcastle.com/"
  },
  {
    "Teams": "mlbchc",
    "Name": "Champps",
    "Address": "1201 S. Joyce Street, C-10, Arlington, VA 22202",
    "City": "WAS",
    "State": "VA",
    "latitude": 38.86304,
    "longitude": -77.062369,
    "Phone": "703-414-3601",
    "Website": "http://champps.com/locations/arlington/"
  },
  {
    "Teams": "nhlwsh",
    "Name": "The Brass Tap",
    "Address": "1205 W Mt Royal Ave, Baltimore, MD 21217",
    "City": "WAS",
    "State": "MD",
    "latitude": 39.3067686,
    "longitude": -76.6196058,
    "Phone": "888-901-2337",
    "Website": "https://www.brasstapbeerbar.com/baltimore"
  },
  {
    "Teams": "mlsdc;nflkc;mlbwas",
    "Name": "The Queen Vic",
    "Address": "1206 H St NE, Washington, DC 20002",
    "City": "WAS",
    "State": "DC",
    "latitude": 38.9003903,
    "longitude": -76.9898571,
    "Phone": "202-396-2001",
    "Website": "http://www.thequeenvicdc.com/"
  },
  {
    "Teams": "nhlwsh",
    "Name": "Bracket Room",
    "Address": "1210 N Garfield St, Arlington, VA 22201",
    "City": "WAS",
    "State": "VA",
    "latitude": 38.8869664,
    "longitude": -77.0941077,
    "Phone": "703-276-7337",
    "Website": "http://www.bracketroom.com/"
  },
  {
    "Teams": "ncaabuga;ncaafuga;ncaabiowa;ncaafiowa;nfloak;nhlwsh",
    "Name": "Public Bar",
    "Address": "1214 18th St NW B, Washington, DC 20036",
    "City": "WAS",
    "State": "DC",
    "latitude": 38.9062776,
    "longitude": -77.041959,
    "Phone": "202-223-2200",
    "Website": "http://www.publicbar.co/"
  },
  {
    "Teams": "ncaabtcu;ncaaftcu",
    "Name": "Public Bar Live",
    "Address": "1214 18th St NW, Washington, DC 20036",
    "City": "WAS",
    "State": "DC",
    "latitude": 38.9062766,
    "longitude": -77.0418966,
    "Phone": "240-308-9267",
    "Website": "http://www.publicbarlive.com/"
  },
  {
    "Teams": "ncaabtamu;ncaaftamu",
    "Name": "Sauf Haus Bier Hall",
    "Address": "1216 18th St NW, Washington, DC 20036",
    "City": "WAS",
    "State": "DC",
    "latitude": 38.9063548,
    "longitude": -77.0418874,
    "Phone": "202-466-3355",
    "Website": "http://saufhausdc.com/"
  },
  {
    "Teams": "ncaabpit;ncaafpit;mlbwas",
    "Name": "Glory Days Grill",
    "Address": "1220 E Joppa Rd, Towson, MD 21286",
    "City": "WAS",
    "State": "MD",
    "latitude": 39.396861,
    "longitude": -76.575804,
    "Phone": "443-901-0270",
    "Website": "https://www.glorydaysgrill.com/locations/maryland/towson/"
  },
  {
    "Teams": "nflcar;mlsdc;mlssea",
    "Name": "The Lucky Bar",
    "Address": "1221 Connecticut Ave NW, Washington, DC 20036",
    "City": "WAS",
    "State": "DC",
    "latitude": 38.9066105,
    "longitude": -77.0412437,
    "Phone": "202-331-3733",
    "Website": "http://www.luckybardc.com/"
  },
  {
    "Teams": "ncaabark;ncaafark;nflcar;ncaabcle;ncaafcle;mlsdc;ncaabiowa;ncaafiowa;ncaabmu;ncaabmsst;ncaafmsst;ncaabtcu;ncaaftcu;ncaabuva;ncaafuva",
    "Name": "Mission - Navy Yard",
    "Address": "1221 Van St SE, Washington, DC 20003",
    "City": "WAS",
    "State": "DC",
    "latitude": 38.8747872,
    "longitude": -77.0083814,
    "Phone": "202-810-7010",
    "Website": "http://missionnavyyard.com/"
  },
  {
    "Teams": "ncaabumd;ncaafumd",
    "Name": "Lighthouse Tavern",
    "Address": "1226 S Clinton St, Baltimore, MD 21224",
    "City": "WAS",
    "State": "MD",
    "latitude": 39.2785037,
    "longitude": -76.5696551,
    "Phone": "410-342-9105",
    "Website": ""
  },
  {
    "Teams": "mlbbal;nhlwsh",
    "Name": "The Pug",
    "Address": "1234 H St NE, Washington, DC 20002",
    "City": "WAS",
    "State": "DC",
    "latitude": 38.9003698,
    "longitude": -76.9890329,
    "Phone": "202-636-0050",
    "Website": "http://thepugdc.com/"
  },
  {
    "Teams": "ncaabgt;ncaafgt",
    "Name": "Brewer's Cask",
    "Address": "1236 Light St, Baltimore, MD 21230",
    "City": "WAS",
    "State": "MD",
    "latitude": 39.275093,
    "longitude": -76.612428,
    "Phone": "410-273-9377",
    "Website": "http://www.brewerscask.com/"
  },
  {
    "Teams": "mlbwas",
    "Name": "Declaration Nats Park",
    "Address": "1237 First St SE, Washington, DC 20003",
    "City": "WAS",
    "State": "DC",
    "latitude": 38.8758267,
    "longitude": -77.0061049,
    "Phone": "202-558-9802",
    "Website": "http://declarationrestaurant.com/"
  },
  {
    "Teams": "nflgb;ncaabiowa;ncaafiowa",
    "Name": "Lost & Found DC",
    "Address": "1240 9th St NW, Washington, DC 20001",
    "City": "WAS",
    "State": "DC",
    "latitude": 38.9067471,
    "longitude": -77.024256,
    "Phone": "202-450-6052",
    "Website": "http://www.lostandfounddc.com/"
  },
  {
    "Teams": "ncaabucf;ncaafucf;mlbwas",
    "Name": "City Tap House Dupont",
    "Address": "1250 Connecticut Ave NW suite 105, Washington, DC 20036",
    "City": "WAS",
    "State": "DC",
    "latitude": 38.9071017,
    "longitude": -77.042197,
    "Phone": "202-878-8235",
    "Website": "http://www.citytap.com/"
  },
  {
    "Teams": "ncaabpsu;ncaafpsu;mlbwas",
    "Name": "Carpool Bar",
    "Address": "12821 Fair Lakes Pkwy, Fairfax, VA 22033",
    "City": "WAS",
    "State": "VA",
    "latitude": 38.8613029,
    "longitude": -77.3847026,
    "Phone": "703-222-7665",
    "Website": "http://www.gocarpool.com/"
  },
  {
    "Teams": "mlbwas",
    "Name": "Glory Days Grill",
    "Address": "130 Featherbed Ln, Winchester, VA 22601",
    "City": "WAS",
    "State": "VA",
    "latitude": 39.1652905,
    "longitude": -78.1675228,
    "Phone": "540-662-9922",
    "Website": "https://www.glorydaysgrill.com/locations/virginia/winchester/"
  },
  {
    "Teams": "ncaabcmu;ncaafcmu;nflmin",
    "Name": "Sine Irish Pub & Restaurant Arlington",
    "Address": "1301 S Joyce St, Arlington, VA 22202",
    "City": "WAS",
    "State": "VA",
    "latitude": 38.8631214,
    "longitude": -77.0626481,
    "Phone": "703-415-4420",
    "Website": "http://www.sineirishpub.com/"
  },
  {
    "Teams": "mlbwas",
    "Name": "Glory Days Grill",
    "Address": "1305 W 7th St, Frederick, MD 21702",
    "City": "WAS",
    "State": "MD",
    "latitude": 39.431287,
    "longitude": -77.416729,
    "Phone": "301-696-1112",
    "Website": "https://www.glorydaysgrill.com/locations/maryland/frederick/"
  },
  {
    "Teams": "nflbuf;ncaabbuff;ncaafbuff;ncaabbut;ncaabduke;ncaafduke;ncaabku;ncaafku;ncaabou;ncaafou;ncaabucla;ncaafucla",
    "Name": "Astro Beer Hall",
    "Address": "1306 G St NW, Washington, DC 20005",
    "City": "WAS",
    "State": "DC",
    "latitude": 38.8981318,
    "longitude": -77.0303016,
    "Phone": "202-737-1797",
    "Website": "http://www.astrobeerhall.com/"
  },
  {
    "Teams": "ncaabbuff;ncaafbuff;ncaabvu;ncaabwvu;ncaafwvu",
    "Name": "Madhatter",
    "Address": "1319 Connecticut Ave NW, Washington, DC 20036",
    "City": "WAS",
    "State": "DC",
    "latitude": 38.9078402,
    "longitude": -77.04211,
    "Phone": "202-833-1495",
    "Website": "http://www.madhatterdc.com/"
  },
  {
    "Teams": "ncaabecu;ncaafecu;nflne;ncaabtcu;ncaaftcu",
    "Name": "Proper 21",
    "Address": "1319 F St NW, Washington, DC 20004",
    "City": "WAS",
    "State": "DC",
    "latitude": 38.8976463,
    "longitude": -77.0306127,
    "Phone": "202-847-3674",
    "Website": "https://www.proper21.com/"
  },
  {
    "Teams": "ncaabbuff;ncaafbuff;mlbwas",
    "Name": "The Front Page",
    "Address": "1333 New Hampshire Ave NW, Washington, DC 20036",
    "City": "WAS",
    "State": "DC",
    "latitude": 38.9086808,
    "longitude": -77.0440365,
    "Phone": "202-296-6500",
    "Website": "http://frontpagedc.com/"
  },
  {
    "Teams": "mlsdc",
    "Name": "H Street Country Club",
    "Address": "1335 H St NE, Washington, DC 20002",
    "City": "WAS",
    "State": "DC",
    "latitude": 38.8999134,
    "longitude": -76.9870523,
    "Phone": "202-399-4722",
    "Website": "http://www.hstreetcountryclub.com/"
  },
  {
    "Teams": "ncaabark;ncaafark;ncaabfiu;ncaaffiu;ncaabsc;ncaafsc;ncaabwake;ncaafwake;nflwas",
    "Name": "Hawthorne",
    "Address": "1336 U St NW, Washington, DC 20009",
    "City": "WAS",
    "State": "DC",
    "latitude": 38.9167588,
    "longitude": -77.0310109,
    "Phone": "202-853-9194",
    "Website": "http://www.hawthornedc.com/"
  },
  {
    "Teams": "mlbwas",
    "Name": "The Big Hunt",
    "Address": "1345 Connecticut Ave NW, Washington, DC 20036",
    "City": "WAS",
    "State": "DC",
    "latitude": 38.9084595,
    "longitude": -77.0424408,
    "Phone": "202-785-2333",
    "Website": "http://thebighunt.net/"
  },
  {
    "Teams": "ncaabwvu;ncaafwvu",
    "Name": "Ragtime",
    "Address": "1345 N Courthouse Rd, Arlington, VA 22201",
    "City": "WAS",
    "State": "VA",
    "latitude": 38.889424,
    "longitude": -77.083621,
    "Phone": "703-243-4003",
    "Website": "http://ragtimerestaurant.com/"
  },
  {
    "Teams": "ncaabpit;ncaafpit",
    "Name": "Biergarten Haus",
    "Address": "1355 H St NE, Washington, DC 20002",
    "City": "WAS",
    "State": "DC",
    "latitude": 38.8999994,
    "longitude": -76.9864867,
    "Phone": "202-388-4053",
    "Website": "http://www.biergartenhaus.com/"
  },
  {
    "Teams": "ncaabark;ncaafark;ncaabuf;ncaafuf",
    "Name": "Checkerspot Brewing Company",
    "Address": "1399 S Sharp St, Baltimore, MD 21230",
    "City": "WAS",
    "State": "MD",
    "latitude": 39.2744931,
    "longitude": -76.6202119,
    "Phone": "443-388-8912",
    "Website": "http://www.checkerspotbrewing.com/"
  },
  {
    "Teams": "nfloak;ncaabpsu;ncaafpsu;nflphi;ncaabpit;ncaafpit",
    "Name": "Kelly's Irish Times",
    "Address": "14 F St NW, Washington, DC 20001",
    "City": "WAS",
    "State": "DC",
    "latitude": 38.897055,
    "longitude": -77.009797,
    "Phone": "202-543-5433",
    "Website": "http://www.kellysirishtimesdc.com/"
  },
  {
    "Teams": "mlsdc;ncaabuf;ncaafuf;ncaabumd;ncaafumd;ncaabunm;ncaafunm;ncaabnmsu;ncaafnmsu;ncaabokst;ncaafokst;nflten;ncaabucla;ncaafucla;nhlwsh;ncaabuw;ncaafuw;mlbwas;nflwas;ncaabwis;ncaafwis",
    "Name": "Lou's City Bar",
    "Address": "1400 Irving St NW, Washington, DC 20010",
    "City": "WAS",
    "State": "DC",
    "latitude": 38.9285559,
    "longitude": -77.0336528,
    "Phone": "202-849-2782",
    "Website": "http://www.louscitybar.com/"
  },
  {
    "Teams": "ncaabbama;ncaafbama;ncaabsc;ncaafsc;ncaabvu",
    "Name": "The Rowhouse Grille",
    "Address": "1400 Light St, Baltimore, MD 21230",
    "City": "WAS",
    "State": "MD",
    "latitude": 39.2741301,
    "longitude": -76.6120935,
    "Phone": "443-438-7289",
    "Website": "http://www.therowhousegrille.com/"
  },
  {
    "Teams": "mlbwas",
    "Name": "Glory Days Grill",
    "Address": "1400 North Point Village Center, Reston, VA 20190",
    "City": "WAS",
    "State": "VA",
    "latitude": 38.9800708,
    "longitude": -77.3485448,
    "Phone": "571-926-9700",
    "Website": "https://www.glorydaysgrill.com/locations/virginia/reston-at-north-point-village-center/"
  },
  {
    "Teams": "mlsdc",
    "Name": "Dock FC",
    "Address": "1400 Okie St NE, Washington, DC 20002",
    "City": "WAS",
    "State": "DC",
    "latitude": 38.9146937,
    "longitude": -76.9843799,
    "Phone": "202-450-2150",
    "Website": "http://www.dockfcdc.com/"
  },
  {
    "Teams": "nflbal",
    "Name": "GAME",
    "Address": "1400 Warner St, Baltimore, MD 21230",
    "City": "WAS",
    "State": "MD",
    "latitude": 39.2753062,
    "longitude": -76.62489,
    "Phone": "410-385-0100",
    "Website": "http://www.gamebaltimore.com/private-corporate-special-events-2/"
  },
  {
    "Teams": "nfldet;mlbwas",
    "Name": "Trusty's",
    "Address": "1420 Pennsylvania Ave SE, Washington, DC 20003",
    "City": "WAS",
    "State": "DC",
    "latitude": 38.880144,
    "longitude": -76.9844214,
    "Phone": "202-547-1010",
    "Website": "http://www.trustysfullserve.com/"
  },
  {
    "Teams": "nflden;ncaabstan;ncaafstan;nhlwsh;nflwas",
    "Name": "Stoney's",
    "Address": "1433 P St NW, Washington, DC 20005",
    "City": "WAS",
    "State": "DC",
    "latitude": 38.9098608,
    "longitude": -77.0332862,
    "Phone": "202-234-1818",
    "Website": "http://www.stoneys-dc.com/"
  },
  {
    "Teams": "ncaabmich;ncaafmich",
    "Name": "Delia Foley's",
    "Address": "1439 S Charles St, Baltimore, MD 21230",
    "City": "WAS",
    "State": "MD",
    "latitude": 39.272734,
    "longitude": -76.6139746,
    "Phone": "443-682-9141",
    "Website": "http://www.dfpub.com/"
  },
  {
    "Teams": "ncaabwvu;ncaafwvu",
    "Name": "Don't Know Tavern",
    "Address": "1453 Light St, Baltimore, MD 21230",
    "City": "WAS",
    "State": "MD",
    "latitude": 39.272951,
    "longitude": -76.611516,
    "Phone": "410-539-0231",
    "Website": "http://www.dontknowtavern.com/"
  },
  {
    "Teams": "ncaabumd;ncaafumd;ncaabpit;ncaafpit",
    "Name": "Miller's Ale House - Rockville",
    "Address": "1471 Rockville Pike, Rockville, MD 20852",
    "City": "WAS",
    "State": "MD",
    "latitude": 39.065373,
    "longitude": -77.1277119,
    "Phone": "301-770-8535",
    "Website": "https://millersalehouse.com/locations/rockville/"
  },
  {
    "Teams": "ncaabgaso;ncaafgaso",
    "Name": "Charlie's On The Avenue",
    "Address": "1501 Mt Vernon Ave, Alexandria, VA 22301",
    "City": "WAS",
    "State": "VA",
    "latitude": 38.8198365,
    "longitude": -77.0571623,
    "Phone": "571-319-0343",
    "Website": "https://www.charliesontheave.com/"
  },
  {
    "Teams": "ncaabore;ncaafore",
    "Name": "Summers Restaurant",
    "Address": "1520 N Courthouse Rd, Arlington, VA 22201",
    "City": "WAS",
    "State": "VA",
    "latitude": 38.891292,
    "longitude": -77.084161,
    "Phone": "703-528-8278",
    "Website": "http://www.summers-restaurant.com/"
  },
  {
    "Teams": "mlbchc;ncaabmich;ncaafmich;ncaabwmu;ncaafwmu",
    "Name": "Ivy and Coney",
    "Address": "1537 7th St NW, Washington, DC 20001",
    "City": "WAS",
    "State": "DC",
    "latitude": 38.9106548,
    "longitude": -77.0215835,
    "Phone": "202-670-9489",
    "Website": "http://www.ivyandconey.com/"
  },
  {
    "Teams": "ncaabhou;ncaafhou;ncaabsmu;ncaafsmu",
    "Name": "Mission",
    "Address": "1606 20th St NW, Washington, DC 20009",
    "City": "WAS",
    "State": "DC",
    "latitude": 38.911482,
    "longitude": -77.0451355,
    "Phone": "202-525-2010",
    "Website": "http://missiondupont.com/"
  },
  {
    "Teams": "ncaabuva;ncaafuva",
    "Name": "Jake's Tavern",
    "Address": "1606 7th St NW, Washington, DC 20001",
    "City": "WAS",
    "State": "DC",
    "latitude": 38.9114373,
    "longitude": -77.0221494,
    "Phone": "",
    "Website": "https://www.jakestaverndc.com/"
  },
  {
    "Teams": "nflbuf;ncaabbuff;ncaafbuff;ncaabcmu;ncaafcmu;ncaabcle;ncaafcle;ncaabku;ncaafku;ncaabmich;ncaafmich;ncaabpsu;ncaafpsu;ncaabtcu;ncaaftcu;nhlwsh;mlbwas;ncaabxu",
    "Name": "Exiles Bar",
    "Address": "1610 U St NW, Washington, DC 20009",
    "City": "WAS",
    "State": "DC",
    "latitude": 38.9167829,
    "longitude": -77.0373012,
    "Phone": "202-232-2171",
    "Website": ""
  },
  {
    "Teams": "mlbwas",
    "Name": "La Mexicana",
    "Address": "16143 Shady Grove Rd, Gaithersburg, MD 20877",
    "City": "WAS",
    "State": "MD",
    "latitude": 39.1203832,
    "longitude": -77.1788087,
    "Phone": "301-869-1500",
    "Website": "http://www.lamexicanaonline.com/"
  },
  {
    "Teams": "ncaabapp;ncaafapp;mlsdc;ncaabduke;ncaafduke;ncaabill;ncaafill;ncaabind;ncaafind;nflkc;ncaabmu;nflmia;ncaabminn;ncaafminn;nflne;ncaabnw;ncaafnw;ncaabrutg;ncaafrutg;ncaabshu;ncaabtenn;ncaaftenn;nhlwsh;mlbwas",
    "Name": "Blackfinn Ameripub DC",
    "Address": "1620 I St NW, Washington, DC 20006",
    "City": "WAS",
    "State": "DC",
    "latitude": 38.901179,
    "longitude": -77.037579,
    "Phone": "202-429-4350",
    "Website": "http://blackfinnameripub.com/washingtondc/"
  },
  {
    "Teams": "ncaabnavy;ncaafnavy",
    "Name": "Acme Bar & Grill",
    "Address": "163 Main St, Annapolis, MD 21401",
    "City": "WAS",
    "State": "MD",
    "latitude": 38.9776156,
    "longitude": -76.489919,
    "Phone": "410-280-6486",
    "Website": "http://www.acmegrill.com/"
  },
  {
    "Teams": "ncaabvt;ncaafvt",
    "Name": "Buffalo Wild Wings",
    "Address": "1638 Carl D. Silver Pkwy, Fredericksburg, VA 22401",
    "City": "WAS",
    "State": "VA",
    "latitude": 38.303011,
    "longitude": -77.5099826,
    "Phone": "540-548-8048",
    "Website": "https://www.buffalowildwings.com/en/locations/detail/3138/"
  },
  {
    "Teams": "nflbuf",
    "Name": "The Admiral's Cup",
    "Address": "1647 Thames St, Baltimore, MD 21231",
    "City": "WAS",
    "State": "MD",
    "latitude": 39.2816702,
    "longitude": -76.5933341,
    "Phone": "410-534-5555",
    "Website": "http://theadmiralscup.com/"
  },
  {
    "Teams": "ncaabuf;ncaafuf;ncaabncst;ncaafncst;ncaabttu;ncaafttu;ncaabvu;nhlwsh",
    "Name": "City Limits",
    "Address": "1700 E Fort Ave, Baltimore, MD 21230",
    "City": "WAS",
    "State": "MD",
    "latitude": 39.268187,
    "longitude": -76.590782,
    "Phone": "410-244-8084",
    "Website": "http://www.citylimitssportsbar.com/contact.html"
  },
  {
    "Teams": "nhlwsh",
    "Name": "Slainte Irish Pub and Restaurant",
    "Address": "1700 Thames St, Baltimore, MD 21231",
    "City": "WAS",
    "State": "MD",
    "latitude": 39.2820547,
    "longitude": -76.5925138,
    "Phone": "410-563-6600",
    "Website": "http://slaintepub.com/"
  },
  {
    "Teams": "ncaabcin;ncaafcin;nflcin;ncaabpur;ncaafpur",
    "Name": "The Bottom Line",
    "Address": "1716 I St NW, Washington, DC 20006",
    "City": "WAS",
    "State": "DC",
    "latitude": 38.9012029,
    "longitude": -77.0403222,
    "Phone": "202-298-8488",
    "Website": "http://www.thebottomlinedc.com/"
  },
  {
    "Teams": "ncaabnd;ncaafnd;ncaabpsu;ncaafpsu;nflwas",
    "Name": "The Exchange Saloon",
    "Address": "1719 G St NW, Washington, DC 20006",
    "City": "WAS",
    "State": "DC",
    "latitude": 38.8985108,
    "longitude": -77.0403604,
    "Phone": "202-393-4690",
    "Website": "http://www.theexchangesaloon.com/"
  },
  {
    "Teams": "ncaabark;ncaafark;ncaabosu;ncaafosu;ncaabtem;ncaaftem",
    "Name": "World of Beer Baltimore",
    "Address": "1724 Whetstone Way, Baltimore, MD 21230",
    "City": "WAS",
    "State": "MD",
    "latitude": 39.2684701,
    "longitude": -76.6002658,
    "Phone": "410-752-2337",
    "Website": "https://worldofbeer.com/Locations/Baltimore"
  },
  {
    "Teams": "ncaabsc;ncaafsc",
    "Name": "Quinn's",
    "Address": "1724-1744 Wilson Blvd, Arlington, VA 22209",
    "City": "WAS",
    "State": "VA",
    "latitude": 38.8938876,
    "longitude": -77.0784678,
    "Phone": "703-640-3566",
    "Website": "http://www.quinnsonthecorner.com/"
  },
  {
    "Teams": "nhlbos;nbabos;ncaabbc;ncaafbc;mlbbos;mlsdc;nflne;nflnyg",
    "Name": "Across the Pond",
    "Address": "1732 Connecticut Ave NW, Washington, DC 20009",
    "City": "WAS",
    "State": "DC",
    "latitude": 38.9136369,
    "longitude": -77.0460054,
    "Phone": "202-232-4800",
    "Website": "http://www.acrosstheponddc.com/"
  },
  {
    "Teams": "mlbwas",
    "Name": "Board Room",
    "Address": "1737 Connecticut Ave NW, Washington, DC 20009",
    "City": "WAS",
    "State": "DC",
    "latitude": 38.913669,
    "longitude": -77.045323,
    "Phone": "202-518-7666",
    "Website": "http://boardroomdc.com/"
  },
  {
    "Teams": "ncaabnd;ncaafnd;ncaabpsu;ncaafpsu",
    "Name": "The Greene Turtle Sports Bar & Grille",
    "Address": "177 Jennifer Rd, Annapolis, MD 21401",
    "City": "WAS",
    "State": "MD",
    "latitude": 38.9851702,
    "longitude": -76.5431517,
    "Phone": "410-266-7474",
    "Website": "https://thegreeneturtle.com/location/annapolis"
  },
  {
    "Teams": "ncaabmsu;ncaafmsu",
    "Name": "Crossbar",
    "Address": "18 E Cross St, Baltimore, MD 21230",
    "City": "WAS",
    "State": "MD",
    "latitude": 39.2770485,
    "longitude": -76.6135964,
    "Phone": "443-438-4013",
    "Website": "http://www.crossbarbaltimore.com/"
  },
  {
    "Teams": "nflbuf",
    "Name": "Joe Theismann's Restaurant",
    "Address": "1800 Diagonal Rd A, Alexandria, VA 22314",
    "City": "WAS",
    "State": "VA",
    "latitude": 38.8059213,
    "longitude": -77.059965,
    "Phone": "703-739-0777",
    "Website": "http://www.theismanns.com/"
  },
  {
    "Teams": "nflhou",
    "Name": "St. Arnold's",
    "Address": "1827 Jefferson Pl NW, Washington, DC 20036",
    "City": "WAS",
    "State": "DC",
    "latitude": 38.9066047,
    "longitude": -77.0427625,
    "Phone": "202-833-1321",
    "Website": "http://adamsmorganbar.com/St_Arnolds_on_Jefferson.html"
  },
  {
    "Teams": "ncaabmia;ncaafmia",
    "Name": "1831 Bar & Lounge",
    "Address": "1831 M St NW, Washington, DC 20036",
    "City": "WAS",
    "State": "DC",
    "latitude": 38.905831,
    "longitude": -77.042984,
    "Phone": "202-223-1831",
    "Website": "http://www.1831dc.com/"
  },
  {
    "Teams": "nflnyg;ncaabmiss;ncaafmiss;ncaabuva;ncaafuva",
    "Name": "Rebellion",
    "Address": "1836 18th St NW, Washington, DC 20009",
    "City": "WAS",
    "State": "DC",
    "latitude": 38.9153316,
    "longitude": -77.0418431,
    "Phone": "202-299-0399",
    "Website": "https://rebelliondc.com/"
  },
  {
    "Teams": "ncaablsu;ncaaflsu",
    "Name": "Rhodeside Grill",
    "Address": "1836 Wilson Blvd, Arlington, VA 22201",
    "City": "WAS",
    "State": "VA",
    "latitude": 38.892966,
    "longitude": -77.080254,
    "Phone": "703-243-0145",
    "Website": "http://www.rhodesidegrill.com/"
  },
  {
    "Teams": "ncaabarmy;ncaafarmy;ncaabvt;ncaafvt",
    "Name": "The Greene Turtle Sports Bar & Grille",
    "Address": "185 Kernstown Commons Blvd, Winchester, VA 22602",
    "City": "WAS",
    "State": "VA",
    "latitude": 39.1185349,
    "longitude": -78.1945272,
    "Phone": "540-508-4164",
    "Website": "https://thegreeneturtle.com/location/winchester"
  },
  {
    "Teams": "nflcar",
    "Name": "Crafthouse",
    "Address": "1888 Explorer St, Reston, VA 20190",
    "City": "WAS",
    "State": "VA",
    "latitude": 38.9578521,
    "longitude": -77.3607192,
    "Phone": "571-926-9931",
    "Website": "https://www.crafthouseusa.com/"
  },
  {
    "Teams": "nflbal",
    "Name": "Charles Village Pub & Patio",
    "Address": "19 W Pennsylvania Ave, Towson, MD 21204",
    "City": "WAS",
    "State": "MD",
    "latitude": 39.400425,
    "longitude": -76.6039935,
    "Phone": "410-821-8155",
    "Website": "http://www.cvptowson.com/"
  },
  {
    "Teams": "nflphi",
    "Name": "District Anchor",
    "Address": "1900 M St NW #600, Washington, DC 20036",
    "City": "WAS",
    "State": "DC",
    "latitude": 38.9053291,
    "longitude": -77.0437,
    "Phone": "202-466-7378",
    "Website": ""
  },
  {
    "Teams": "mlbwas",
    "Name": "Continental Pool Lounge",
    "Address": "1911 Fort Myer Drive @ the corner of Lee Hwy &amp;, N Moore St, Arlington, VA 22209",
    "City": "WAS",
    "State": "VA",
    "latitude": 38.8980102,
    "longitude": -77.0719922,
    "Phone": "703-465-7675",
    "Website": "https://continentalpoollounge.com/"
  },
  {
    "Teams": "nflbuf",
    "Name": "The Copper Still Pub",
    "Address": "1911 Winchester Ave, Martinsburg, WV 25405",
    "City": "WAS",
    "State": "WV",
    "latitude": 39.4322012,
    "longitude": -77.9857169,
    "Phone": "304-260-5566",
    "Website": "http://www.thecopperstillpub.com/"
  },
  {
    "Teams": "nflmia;ncaabosu;ncaafosu",
    "Name": "Solly's",
    "Address": "1942 11th St NW, Washington, DC 20001",
    "City": "WAS",
    "State": "DC",
    "latitude": 38.9168523,
    "longitude": -77.0273164,
    "Phone": "202-232-6590",
    "Website": "http://sollysbooking.wixsite.com/sollys"
  },
  {
    "Teams": "ncaabcle;ncaafcle",
    "Name": "World of Beer",
    "Address": "196 E Montgomery Ave #B, Rockville, MD 20850",
    "City": "WAS",
    "State": "MD",
    "latitude": 39.0842574,
    "longitude": -77.1503315,
    "Phone": "301-340-2915",
    "Website": "http://www.worldofbeer.com/locations/rockville"
  },
  {
    "Teams": "ncaabxu",
    "Name": "Nacho Mama's Towson",
    "Address": "2 W Pennsylvania Ave, Towson, MD 21204",
    "City": "WAS",
    "State": "MD",
    "latitude": 39.4006766,
    "longitude": -76.602918,
    "Phone": "410-673-0069",
    "Website": "http://www.mamasmd.com/"
  },
  {
    "Teams": "nhlwsh;nbawas",
    "Name": "Lucky Strike Washington DC",
    "Address": "2, 701 7th St NW, Washington, DC 20001",
    "City": "WAS",
    "State": "DC",
    "latitude": 38.8990504,
    "longitude": -77.0203753,
    "Phone": "202-347-1021",
    "Website": "http://www.bowlluckystrike.com/locations/washington-dc/washington-dc/"
  },
  {
    "Teams": "mlsdc;mlbwas",
    "Name": "The Big Stick",
    "Address": "20 M St SE, Washington, DC 20003",
    "City": "WAS",
    "State": "DC",
    "latitude": 38.8766572,
    "longitude": -77.0076313,
    "Phone": "202-750-7724",
    "Website": "http://www.thebigstick.com/"
  },
  {
    "Teams": "mlsdc",
    "Name": "Big Chief",
    "Address": "2002 Fenwick St NE, Washington, DC 20002",
    "City": "WAS",
    "State": "DC",
    "latitude": 38.914769,
    "longitude": -76.9850585,
    "Phone": "202-465-4241",
    "Website": "http://www.bigchiefdc.com/"
  },
  {
    "Teams": "ncaabgt;ncaafgt;nhlwsh",
    "Name": "Blaguard",
    "Address": "2003 18th St NW, Washington, DC 20009",
    "City": "WAS",
    "State": "DC",
    "latitude": 38.917293,
    "longitude": -77.041383,
    "Phone": "202-232-9005",
    "Website": "http://www.blaguarddc.com/"
  },
  {
    "Teams": "nflchi;ncaabfsu;ncaaffsu;ncaabull;ncaafull;ncaabmsst;ncaafmsst;ncaabniu;ncaafniu;ncaabttu;ncaafttu",
    "Name": "Union Pub",
    "Address": "201 Massachusetts Ave NE, Washington, DC 20002",
    "City": "WAS",
    "State": "DC",
    "latitude": 38.894588,
    "longitude": -77.00304,
    "Phone": "202-546-7200",
    "Website": "http://www.unionpubdc.com/"
  },
  {
    "Teams": "ncaabumd;ncaafumd",
    "Name": "West End Grill",
    "Address": "2049 West St, Annapolis, MD 21401",
    "City": "WAS",
    "State": "MD",
    "latitude": 38.982571,
    "longitude": -76.536842,
    "Phone": "410-266-7662",
    "Website": "http://www.westendgrillannapolis.com/"
  },
  {
    "Teams": "ncaabarmy;ncaafarmy;mlbbos;mlsdc;ncaabpsu;ncaafpsu;ncaabwake;ncaafwake",
    "Name": "Ireland's Four Courts",
    "Address": "2051 Wilson Blvd, Arlington, VA 22201",
    "City": "WAS",
    "State": "VA",
    "latitude": 38.8919228,
    "longitude": -77.0842142,
    "Phone": "703-525-3600",
    "Website": "http://www.irelandsfourcourts.com/"
  },
  {
    "Teams": "mlbbal;ncaabfsu;ncaaffsu",
    "Name": "Pratt Street Ale House",
    "Address": "206 W Pratt St, Baltimore, MD 21201",
    "City": "WAS",
    "State": "MD",
    "latitude": 39.2865834,
    "longitude": -76.618148,
    "Phone": "410-244-8900",
    "Website": "http://www.prattstreetalehouse.com/"
  },
  {
    "Teams": "ncaabumd;ncaafumd",
    "Name": "Union Jack's British Pub",
    "Address": "2072 Somerville Rd, Annapolis, MD 21401",
    "City": "WAS",
    "State": "MD",
    "latitude": 38.9825478,
    "longitude": -76.5388326,
    "Phone": "410-266-5681",
    "Website": "http://www.unionjacksannapolis.com/"
  },
  {
    "Teams": "ncaabuw;ncaafuw",
    "Name": "Red Bear Brewing Co",
    "Address": "209 M St NE, Washington, DC 20002",
    "City": "WAS",
    "State": "DC",
    "latitude": 38.9054405,
    "longitude": -77.002436,
    "Phone": "202-849-6130",
    "Website": "http://www.redbear.beer/"
  },
  {
    "Teams": "ncaabcal;ncaafcal;ncaabstan;ncaafstan;ncaabvu;ncaabwake;ncaafwake",
    "Name": "Stoney's on L",
    "Address": "2101 L St NW Suite #103, Washington, DC 20037",
    "City": "WAS",
    "State": "DC",
    "latitude": 38.9038635,
    "longitude": -77.0472558,
    "Phone": "202-721-0019",
    "Website": "http://www.stoneysonl.com/"
  },
  {
    "Teams": "ncaabcal;ncaafcal;nfldal",
    "Name": "HomeSlyce K Street DC",
    "Address": "2121 K St NW, Washington, DC 20037",
    "City": "WAS",
    "State": "DC",
    "latitude": 38.9029059,
    "longitude": -77.0471797,
    "Phone": "202-559-1555",
    "Website": "http://www.homeslyce.com/"
  },
  {
    "Teams": "mlbwas",
    "Name": "Winchester Moose Lodge",
    "Address": "215 E Cork St, Winchester, VA 22601",
    "City": "WAS",
    "State": "VA",
    "latitude": 39.1806196,
    "longitude": -78.1625092,
    "Phone": "540-665-8114",
    "Website": "http://lodge1283.moosepages.org/Calendar/"
  },
  {
    "Teams": "nflbuf",
    "Name": "Federal House",
    "Address": "22 Market Space, Annapolis, MD 21401",
    "City": "WAS",
    "State": "MD",
    "latitude": 38.9781205,
    "longitude": -76.4875035,
    "Phone": "410-268-2576",
    "Website": "http://www.federalhouserestaurant.com/"
  },
  {
    "Teams": "ncaabcolo;ncaafcolo;ncaabnc;ncaafnc",
    "Name": "Bartenders",
    "Address": "2218 Boston St, Baltimore, MD 21231",
    "City": "WAS",
    "State": "MD",
    "latitude": 39.2836167,
    "longitude": -76.5850594,
    "Phone": "410-534-2337",
    "Website": "https://m.facebook.com/bartenders.pub/"
  },
  {
    "Teams": "nhlwsh",
    "Name": "Tunnicliff's Tavern",
    "Address": "222 7th St SE, Washington, DC 20003",
    "City": "WAS",
    "State": "DC",
    "latitude": 38.8865627,
    "longitude": -76.995776,
    "Phone": "202-544-5680",
    "Website": "https://twitter.com/tunnicliffs"
  },
  {
    "Teams": "nflphi",
    "Name": "Days Off Deli & Grill, llc",
    "Address": "22608 Three Notch Rd, Lexington Park, MD 20653",
    "City": "WAS",
    "State": "MD",
    "latitude": 38.2899681,
    "longitude": -76.4831257,
    "Phone": "240-237-8310",
    "Website": "http://www.daysoffdeli.com/"
  },
  {
    "Teams": "ncaabmsu;ncaafmsu",
    "Name": "Capitol Lounge",
    "Address": "229 Pennsylvania Ave SE, Washington, DC 20003",
    "City": "WAS",
    "State": "DC",
    "latitude": 38.8869652,
    "longitude": -77.0024373,
    "Phone": "202-547-2098",
    "Website": "http://www.capitolloungedc.com/"
  },
  {
    "Teams": "ncaabfiu;ncaaffiu;ncaabodu;ncaafodu;ncaabtamu;ncaaftamu",
    "Name": "Courthaus Social",
    "Address": "2300 Clarendon Blvd, Arlington, VA 22201",
    "City": "WAS",
    "State": "VA",
    "latitude": 38.8902444,
    "longitude": -77.0865259,
    "Phone": "703-243-4900",
    "Website": "http://www.courthaussocial.com/"
  },
  {
    "Teams": "mlbwas",
    "Name": "William Jeffrey's Tavern",
    "Address": "2301 Columbia Pike, Arlington, VA 22204",
    "City": "WAS",
    "State": "VA",
    "latitude": 38.863768,
    "longitude": -77.08304,
    "Phone": "703-746-6333",
    "Website": "http://williamjeffreystavern.com/"
  },
  {
    "Teams": "ncaabuk;ncaafuk;nflsf;mlbsf",
    "Name": "Town Tavern DC",
    "Address": "2323 18th St NW, Washington, DC 20009",
    "City": "WAS",
    "State": "DC",
    "latitude": 38.9203387,
    "longitude": -77.0415492,
    "Phone": "202-387-8696",
    "Website": "http://www.towntaverndc.com/"
  },
  {
    "Teams": "ncaabmrsh;ncaafmrsh;ncaabwis;ncaafwis",
    "Name": "Hamilton's Bar & Grill",
    "Address": "233 2nd St NW, Washington, DC 20001",
    "City": "WAS",
    "State": "DC",
    "latitude": 38.8933108,
    "longitude": -77.0133963,
    "Phone": "202-347-6555",
    "Website": "http://hamiltonsdc.com/"
  },
  {
    "Teams": "ncaabaub;ncaafaub;nflpit",
    "Name": "Johnny Pistolas",
    "Address": "2333 18th St NW, Washington, DC 20009",
    "City": "WAS",
    "State": "DC",
    "latitude": 38.9204955,
    "longitude": -77.0416448,
    "Phone": "202-817-3255",
    "Website": "http://www.johnnypistolas.com/"
  },
  {
    "Teams": "mlbwas",
    "Name": "Arcuri",
    "Address": "2400 Wisconsin Ave NW, Washington, DC 20007",
    "City": "WAS",
    "State": "DC",
    "latitude": 38.921193,
    "longitude": -77.072335,
    "Phone": "202-827-8745",
    "Website": "http://www.arcuripizza.com/"
  },
  {
    "Teams": "ncaabasu;ncaafasu",
    "Name": "The Game Sports Pub",
    "Address": "2411 18th St NW, Washington, DC 20009",
    "City": "WAS",
    "State": "DC",
    "latitude": 38.9208451,
    "longitude": -77.0418704,
    "Phone": "202-846-1952",
    "Website": "http://thegamedc.com/"
  },
  {
    "Teams": "ncaabcle;ncaafcle;ncaabcsu;ncaafcsu;ncaabuf;ncaafuf;ncaabusf;ncaafusf;nfltb;ncaabuva;ncaafuva;mlbwas",
    "Name": "Arlington Rooftop Bar & Grill",
    "Address": "2424 Wilson Blvd, Arlington, VA 22201",
    "City": "WAS",
    "State": "VA",
    "latitude": 38.890428,
    "longitude": -77.088262,
    "Phone": "703-528-3030",
    "Website": "http://www.arlrooftop.com/"
  },
  {
    "Teams": "ncaabstan;ncaafstan;mlbwas",
    "Name": "Mellow Mushroom Adams Morgan",
    "Address": "2436 18th St NW, Washington, DC 20009",
    "City": "WAS",
    "State": "DC",
    "latitude": 38.921605,
    "longitude": -77.042495,
    "Phone": "202-290-2778",
    "Website": "https://mellowmushroom.com/location/dc-washington-2436-18th-st-nw-20009/"
  },
  {
    "Teams": "nflbuf",
    "Name": "Grand Central",
    "Address": "2447 18th St NW, Washington, DC 20009",
    "City": "WAS",
    "State": "DC",
    "latitude": 38.9217499,
    "longitude": -77.0420238,
    "Phone": "202-986-1742",
    "Website": "http://grandcentraldc.com/"
  },
  {
    "Teams": "mlbwas",
    "Name": "Not Your Average Joe's",
    "Address": "245 Kentlands Blvd, Gaithersburg, MD 20878",
    "City": "WAS",
    "State": "MD",
    "latitude": 39.1249757,
    "longitude": -77.2393927,
    "Phone": "240-477-1040",
    "Website": "https://goo.gl/LCZCnb"
  },
  {
    "Teams": "mlbwas",
    "Name": "Shenanigan's Irish Pub",
    "Address": "2450 18th St NW #2004, Washington, DC 20009",
    "City": "WAS",
    "State": "DC",
    "latitude": 38.9219321,
    "longitude": -77.0427093,
    "Phone": "202-588-7405",
    "Website": "http://www.shenaniganspubdc.com/"
  },
  {
    "Teams": "ncaabou;ncaafou",
    "Name": "Buffalo Wild Wings",
    "Address": "2450 Crystal Dr, Arlington, VA 22202",
    "City": "WAS",
    "State": "VA",
    "latitude": 38.853019,
    "longitude": -77.050059,
    "Phone": "703-413-0160",
    "Website": "http://buffalowildwings.com/"
  },
  {
    "Teams": "ncaabnd;ncaafnd",
    "Name": "Social Pub & Pie",
    "Address": "25 E Cross St, Baltimore, MD 21230",
    "City": "WAS",
    "State": "MD",
    "latitude": 39.2765724,
    "longitude": -76.6133588,
    "Phone": "410-234-8488",
    "Website": "http://socialpubandpie.com/"
  },
  {
    "Teams": "nflnyg",
    "Name": "Smaltimore",
    "Address": "2522 Fait Ave, Baltimore, MD 21224",
    "City": "WAS",
    "State": "MD",
    "latitude": 39.2832547,
    "longitude": -76.5804105,
    "Phone": "410-522-1421",
    "Website": "http://www.smaltimoremd.com/"
  },
  {
    "Teams": "nhlwsh",
    "Name": "Hudson Street Stack House",
    "Address": "2626 Hudson St, Baltimore, MD 21224",
    "City": "WAS",
    "State": "MD",
    "latitude": 39.2822938,
    "longitude": -76.5788377,
    "Phone": "410-342-0592",
    "Website": "http://www.hudsonstreetstackhouse.com/"
  },
  {
    "Teams": "ncaabcle;ncaafcle;ncaabduke;ncaafduke",
    "Name": "Silks",
    "Address": "2641 Hudson St, Baltimore, MD 21224",
    "City": "WAS",
    "State": "MD",
    "latitude": 39.2820005,
    "longitude": -76.5785443,
    "Phone": "443-708-0317",
    "Website": ""
  },
  {
    "Teams": "ncaabaub;ncaafaub",
    "Name": "Dudley's Sport and Ale",
    "Address": "2766 S Arlington Mill Dr, Arlington, VA 22206",
    "City": "WAS",
    "State": "VA",
    "latitude": 38.8412834,
    "longitude": -77.088406,
    "Phone": "571-312-2304",
    "Website": "http://www.dudleyssportandale.com/"
  },
  {
    "Teams": "nflbal",
    "Name": "Bo Brooks Restaurant",
    "Address": "2780 Lighthouse Point E, Baltimore, MD 21224",
    "City": "WAS",
    "State": "MD",
    "latitude": 39.2774377,
    "longitude": -76.578794,
    "Phone": "410-558-0202",
    "Website": "http://www.bobrooks.com/"
  },
  {
    "Teams": "ncaabiowa;ncaafiowa",
    "Name": "Canton's Portside Tavern",
    "Address": "2821 O'Donnell St, Baltimore, MD 21224",
    "City": "WAS",
    "State": "MD",
    "latitude": 39.2799396,
    "longitude": -76.5760113,
    "Phone": "410-522-7678",
    "Website": "http://www.portsidetaverncanton.com/"
  },
  {
    "Teams": "ncaabpsu;ncaafpsu",
    "Name": "Whitlow's On Wilson",
    "Address": "2854 Wilson Blvd, Arlington, VA 22201",
    "City": "WAS",
    "State": "VA",
    "latitude": 38.8886903,
    "longitude": -77.0929581,
    "Phone": "703-276-9693",
    "Website": "http://www.whitlows.com/"
  },
  {
    "Teams": "ncaabuva;ncaafuva",
    "Name": "Rebellion On The Pike",
    "Address": "2900 Columbia Pike, Arlington, VA 22204",
    "City": "WAS",
    "State": "VA",
    "latitude": 38.8623122,
    "longitude": -77.08723,
    "Phone": "703-521-2419",
    "Website": "https://rebelliononthepike.com/"
  },
  {
    "Teams": "nflbal;ncaabumd;ncaafumd",
    "Name": "Looney's Pub",
    "Address": "2900 O'Donnell St, Baltimore, MD 21224",
    "City": "WAS",
    "State": "MD",
    "latitude": 39.2805104,
    "longitude": -76.5753237,
    "Phone": "410-675-9235",
    "Website": "http://www.looneyspubmd.com/"
  },
  {
    "Teams": "ncaabuva;ncaafuva;ncaabwake;ncaafwake",
    "Name": "Claddagh Pub",
    "Address": "2918 O'Donnell St, Baltimore, MD 21224",
    "City": "WAS",
    "State": "MD",
    "latitude": 39.2804754,
    "longitude": -76.5748567,
    "Phone": "410-522-4220",
    "Website": "http://www.claddaghbaltimore.com/"
  },
  {
    "Teams": "ncaabaub;ncaafaub",
    "Name": "El Bufalo Tequila Bar & Kitchen",
    "Address": "2921 O'Donnell St, Baltimore, MD 21224",
    "City": "WAS",
    "State": "MD",
    "latitude": 39.2798882,
    "longitude": -76.5749652,
    "Phone": "410-814-0594",
    "Website": "http://www.elbufalobaltimore.com/"
  },
  {
    "Teams": "mlsdc;mlbwas;ncaabbama;ncaafbama;mlsdc",
    "Name": "Bluejacket",
    "Address": "300 Tingey St SE, Washington, DC 20003",
    "City": "WAS",
    "State": "DC",
    "latitude": 38.8750911,
    "longitude": -77.000774,
    "Phone": "202-524-4862",
    "Website": "http://www.bluejacketdc.com/"
  },
  {
    "Teams": "nflphi",
    "Name": "Southern Provisions",
    "Address": "3000 O'Donnell St, Baltimore, MD 21224",
    "City": "WAS",
    "State": "MD",
    "latitude": 39.280547,
    "longitude": -76.5738723,
    "Phone": "410-675-4029",
    "Website": "http://southern-provisions.com/"
  },
  {
    "Teams": "mlsdc;mlbwas",
    "Name": "Agua 301 Restaurant",
    "Address": "301 Water St SE, Washington, DC 20003",
    "City": "WAS",
    "State": "DC",
    "latitude": 38.8732684,
    "longitude": -77.0017124,
    "Phone": "202-484-0301",
    "Website": "http://www.agua301.com/"
  },
  {
    "Teams": "mlsdc;ncaabumd;ncaafumd;ncaabvt;ncaafvt;nhlwsh;mlbwas",
    "Name": "The G.O.A.T",
    "Address": "3028 Wilson Blvd, Arlington, VA 22201",
    "City": "WAS",
    "State": "VA",
    "latitude": 38.887317,
    "longitude": -77.0947413,
    "Phone": "703-528-8888",
    "Website": "http://www.thegoatva.com/"
  },
  {
    "Teams": "nfldal;nhlwsh;mlbwas",
    "Name": "Glory Days Grill",
    "Address": "3059 Nutley St, Fairfax, VA 22031",
    "City": "WAS",
    "State": "VA",
    "latitude": 38.8702581,
    "longitude": -77.2609482,
    "Phone": "703-204-0900",
    "Website": "https://www.glorydaysgrill.com/locations/virginia/fairfax/"
  },
  {
    "Teams": "ncaabmich;ncaafmich;nflne",
    "Name": "Bar Bao",
    "Address": "3100 Clarendon Blvd, Arlington, VA 22201",
    "City": "WAS",
    "State": "VA",
    "latitude": 38.886345,
    "longitude": -77.095489,
    "Phone": "703-600-0500",
    "Website": "http://barbao.com/"
  },
  {
    "Teams": "mlsdc",
    "Name": "Ri Ra Georgetown",
    "Address": "3125 M St NW, Washington, DC 20007",
    "City": "WAS",
    "State": "DC",
    "latitude": 38.9053892,
    "longitude": -77.0619138,
    "Phone": "202-751-2111",
    "Website": "http://www.rira.com/georgetown"
  },
  {
    "Teams": "nflbuf",
    "Name": "Hard Times Cafe",
    "Address": "314 Jefferson Davis Hwy, Fredericksburg, VA 22401",
    "City": "WAS",
    "State": "VA",
    "latitude": 38.316856,
    "longitude": -77.4720964,
    "Phone": "540-899-6555",
    "Website": "http://www.hardtimes.com/"
  },
  {
    "Teams": "ncaabuva;ncaafuva",
    "Name": "Don Tito",
    "Address": "3165 Wilson Blvd, Arlington, VA 22201",
    "City": "WAS",
    "State": "VA",
    "latitude": 38.8866329,
    "longitude": -77.0963161,
    "Phone": "703-566-3113",
    "Website": "http://www.dontitova.com/"
  },
  {
    "Teams": "mlsdc",
    "Name": "DC Brau",
    "Address": "3178 Bladensburg Rd NE Suite B, Washington, DC 20018",
    "City": "WAS",
    "State": "DC",
    "latitude": 38.9295262,
    "longitude": -76.9601724,
    "Phone": "202-621-8890",
    "Website": "http://www.dcbrau.com/"
  },
  {
    "Teams": "ncaabind;ncaafind;ncaabvt;ncaafvt;mlbwas",
    "Name": "Spider Kelly's",
    "Address": "3181 Wilson Blvd, Arlington, VA 22201",
    "City": "WAS",
    "State": "VA",
    "latitude": 38.8865428,
    "longitude": -77.0964699,
    "Phone": "703-312-8888",
    "Website": "http://www.spiderkellys.com/"
  },
  {
    "Teams": "ncaabbama;ncaafbama;nflcar",
    "Name": "Tin Roof",
    "Address": "32 Market Pl, Baltimore, MD 21202",
    "City": "WAS",
    "State": "MD",
    "latitude": 39.2889302,
    "longitude": -76.607229,
    "Phone": "443-873-8137",
    "Website": "http://www.tinroofbaltimore.com/"
  },
  {
    "Teams": "mlbwas",
    "Name": "Marx Cafe Revolutionary Cuisine",
    "Address": "3203 Mt Pleasant St NW, Washington, DC 20010",
    "City": "WAS",
    "State": "DC",
    "latitude": 38.9313731,
    "longitude": -77.0381349,
    "Phone": "202-518-7600",
    "Website": "http://www.marxcafemtp.com/"
  },
  {
    "Teams": "ncaabcle;ncaafcle;mlsdc",
    "Name": "O'Sullivan's Irish Pub",
    "Address": "3207 Washington Blvd, Arlington, VA 22201",
    "City": "WAS",
    "State": "VA",
    "latitude": 38.8861822,
    "longitude": -77.0971856,
    "Phone": "703-812-0939",
    "Website": "http://www.osullivansirishpub.com/"
  },
  {
    "Teams": "ncaabmem;ncaafmem",
    "Name": "Georgetown Piano Bar",
    "Address": "3287 M St NW, Washington, DC 20007",
    "City": "WAS",
    "State": "DC",
    "latitude": 38.9053261,
    "longitude": -77.0656643,
    "Phone": "202-827-3236",
    "Website": "http://www.georgetownpianobar.com/"
  },
  {
    "Teams": "ncaabark;ncaafark;ncaabksu;ncaafksu",
    "Name": "Hawk 'n' Dove",
    "Address": "329 Pennsylvania Ave SE, Washington, DC 20003",
    "City": "WAS",
    "State": "DC",
    "latitude": 38.886375,
    "longitude": -77.001214,
    "Phone": "202-547-0030",
    "Website": "http://hawkndovebardc.com/"
  },
  {
    "Teams": "mlbbal;nflnyg;nhlwsh;mlbwas",
    "Name": "Nanny O'Briens",
    "Address": "3319 Connecticut Ave NW, Washington, DC 20008",
    "City": "WAS",
    "State": "DC",
    "latitude": 38.9340704,
    "longitude": -77.0573795,
    "Phone": "202-686-9189",
    "Website": "http://nannyobriens.com/"
  },
  {
    "Teams": "ncaabmich;ncaafmich",
    "Name": "The Midlands Beer Garden",
    "Address": "3333 Georgia Ave NW, Washington, DC 20010",
    "City": "WAS",
    "State": "DC",
    "latitude": 38.9318883,
    "longitude": -77.0233233,
    "Phone": "",
    "Website": "http://www.midlandsdc.com/"
  },
  {
    "Teams": "ncaabmich;ncaafmich",
    "Name": "HomeSlyce",
    "Address": "336 N Charles St, Baltimore, MD 21201",
    "City": "WAS",
    "State": "MD",
    "latitude": 39.2937281,
    "longitude": -76.6157412,
    "Phone": "443-501-4000",
    "Website": "http://www.homeslyce.com/"
  },
  {
    "Teams": "nhlwsh",
    "Name": "Meridian Pint",
    "Address": "3400 11th St NW, Washington, DC 20010",
    "City": "WAS",
    "State": "DC",
    "latitude": 38.9319143,
    "longitude": -77.028443,
    "Phone": "202-588-1075",
    "Website": "http://www.meridianpint.com/"
  },
  {
    "Teams": "mlbwas",
    "Name": "Atomic Billiards",
    "Address": "3427 Connecticut Ave NW, Washington, DC 20008",
    "City": "WAS",
    "State": "DC",
    "latitude": 38.935263,
    "longitude": -77.057811,
    "Phone": "202-363-7665",
    "Website": "http://atomicbilliards.com/"
  },
  {
    "Teams": "mlsdc",
    "Name": "Rocklands Barbeque & Grilling Company",
    "Address": "3471 Washington Blvd, Arlington, VA 22201",
    "City": "WAS",
    "State": "VA",
    "latitude": 38.8862414,
    "longitude": -77.1034696,
    "Phone": "703-528-9663",
    "Website": "http://rocklands.com/"
  },
  {
    "Teams": "mlsdc",
    "Name": "Babylon Futbol Cafe",
    "Address": "3501 S Jefferson St, Falls Church, VA 22041",
    "City": "WAS",
    "State": "VA",
    "latitude": 38.8488911,
    "longitude": -77.1173219,
    "Phone": "703-820-3900",
    "Website": "http://www.babylonfc.com/"
  },
  {
    "Teams": "ncaabbama;ncaafbama",
    "Name": "Smith Public Trust",
    "Address": "3514 12th St NE, Washington, DC 20017",
    "City": "WAS",
    "State": "DC",
    "latitude": 38.9329869,
    "longitude": -76.9911468,
    "Phone": "202-733-5834",
    "Website": "http://smithpublictrustdc.com/"
  },
  {
    "Teams": "mlsdc;mlbwas",
    "Name": "The Airedale DC",
    "Address": "3605 14th St NW, Washington, DC 20010",
    "City": "WAS",
    "State": "DC",
    "latitude": 38.9364275,
    "longitude": -77.0323936,
    "Phone": "202-722-1212",
    "Website": "http://www.airedaledc.com/"
  },
  {
    "Teams": "mlbwas",
    "Name": "DC Reynolds",
    "Address": "3628 Georgia Ave NW, Washington, DC 20010",
    "City": "WAS",
    "State": "DC",
    "latitude": 38.9348703,
    "longitude": -77.0243991,
    "Phone": "202-506-7178",
    "Website": ""
  },
  {
    "Teams": "ncaabcsu;ncaafcsu",
    "Name": "Walter's Sports Bar",
    "Address": "3632 Georgia Ave NW, Washington, DC 20010",
    "City": "WAS",
    "State": "DC",
    "latitude": 38.934968,
    "longitude": -77.0244733,
    "Phone": "202-723-0713",
    "Website": "http://www.waltersdc.com/"
  },
  {
    "Teams": "ncaabcle;ncaafcle",
    "Name": "Stan & Joes Saloon West",
    "Address": "37 West St, Annapolis, MD 21401",
    "City": "WAS",
    "State": "MD",
    "latitude": 38.9782512,
    "longitude": -76.4947701,
    "Phone": "410-263-1993",
    "Website": "http://www.stanandjoessaloon.com/"
  },
  {
    "Teams": "ncaabuga;ncaafuga",
    "Name": "Huck's American Craft",
    "Address": "3728 Hudson St, Baltimore, MD 21224",
    "City": "WAS",
    "State": "MD",
    "latitude": 39.282818,
    "longitude": -76.5651369,
    "Phone": "443-438-3380",
    "Website": "http://hucksamericancraft.com/"
  },
  {
    "Teams": "ncaabuva;ncaafuva",
    "Name": "Boatyard Bar & Grill",
    "Address": "400 4th St, Annapolis, MD 21403",
    "City": "WAS",
    "State": "MD",
    "latitude": 38.9712112,
    "longitude": -76.4824582,
    "Phone": "410-216-6206",
    "Website": "http://www.boatyardbarandgrill.com/"
  },
  {
    "Teams": "mlbbal",
    "Name": "Diamond Tavern",
    "Address": "401 W Pratt St, Baltimore, MD 21201",
    "City": "WAS",
    "State": "MD",
    "latitude": 39.285566,
    "longitude": -76.6203232,
    "Phone": "443-573-8777",
    "Website": "http://www1.hilton.com/en_US/hi/hotel/BWICCHH-Hilton-Baltimore-Maryland/dining.do"
  },
  {
    "Teams": "ncaabttu;ncaafttu",
    "Name": "Bullfeathers",
    "Address": "410 First St SE, Washington, DC 20003",
    "City": "WAS",
    "State": "DC",
    "latitude": 38.8846292,
    "longitude": -77.0056905,
    "Phone": "202-484-0228",
    "Website": "http://dcbullfeathers.com/"
  },
  {
    "Teams": "ncaablou;ncaaflou",
    "Name": "The Bronson Bierhall",
    "Address": "4100 Fairfax Dr Suite 100, Arlington, VA 22203",
    "City": "WAS",
    "State": "VA",
    "latitude": 38.8821617,
    "longitude": -77.1096334,
    "Phone": "703-528-1110",
    "Website": "https://www.bronsonbierhall.com/"
  },
  {
    "Teams": "nflbal",
    "Name": "Alonso's",
    "Address": "415 W Cold Spring Ln, Baltimore, MD 21210",
    "City": "WAS",
    "State": "MD",
    "latitude": 39.3444891,
    "longitude": -76.6309458,
    "Phone": "410-235-3433",
    "Website": "http://www.alonsos.com/"
  },
  {
    "Teams": "ncaabtcu;ncaaftcu;ncaabvan;ncaafvan",
    "Name": "The Big Board",
    "Address": "421 H St NE, Washington, DC 20002",
    "City": "WAS",
    "State": "DC",
    "latitude": 38.9000715,
    "longitude": -76.9997651,
    "Phone": "202-543-3630",
    "Website": "http://thebigboarddc.com/"
  },
  {
    "Teams": "mlbwas",
    "Name": "First Down Sports Bar & Grill",
    "Address": "4213 Fairfax Dr, Arlington, VA 22203",
    "City": "WAS",
    "State": "VA",
    "latitude": 38.882406,
    "longitude": -77.111256,
    "Phone": "703-465-8888",
    "Website": "http://www.firstdownsportsbar.com/"
  },
  {
    "Teams": "mlsdc",
    "Name": "Copa Kitchen & Bar",
    "Address": "4238 Wilson Blvd Suite 150, Arlington, VA 22203",
    "City": "WAS",
    "State": "VA",
    "latitude": 38.8793846,
    "longitude": -77.1107787,
    "Phone": "571-483-0324",
    "Website": "http://www.copakitchenbar.com/"
  },
  {
    "Teams": "mlsdc",
    "Name": "Tenley Bar & Grill",
    "Address": "4611 41st St NW, Washington, DC 20016",
    "City": "WAS",
    "State": "DC",
    "latitude": 38.950078,
    "longitude": -77.0801083,
    "Phone": "202-237-1783",
    "Website": "http://www.tenleybarandgrill.com/"
  },
  {
    "Teams": "ncaabaub;ncaafaub;nflwas",
    "Name": "The Barking Dog",
    "Address": "4723 Elm St, Bethesda, MD 20814",
    "City": "WAS",
    "State": "MD",
    "latitude": 38.9823363,
    "longitude": -77.0952355,
    "Phone": "301-654-0022",
    "Website": "https://www.barkingdogbar.com/"
  },
  {
    "Teams": "mlbwas",
    "Name": "Cowboy Cafe",
    "Address": "4792 Lee Hwy, Arlington, VA 22207",
    "City": "WAS",
    "State": "VA",
    "latitude": 38.8967156,
    "longitude": -77.1252583,
    "Phone": "703-243-8010",
    "Website": "http://www.thecowboycafe.com/"
  },
  {
    "Teams": "mlsdc;ncaabumd;ncaafumd;ncaabmich;ncaafmich;ncaabnw;ncaafnw",
    "Name": "Brickside Food & Drink",
    "Address": "4866 Cordell Ave, Bethesda, MD 20814",
    "City": "WAS",
    "State": "MD",
    "latitude": 38.9895333,
    "longitude": -77.0976333,
    "Phone": "301-312-6160",
    "Website": "http://www.bricksidebethesda.com/"
  },
  {
    "Teams": "ncaabuf;ncaafuf;ncaabusf;ncaafusf;nflwas",
    "Name": "Tapp'd",
    "Address": "4915 St Elmo Ave, Bethesda, MD 20814",
    "City": "WAS",
    "State": "MD",
    "latitude": 38.9886383,
    "longitude": -77.0978354,
    "Phone": "240-630-8120",
    "Website": "http://www.tappdbethesda.com/"
  },
  {
    "Teams": "ncaabuva;ncaafuva;nhlwsh;mlbwas",
    "Name": "Caddies On Cordell",
    "Address": "4922 Cordell Ave, Bethesda, MD 20814",
    "City": "WAS",
    "State": "MD",
    "latitude": 38.988608,
    "longitude": -77.09846,
    "Phone": "301-215-7730",
    "Website": "http://www.caddiesoncordell.com/"
  },
  {
    "Teams": "mlbwas",
    "Name": "Washington Rockville Lodge",
    "Address": "5 Taft Ct, Rockville, MD 20850",
    "City": "WAS",
    "State": "MD",
    "latitude": 39.0960962,
    "longitude": -77.1303749,
    "Phone": "301-424-2202",
    "Website": "http://www.washington-rockville-elks.com/"
  },
  {
    "Teams": "ncaabcsu;ncaafcsu;mlsdc;nhlnyi;nflnyj;ncaabore;ncaafore;mlspor",
    "Name": "Irish Channel Restaurant & Pub",
    "Address": "500 H St NW, Washington, DC 20001",
    "City": "WAS",
    "State": "DC",
    "latitude": 38.8995503,
    "longitude": -77.0190864,
    "Phone": "202-216-0046",
    "Website": "http://irishchanneldc.com/"
  },
  {
    "Teams": "nflbal",
    "Name": "Free State",
    "Address": "501b G St NW, Washington, DC 20001",
    "City": "WAS",
    "State": "DC",
    "latitude": 38.8984549,
    "longitude": -77.0192557,
    "Phone": "202-601-7216",
    "Website": "http://www.freestatebar.com/"
  },
  {
    "Teams": "nflnyg",
    "Name": "Brock's Riverside Grill",
    "Address": "503 Sophia St, Fredericksburg, VA 22401",
    "City": "WAS",
    "State": "VA",
    "latitude": 38.2993943,
    "longitude": -77.4552375,
    "Phone": "540-370-1820",
    "Website": "http://www.brocksgrill.com/"
  },
  {
    "Teams": "mlbbal",
    "Name": "Sliders Bar and Grill",
    "Address": "504 Washington Blvd, Baltimore, MD 21230",
    "City": "WAS",
    "State": "MD",
    "latitude": 39.2856403,
    "longitude": -76.6225638,
    "Phone": "410-547-8891",
    "Website": "http://www.slidersbaltimore.com/"
  },
  {
    "Teams": "nflcin",
    "Name": "The Bullpen Sports Bar & Grill",
    "Address": "508 Washington Blvd, Baltimore, MD 21230",
    "City": "WAS",
    "State": "MD",
    "latitude": 39.2855715,
    "longitude": -76.6226707,
    "Phone": "410-967-0685",
    "Website": ""
  },
  {
    "Teams": "mlbwas",
    "Name": "Knights of Columbus",
    "Address": "5115 Little Falls Rd, Arlington, VA 22207",
    "City": "WAS",
    "State": "VA",
    "latitude": 38.9062002,
    "longitude": -77.1412084,
    "Phone": "703-536-9656",
    "Website": "http://www.kofcedw2473.org/"
  },
  {
    "Teams": "mlbbal;nflbal",
    "Name": "Pickles Pub",
    "Address": "520 Washington Blvd, Baltimore, MD 21230",
    "City": "WAS",
    "State": "MD",
    "latitude": 39.2853866,
    "longitude": -76.6229618,
    "Phone": "410-752-1784",
    "Website": "http://www.picklespub.com"
  },
  {
    "Teams": "ncaabwvu;ncaafwvu",
    "Name": "Champion Billiards Sports Bar",
    "Address": "5205 Buckeystown Pike, Frederick, MD 21704",
    "City": "WAS",
    "State": "MD",
    "latitude": 39.373692,
    "longitude": -77.411869,
    "Phone": "301-846-0089",
    "Website": "http://www.frederickchampions.com/"
  },
  {
    "Teams": "ncaabasu;ncaafasu;ncaabarmy;ncaafarmy;ncaabbay;ncaafbay;mlbchc;ncaabcin;ncaafcin;nfldal;mlsdc;ncaabiowa;ncaafiowa;ncaablou;ncaaflou;ncaabmoh;ncaafmoh;ncaabnmsu;ncaafnmsu;ncaabniu;ncaafniu;ncaabosu;ncaafosu;ncaabusa;ncaafusa;ncaabtlsa;ncaaftlsa;ncaabusu;ncaafusu;ncaabutah;ncaafutah;nhlwsh;ncaabuw;ncaafuw;mlbwas;ncaabwsu;ncaafwsu;ncaabxu",
    "Name": "Crystal City Sports Pub",
    "Address": "529 23rd St S, Arlington, VA 22202",
    "City": "WAS",
    "State": "VA",
    "latitude": 38.853528,
    "longitude": -77.054334,
    "Phone": "703-521-8215",
    "Website": "http://www.ccsportspub.com/"
  },
  {
    "Teams": "nflbuf",
    "Name": "The Beacon",
    "Address": "5311 Buckeystown Pike, Frederick, MD 21704",
    "City": "WAS",
    "State": "MD",
    "latitude": 39.3788423,
    "longitude": -77.408335,
    "Phone": "301-698-2500 ext. 7151",
    "Website": "http://thebeaconfrederick.business.site/"
  },
  {
    "Teams": "ncaabumd;ncaafumd",
    "Name": "Anchor Bar Frederick",
    "Address": "5605 Spectrum Dr, Frederick, MD 21703",
    "City": "WAS",
    "State": "MD",
    "latitude": 39.384986,
    "longitude": -77.4039529,
    "Phone": "240-651-5580",
    "Website": "https://www.anchorbar.com/frederick-md"
  },
  {
    "Teams": "ncaabpsu;ncaafpsu",
    "Name": "Capital Crave",
    "Address": "5901 Old National Pike, Frederick, MD 21702",
    "City": "WAS",
    "State": "MD",
    "latitude": 39.4190609,
    "longitude": -77.4625957,
    "Phone": "301-631-9400",
    "Website": ""
  },
  {
    "Teams": "ncaabtex;ncaaftex",
    "Name": "Zen West",
    "Address": "5916 York Rd, Baltimore, MD 21212",
    "City": "WAS",
    "State": "MD",
    "latitude": 39.3643299,
    "longitude": -76.6101542,
    "Phone": "410-323-3368",
    "Website": "http://www.zen-west.com/"
  },
  {
    "Teams": "mlbchc;nhlwsh;ncaabxu",
    "Name": "The Greene Turtle Sports Bar & Grille",
    "Address": "601 F St NW, Washington, DC 20004",
    "City": "WAS",
    "State": "DC",
    "latitude": 38.8981326,
    "longitude": -77.0209405,
    "Phone": "202-637-8889",
    "Website": ""
  },
  {
    "Teams": "mlsdc",
    "Name": "Barrel",
    "Address": "613 Pennsylvania Ave SE, Washington, DC 20003",
    "City": "WAS",
    "State": "DC",
    "latitude": 38.8851145,
    "longitude": -76.9978686,
    "Phone": "202-543-3622",
    "Website": "http://barreldc.com/"
  },
  {
    "Teams": "ncaabusm;ncaafusm",
    "Name": "BJ's Restaurant & Brewhouse",
    "Address": "6181 Columbia Crossing Cir, Columbia, MD 21045",
    "City": "WAS",
    "State": "MD",
    "latitude": 39.1953199,
    "longitude": -76.8142045,
    "Phone": "443-393-8600",
    "Website": "https://www.bjsrestaurants.com/locations/md/columbia"
  },
  {
    "Teams": "ncaabpit;ncaafpit",
    "Name": "Buffalo Wild Wings",
    "Address": "6191 Columbia Crossing Cir, Columbia, MD 21045",
    "City": "WAS",
    "State": "MD",
    "latitude": 39.195818,
    "longitude": -76.8150859,
    "Phone": "443-546-4383",
    "Website": "http://buffalowildwings.com/"
  },
  {
    "Teams": "mlbbal",
    "Name": "Quigley's Half-Irish Pub",
    "Address": "633 Portland St, Baltimore, MD 21230",
    "City": "WAS",
    "State": "MD",
    "latitude": 39.2850414,
    "longitude": -76.6247684,
    "Phone": "410-539-9052",
    "Website": "http://www.quigleyshalfirishpub.com/"
  },
  {
    "Teams": "nfljax;mlbwas",
    "Name": "Glory Days Grill",
    "Address": "6341 Columbia Pike, Falls Church, VA 22041",
    "City": "WAS",
    "State": "VA",
    "latitude": 38.836884,
    "longitude": -77.155118,
    "Phone": "703-992-6060",
    "Website": "https://www.glorydaysgrill.com/locations/virginia/barcroft-plaza/"
  },
  {
    "Teams": "ncaabbut;mlbchc;nflden;nhlmtl;ncaabneb;ncaafneb;ncaabpit;ncaafpit;nflsea;ncaabusf;ncaafusf;mlbstl;ncaabsyr;ncaafsyr;ncaabwake;ncaafwake;nhlwsh",
    "Name": "Penn Quarter Sports Tavern",
    "Address": "639 Indiana Ave NW, Washington, DC 20004",
    "City": "WAS",
    "State": "DC",
    "latitude": 38.8942805,
    "longitude": -77.0214384,
    "Phone": "202-347-6666",
    "Website": "http://www.pennquartersportstavern.com/"
  },
  {
    "Teams": "ncaabuga;ncaafuga;nhlwsh",
    "Name": "Penn Commons",
    "Address": "700 6th St NW, Washington, DC 20001",
    "City": "WAS",
    "State": "DC",
    "latitude": 38.8988074,
    "longitude": -77.0200893,
    "Phone": "202-905-2999",
    "Website": "http://www.penncommonsdc.com/"
  },
  {
    "Teams": "nflpit",
    "Name": "Todd Conner's",
    "Address": "700 S Broadway, Baltimore, MD 21231",
    "City": "WAS",
    "State": "MD",
    "latitude": 39.2834269,
    "longitude": -76.5935797,
    "Phone": "410-537-5005",
    "Website": "http://www.toddconners.com/"
  },
  {
    "Teams": "ncaabtem;ncaaftem;nhlwsh",
    "Name": "Bar Louie",
    "Address": "701 7th St NW, Washington, DC 20001",
    "City": "WAS",
    "State": "DC",
    "latitude": 38.8989447,
    "longitude": -77.0204955,
    "Phone": "202-638-2460",
    "Website": "http://barlouie.com/locations/states/district-of-columbia/washington-dc"
  },
  {
    "Teams": "nhlwsh",
    "Name": "Lucky's Sports Theatre & Grill",
    "Address": "7027 Manchester Blvd B, Alexandria, VA 22310",
    "City": "WAS",
    "State": "VA",
    "latitude": 38.765938,
    "longitude": -77.155012,
    "Phone": "703-922-0404",
    "Website": "http://www.luckyssportstheatre.com/"
  },
  {
    "Teams": "nflne;ncaabsyr;ncaafsyr",
    "Name": "DogWatch Tavern",
    "Address": "709 S Broadway, Baltimore, MD 21231",
    "City": "WAS",
    "State": "MD",
    "latitude": 39.2833144,
    "longitude": -76.5930216,
    "Phone": "410-276-6030",
    "Website": "http://www.dogwatchtavern.com/"
  },
  {
    "Teams": "ncaabpit;ncaafpit;ncaabvt;ncaafvt",
    "Name": "Alexander's Tavern",
    "Address": "710 S Broadway, Baltimore, MD 21231",
    "City": "WAS",
    "State": "MD",
    "latitude": 39.28316,
    "longitude": -76.593804,
    "Phone": "410-522-0000",
    "Website": "http://www.alexanderstavern.com/"
  },
  {
    "Teams": "ncaabmsst;ncaafmsst",
    "Name": "Lola's",
    "Address": "711 8th St SE, Washington, DC 20003",
    "City": "WAS",
    "State": "DC",
    "latitude": 38.8808332,
    "longitude": -76.9952809,
    "Phone": "202-846-7728",
    "Website": "http://lolasthehill.com/"
  },
  {
    "Teams": "mlsdc;ncaabnc;ncaafnc;ncaabnd;ncaafnd;ncaabttu;ncaafttu",
    "Name": "Finn McCool's",
    "Address": "713 8th St SE, Washington, DC 20003",
    "City": "WAS",
    "State": "DC",
    "latitude": 38.880773,
    "longitude": -76.995343,
    "Phone": "202-507-8277",
    "Website": "http://finnmccoolsthehill.com/"
  },
  {
    "Teams": "nflne",
    "Name": "Murphy's Grand Irish Pub",
    "Address": "713 King St, Alexandria, VA 22314",
    "City": "WAS",
    "State": "VA",
    "latitude": 38.8052806,
    "longitude": -77.0474838,
    "Phone": "703-548-1717",
    "Website": "http://www.murphyspub.com/"
  },
  {
    "Teams": "nhlwsh;nflwas;nbawas",
    "Name": "Rocket Bar",
    "Address": "714 7th St NW, Washington, DC 20001",
    "City": "WAS",
    "State": "DC",
    "latitude": 38.899013,
    "longitude": -77.022318,
    "Phone": "202-628-7665",
    "Website": "http://www.rocketbardc.com/"
  },
  {
    "Teams": "ncaabcolo;ncaafcolo",
    "Name": "The Light Horse",
    "Address": "715 King St, Alexandria, VA 22314",
    "City": "WAS",
    "State": "VA",
    "latitude": 38.8052744,
    "longitude": -77.0475773,
    "Phone": "703-549-0533",
    "Website": "http://thelighthorserestaurant.com/"
  },
  {
    "Teams": "nhlwsh",
    "Name": "Bar Deco",
    "Address": "717 6th St NW, Washington, DC 20001",
    "City": "WAS",
    "State": "DC",
    "latitude": 38.8988765,
    "longitude": -77.0196679,
    "Phone": "202-774-5867",
    "Website": "http://www.bardecodc.com/"
  },
  {
    "Teams": "ncaabpsu;ncaafpsu",
    "Name": "World of Beer",
    "Address": "7200 Wisconsin Ave, Bethesda, MD 20814",
    "City": "WAS",
    "State": "MD",
    "latitude": 38.981214,
    "longitude": -77.0936423,
    "Phone": "240-389-9317",
    "Website": "https://worldofbeer.com/Locations/Bethesda"
  },
  {
    "Teams": "mlbbos;ncaabuf;ncaafuf;ncaabisu;ncaafisu;ncaabksu;ncaafksu;ncaabncst;ncaafncst;ncaabusc;ncaafusc;nhlwsh;mlbwas;ncaabwsu;ncaafwsu;ncaabnavy;ncaafnavy",
    "Name": "The Ugly Mug",
    "Address": "723 8th St SE, Washington, DC 20003",
    "City": "WAS",
    "State": "DC",
    "latitude": 38.8804759,
    "longitude": -76.9951392,
    "Phone": "202-547-8459",
    "Website": "http://www.uglymugdc.com/"
  },
  {
    "Teams": "ncaabariz;ncaafariz;nhlwsh;nbawas",
    "Name": "Jackpot",
    "Address": "726 7th St NW, Washington, DC 20001",
    "City": "WAS",
    "State": "DC",
    "latitude": 38.8993223,
    "longitude": -77.0220898,
    "Phone": "202-628-5225",
    "Website": "https://www.jackpotdc.com/"
  },
  {
    "Teams": "mlbcle;nflno",
    "Name": "Max's Taphouse",
    "Address": "737 S Broadway, Baltimore, MD 21231",
    "City": "WAS",
    "State": "MD",
    "latitude": 39.282646,
    "longitude": -76.5930128,
    "Phone": "410-675-6297",
    "Website": "http://www.maxs.com/"
  },
  {
    "Teams": "mlsdc",
    "Name": "Kirwan's on the Wharf",
    "Address": "749 Wharf St SW, Washington, DC 20024",
    "City": "WAS",
    "State": "DC",
    "latitude": 38.8786479,
    "longitude": -77.0243034,
    "Phone": "202-554-3818",
    "Website": "https://www.kirwansonthewharf.com/"
  },
  {
    "Teams": "mlbwas",
    "Name": "Barrel & Bushel",
    "Address": "7901 Tysons One Pl, Tysons, VA 22102",
    "City": "WAS",
    "State": "VA",
    "latitude": 38.918728,
    "longitude": -77.220006,
    "Phone": "703-848-6340",
    "Website": "http://www.barrelandbushel.com/"
  },
  {
    "Teams": "ncaabosu;ncaafosu",
    "Name": "Tommy Joe's",
    "Address": "7940 Norfolk Ave, Bethesda, MD 20814",
    "City": "WAS",
    "State": "MD",
    "latitude": 38.9894682,
    "longitude": -77.0984666,
    "Phone": "301-654-3801",
    "Website": "http://www.tommyjoes.com/bethesda/"
  },
  {
    "Teams": "mlbwas",
    "Name": "Saphire Cafe",
    "Address": "7940 Wisconsin Ave, Bethesda, MD 20814",
    "City": "WAS",
    "State": "MD",
    "latitude": 38.9903462,
    "longitude": -77.0956691,
    "Phone": "301-986-9708",
    "Website": ""
  },
  {
    "Teams": "ncaabcolo;ncaafcolo;mlsdc;ncaabmich;ncaafmich;nbasas;ncaabsmu;ncaafsmu;ncaabucf;ncaafucf;nhlwsh;ncaabwmu;ncaafwmu",
    "Name": "Penn Social",
    "Address": "801 E St NW, Washington, DC 20004",
    "City": "WAS",
    "State": "DC",
    "latitude": 38.896305,
    "longitude": -77.023289,
    "Phone": "202-697-4900",
    "Website": "http://pennsocialdc.com/"
  },
  {
    "Teams": "ncaabcin;ncaafcin;mlsdc;ncaabmich;ncaafmich;ncaabosu;ncaafosu;ncaabusc;ncaafusc",
    "Name": "Fado Irish Pub",
    "Address": "808 7th St NW, Washington, DC 20001",
    "City": "WAS",
    "State": "DC",
    "latitude": 38.9000584,
    "longitude": -77.0221165,
    "Phone": "202-789-0066",
    "Website": "http://www.fadoirishpub.com/washington/"
  },
  {
    "Teams": "ncaabark;ncaafark;mlbbal;ncaabuva;ncaafuva;nhlwsh;ncaabwis;ncaafwis",
    "Name": "Abbey Burger Bistro",
    "Address": "811 S Broadway, Baltimore, MD 21231",
    "City": "WAS",
    "State": "MD",
    "latitude": 39.2822728,
    "longitude": -76.5926991,
    "Phone": "410-522-1428",
    "Website": "http://www.abbeyburger.com/"
  },
  {
    "Teams": "ncaabtex;ncaaftex",
    "Name": "Yard House",
    "Address": "812 7th St NW, Washington, DC 20001",
    "City": "WAS",
    "State": "DC",
    "latitude": 38.9006978,
    "longitude": -77.0221298,
    "Phone": "202-962-0174",
    "Website": "https://www.yardhouse.com/locations/dc/washington/washington-dc/8376"
  },
  {
    "Teams": "ncaabfsu;ncaaffsu",
    "Name": "Paddy Barry's",
    "Address": "8150 Leesburg Pike, Tysons, VA 22182",
    "City": "WAS",
    "State": "VA",
    "latitude": 38.91645,
    "longitude": -77.226712,
    "Phone": "703-883-2000",
    "Website": "http://www.paddybarrysva.com/"
  },
  {
    "Teams": "ncaabull;ncaafull;ncaabtuln;ncaaftuln",
    "Name": "Dirty Waters Sports Bar",
    "Address": "816 H St NE, Washington, DC 20002",
    "City": "WAS",
    "State": "DC",
    "latitude": 38.900452,
    "longitude": -76.9941931,
    "Phone": "504-296-6180",
    "Website": ""
  },
  {
    "Teams": "ncaabku;ncaafku;ncaabnd;ncaafnd;ncaabvt;ncaafvt",
    "Name": "Wiley Gunters",
    "Address": "823 E Fort Ave, Baltimore, MD 21230",
    "City": "WAS",
    "State": "MD",
    "latitude": 39.2717499,
    "longitude": -76.60223,
    "Phone": "410-637-3699",
    "Website": "http://www.wileygunters.com/"
  },
  {
    "Teams": "nflbuf",
    "Name": "Nottingham's",
    "Address": "8850 Stanford Blvd, Columbia, MD 21045",
    "City": "WAS",
    "State": "MD",
    "latitude": 39.1901814,
    "longitude": -76.8148077,
    "Phone": "410-290-0077",
    "Website": "http://www.nottinghams.net/"
  },
  {
    "Teams": "nflbal",
    "Name": "The Greene Turtle Sports Bar & Grille",
    "Address": "8872 McGraw Road suite c, Columbia, MD 21045",
    "City": "WAS",
    "State": "MD",
    "latitude": 39.1883885,
    "longitude": -76.8188892,
    "Phone": "410-312-5255",
    "Website": "https://thegreeneturtle.com/location/columbia"
  },
  {
    "Teams": "mlsdc;nflwas",
    "Name": "Elephant & Castle",
    "Address": "900 19th St NW, Washington, DC 20006",
    "City": "WAS",
    "State": "DC",
    "latitude": 38.9016343,
    "longitude": -77.0437838,
    "Phone": "202-296-2575",
    "Website": "http://www.elephantcastle.com/"
  },
  {
    "Teams": "nflcle",
    "Name": "Homeslyce Canton",
    "Address": "900 S Kenwood Ave, Baltimore, MD 21224",
    "City": "WAS",
    "State": "MD",
    "latitude": 39.2820268,
    "longitude": -76.5771578,
    "Phone": "443-501-4000",
    "Website": "http://www.homeslyce.com/"
  },
  {
    "Teams": "mlsdc;nflno;nhlwsh;mlbwas;nflwas;ncaabwvu;ncaafwvu",
    "Name": "Nellie's Sports Bar",
    "Address": "900 U St NW, Washington, DC 20001",
    "City": "WAS",
    "State": "DC",
    "latitude": 38.916821,
    "longitude": -77.0242019,
    "Phone": "202-332-6355",
    "Website": "http://www.nelliessportsbar.com/"
  },
  {
    "Teams": "ncaabhou;ncaafhou;nflhou;nhlwsh;mlbwas",
    "Name": "City Tap House Penn Quarter",
    "Address": "901 9th St NW, Washington, DC 20001",
    "City": "WAS",
    "State": "DC",
    "latitude": 38.9010463,
    "longitude": -77.02385,
    "Phone": "202-733-5333",
    "Website": "https://www.citytap.com/"
  },
  {
    "Teams": "ncaabduke;ncaafduke",
    "Name": "High Velocity",
    "Address": "901 Massachusetts Ave NW, Washington, DC 20001",
    "City": "WAS",
    "State": "DC",
    "latitude": 38.9039246,
    "longitude": -77.0243993,
    "Phone": "202-824-9389",
    "Website": "http://www.marriott.com/hotel-restaurants/wasco-marriott-marquis-washington-dc/high-velocity/5641403/home-page.mi"
  },
  {
    "Teams": "ncaabuf;ncaafuf",
    "Name": "Crafthouse",
    "Address": "901 N Glebe Rd #105, Arlington, VA 22203",
    "City": "WAS",
    "State": "VA",
    "latitude": 38.8814934,
    "longitude": -77.1153352,
    "Phone": "571-483-0421",
    "Website": "http://crafthouseusa.com/"
  },
  {
    "Teams": "mlsdc",
    "Name": "Scarlet Oak Restaurant & Bar",
    "Address": "909 New Jersey Ave SE, Washington, DC 20003",
    "City": "WAS",
    "State": "DC",
    "latitude": 38.8785482,
    "longitude": -77.005221,
    "Phone": "202-780-0140",
    "Website": "http://www.scarletoakdc.com/"
  },
  {
    "Teams": "mlbwas",
    "Name": "The Board Room VA",
    "Address": "925 N Garfield St, Arlington, VA 22201",
    "City": "WAS",
    "State": "VA",
    "latitude": 38.8841225,
    "longitude": -77.0930771,
    "Phone": "703-248-9439",
    "Website": "http://theboardroomva.com/"
  },
  {
    "Teams": "nfldal",
    "Name": "HomeSlyce Columbia",
    "Address": "9400 Snowden River Pkwy #127, Columbia, MD 21045",
    "City": "WAS",
    "State": "MD",
    "latitude": 39.1767443,
    "longitude": -76.8365848,
    "Phone": "443-491-4000",
    "Website": "http://www.homeslyce.com/"
  },
  {
    "Teams": "mlsdc",
    "Name": "The Brighton",
    "Address": "949 Wharf St SW, Washington, DC 20024",
    "City": "WAS",
    "State": "DC",
    "latitude": 38.8800596,
    "longitude": -77.026187,
    "Phone": "202-735-5398",
    "Website": "https://www.brighton-dc.com/"
  },
  {
    "Teams": "ncaabneb;ncaafneb;nhlpit",
    "Name": "Buffalo Wild Wings",
    "Address": "950 N Glebe Rd #130, Arlington, VA 22203",
    "City": "WAS",
    "State": "VA",
    "latitude": 38.8816635,
    "longitude": -77.1162929,
    "Phone": "703-243-7525",
    "Website": "http://buffalowildwings.com/"
  },
  {
    "Teams": "mlbwas",
    "Name": "Revolution Billiards",
    "Address": "9687 Fairfax Blvd, Fairfax, VA 22030",
    "City": "WAS",
    "State": "VA",
    "latitude": 38.8632804,
    "longitude": -77.2788821,
    "Phone": "703-385-7529",
    "Website": "http://www.therevolutiondartsandbilliards.com/fairfax-virginia.html"
  },
  {
    "Teams": "ncaabcle;ncaafcle",
    "Name": "Union Jack's British Pub",
    "Address": "9811 Washingtonian Blvd, Gaithersburg, MD 20878",
    "City": "WAS",
    "State": "MD",
    "latitude": 39.1154524,
    "longitude": -77.1969657,
    "Phone": "240-780-7139",
    "Website": "http://www.unionjacksrio.com/"
  },
  {
    "Teams": "mlsdc",
    "Name": "CIRCA at Navy Yard",
    "Address": "99 M St SE Ste 100, Washington, DC 20003",
    "City": "WAS",
    "State": "DC",
    "latitude": 38.8763492,
    "longitude": -77.0061085,
    "Phone": "202-863-9900",
    "Website": "http://www.circabistros.com/"
  },
  {
    "Teams": "mlsdc",
    "Name": "Hard Rock Cafe",
    "Address": "999 E St NW, Washington, DC 20004",
    "City": "WAS",
    "State": "DC",
    "latitude": 38.896292,
    "longitude": -77.025749,
    "Phone": "202-737-7625",
    "Website": "http://www.hardrock.com/cafes/washington-dc/"
  },
  {
    "Teams": "mlbwas",
    "Name": "Due South Dockside",
    "Address": "Anacostia Riverwalk Trail, Washington, DC 20003",
    "City": "WAS",
    "State": "DC",
    "latitude": 38.8727844,
    "longitude": -77.0016097,
    "Phone": "",
    "Website": "https://duesouthdc.com/"
  },
  {
    "Teams": "mlbwas",
    "Name": "Finn & Porter Restaurant",
    "Address": "Embassy Suites, 900 10th St NW, Washington, DC 20001",
    "City": "WAS",
    "State": "DC",
    "latitude": 38.9021059,
    "longitude": -77.0261366,
    "Phone": "202-719-1600",
    "Website": "https://embassysuites3.hilton.com/en/hotels/district-of-columbia/embassy-suites-by-hilton-washington-dc-convention-center-WASCCES/dining/finn-porter.html"
  }
]